time,x,y,z,yaw,throttle,roll_rate,pitch_rate,yaw_rate,x_ref,y_ref,z_ref,yaw_ref,pred_time,nr_time,ctrl_callback_time,metadata
3.5762786865234375e-06,-0.06189323589205742,0.010390707291662693,-0.24033072590827942,-0.04825017754303688,0.4905301332473755,-0.08848459273576736,-0.3628552556037903,0.0,0.0,0.0,-0.6,-0.04825017754303688,1.1700563430786133,1.1700563430786133,1.4264404773712158,Hardware
1.4292831420898438,-0.06189323589205742,0.010390707291662693,-0.24033072590827942,-0.04825017754303688,0.4972873628139496,-0.05919037014245987,-0.2785724401473999,0.0,0.0,0.0,-0.6,-0.04825017754303688,0.004877567291259766,0.004877567291259766,0.01759195327758789,flat wardi with jax
1.450044870376587,-0.06190968677401543,0.010879936628043652,-0.2387477457523346,-0.04823911817528609,0.5020913481712341,-0.05273929610848427,-0.22011809051036835,0.0,0.0,0.0,-0.6,-0.04823911817528609,0.0018475055694580078,0.0018475055694580078,0.015143156051635742,1x Speed
1.466642141342163,-0.06190968677401543,0.010879936628043652,-0.2387477457523346,-0.04823911817528609,0.5054429173469543,-0.036114711314439774,-0.1736261397600174,0.0,0.0,0.0,-0.6,-0.04823911817528609,0.001926422119140625,0.001926422119140625,0.013836145401000977,circle_horz_ref_func
1.4836163520812988,-0.0619177520275116,0.010891820304095745,-0.23871172964572906,-0.04823415104210689,0.5077852606773376,-0.025179602205753326,-0.13804464042186737,0.0,0.0,0.0,-0.6,-0.04823415104210689,0.0013704299926757812,0.0013704299926757812,0.013253450393676758,0
1.4990708827972412,-0.0619177520275116,0.010891820304095745,-0.23871172964572906,-0.04823415104210689,0.5094228386878967,-0.017439600080251694,-0.11016823351383209,0.0,0.0,0.0,-0.6,-0.04823415104210689,0.001708984375,0.001708984375,0.014837503433227539,0
1.5167272090911865,-0.061927955597639084,0.010900440625846386,-0.2386895716190338,-0.04822540106400328,0.5105672478675842,-0.011390102095901966,-0.08889275044202805,0.0,0.0,0.0,-0.6,-0.04822540106400328,0.00193023681640625,0.00193023681640625,0.014370441436767578,0
1.533506155014038,-0.061927955597639084,0.010900440625846386,-0.2386895716190338,-0.04822540106400328,0.5113682150840759,-0.007932030595839024,-0.07125980406999588,0.0,0.0,0.0,-0.6,-0.04822540106400328,0.0018401145935058594,0.0018401145935058594,0.013727903366088867,0
1.549363613128662,-0.061937350779771805,0.010911303572356701,-0.23867696523666382,-0.048240866300485276,0.5119330286979675,-0.007555434014648199,-0.05718638375401497,0.0,0.0,0.0,-0.6,-0.048240866300485276,0.0016434192657470703,0.0016434192657470703,0.013087987899780273,0
1.5645372867584229,-0.061937350779771805,0.010911303572356701,-0.23867696523666382,-0.048240866300485276,0.512328565120697,-0.005275390576571226,-0.045908425003290176,0.0,0.0,0.0,-0.6,-0.048240866300485276,0.0016813278198242188,0.0016813278198242188,0.012438774108886719,0
1.5795338153839111,-0.06194431707262993,0.010926964692771435,-0.23866339027881622,-0.04822596731786865,0.512610137462616,-0.0040719592943787575,-0.0366702675819397,0.0,0.0,0.0,-0.6,-0.04822596731786865,0.00171661376953125,0.00171661376953125,0.01423025131225586,0
1.5951216220855713,-0.06194431707262993,0.010926964692771435,-0.23866339027881622,-0.04822596731786865,0.5128074884414673,-0.0028467755764722824,-0.029443616047501564,0.0,0.0,0.0,-0.6,-0.04822596731786865,0.0016782283782958984,0.0016782283782958984,0.014132976531982422,0
1.6123089790344238,-0.061950866132974625,0.010941636748611927,-0.23865628242492676,-0.04821535048667444,0.5129416584968567,-0.0018161153420805931,-0.02338731288909912,0.0,0.0,0.0,-0.6,-0.04821535048667444,0.001544952392578125,0.001544952392578125,0.01378321647644043,0
1.6288678646087646,-0.06195090338587761,0.010953778401017189,-0.23865991830825806,-0.04821195363118413,0.5130372047424316,-0.0026223999448120594,-0.018267134204506874,0.0,0.0,0.0,-0.6,-0.04821195363118413,0.0024836063385009766,0.0024836063385009766,0.013790369033813477,0
1.6446173191070557,-0.06195090338587761,0.010953778401017189,-0.23865991830825806,-0.04821195363118413,0.5131040811538696,-0.0018348933663219213,-0.014658451080322266,0.0,0.0,0.0,-0.6,-0.04821195363118413,0.0015649795532226562,0.0015649795532226562,0.013505220413208008,0
1.6603093147277832,-0.06194944679737091,0.01097176969051361,-0.2386551946401596,-0.04820197150186108,0.5131544470787048,-0.0017364872619509697,-0.011601852253079414,0.0,0.0,0.0,-0.6,-0.04820197150186108,0.0015952587127685547,0.0015952587127685547,0.01272273063659668,0
1.6749320030212402,-0.06194944679737091,0.01097176969051361,-0.2386551946401596,-0.04820197150186108,0.5131897926330566,-0.0012152642011642456,-0.009306650608778,0.0,0.0,0.0,-0.6,-0.04820197150186108,0.0016465187072753906,0.0016465187072753906,0.012304544448852539,0
1.6895217895507812,-0.06194892153143883,0.010988733731210232,-0.23865169286727905,-0.04818416844311585,0.513211727142334,-0.0004155788919888437,-0.0076799592934548855,0.0,0.0,0.0,-0.6,-0.04818416844311585,0.0017337799072265625,0.0017337799072265625,0.015046358108520508,0
1.7059810161590576,-0.06194892153143883,0.010988733731210232,-0.23865169286727905,-0.04818416844311585,0.513227105140686,-0.0002908796595875174,-0.006155266892164946,0.0,0.0,0.0,-0.6,-0.04818416844311585,0.0018901824951171875,0.0018901824951171875,0.01453542709350586,0
1.723616600036621,-0.06194756552577019,0.011013579554855824,-0.23865953087806702,-0.04819364537863576,0.5132387280464172,-0.0011587078915908933,-0.0048411390744149685,0.0,0.0,0.0,-0.6,-0.04819364537863576,0.0014007091522216797,0.0014007091522216797,0.012984275817871094,0
1.7382099628448486,-0.06194756552577019,0.011013579554855824,-0.23865953087806702,-0.04819364537863576,0.5132468938827515,-0.0008110511116683483,-0.003879014402627945,0.0,0.0,0.0,-0.6,-0.04819364537863576,0.0016837120056152344,0.0016837120056152344,0.012661457061767578,0
1.754077434539795,-0.061944182962179184,0.011027664877474308,-0.23867231607437134,-0.048191636713682845,0.5132498741149902,-0.0007115841726772487,-0.003194682067260146,0.0,0.0,0.0,-0.6,-0.048191636713682845,0.0017120838165283203,0.0017120838165283203,0.015511274337768555,0
1.7718136310577393,-0.06194121018052101,0.01104774884879589,-0.2386937439441681,-0.04818973657634279,0.5132493376731873,-0.0008107007015496492,-0.0024420779664069414,0.0,0.0,0.0,-0.6,-0.04818973657634279,0.001748800277709961,0.001748800277709961,0.01391911506652832,0
1.7878968715667725,-0.06194121018052101,0.01104774884879589,-0.2386937439441681,-0.04818973657634279,0.5132489800453186,-0.0005674943677149713,-0.0019533135928213596,0.0,0.0,0.0,-0.6,-0.04818973657634279,0.0015871524810791016,0.0015871524810791016,0.012618780136108398,0
1.802720069885254,-0.061937738209962845,0.011061414144933224,-0.23871535062789917,-0.04819010334395518,0.5132479667663574,0.0002931773487944156,-0.0016723991138860583,0.0,0.0,0.0,-0.6,-0.04819010334395518,0.001708984375,0.001708984375,0.013435840606689453,0
1.8199644088745117,-0.06193367764353752,0.011075004003942013,-0.23874230682849884,-0.0481749565282136,0.5132445693016052,-0.0006569383549503982,-0.0016966828843578696,0.0,0.0,0.0,-0.6,-0.0481749565282136,0.0022928714752197266,0.0022928714752197266,0.014849424362182617,0
1.8370733261108398,-0.06193367764353752,0.011075004003942013,-0.23874230682849884,-0.0481749565282136,0.5132421851158142,-0.00045986624900251627,-0.001355417538434267,0.0,0.0,0.0,-0.6,-0.0481749565282136,0.0019125938415527344,0.0019125938415527344,0.014016866683959961,0
1.8531508445739746,-0.0619242899119854,0.011111637577414513,-0.23880751430988312,-0.04817918063989682,0.5132349729537964,-0.003507733577862382,-0.0008640339365229011,0.0,0.0,0.0,-0.6,-0.04817918063989682,0.0015861988067626953,0.0015861988067626953,0.012876272201538086,0
1.8687007427215576,-0.0619242899119854,0.011111637577414513,-0.23880751430988312,-0.04817918063989682,0.5132299065589905,-0.002455491805449128,-0.0006871383520774543,0.0,0.0,0.0,-0.6,-0.04817918063989682,0.0026984214782714844,0.0026984214782714844,0.014831304550170898,0
1.886343240737915,-0.061920177191495895,0.011145046912133694,-0.2388554811477661,-0.04817665051896526,0.513227105140686,-0.002186430152505636,-0.0007276170654222369,0.0,0.0,0.0,-0.6,-0.04817665051896526,0.0020363330841064453,0.0020363330841064453,0.014966487884521484,0
1.9028234481811523,-0.061920177191495895,0.011145046912133694,-0.2388554811477661,-0.04817665051896526,0.5132251977920532,-0.0015305174747481942,-0.0005805276450701058,0.0,0.0,0.0,-0.6,-0.04817665051896526,0.0024733543395996094,0.0024733543395996094,0.01590585708618164,0
1.9223392009735107,-0.06191408634185791,0.011178783141076565,-0.23890554904937744,-0.04816692014770114,0.5132216215133667,-0.001534573151730001,-0.00022297339455690235,0.0,0.0,0.0,-0.6,-0.04816692014770114,0.0021462440490722656,0.0021462440490722656,0.015627384185791016,0
1.9408118724822998,-0.0619107186794281,0.011199867352843285,-0.23893499374389648,-0.048166102302408226,0.5132147669792175,-0.0016304559540003538,-0.00020924225100316107,0.0,0.0,0.0,-0.6,-0.048166102302408226,0.0018329620361328125,0.0018329620361328125,0.015795230865478516,0
1.9598393440246582,-0.061906080693006516,0.011222579516470432,-0.2389688342809677,-0.04816887550975425,0.513213038444519,-0.0013237063540145755,-8.575679385103285e-05,0.0,0.0,0.0,-0.6,-0.04816887550975425,0.0019538402557373047,0.0019538402557373047,0.01549673080444336,0
1.9768505096435547,-0.061906080693006516,0.011222579516470432,-0.2389688342809677,-0.04816887550975425,0.5132117867469788,-0.000926606822758913,-6.762988050468266e-05,0.0,0.0,0.0,-0.6,-0.04816887550975425,0.0019121170043945312,0.0019121170043945312,0.01389169692993164,0
1.9938716888427734,-0.06190725415945053,0.011262479238212109,-0.2390015870332718,-0.04814594852768748,0.5132066011428833,-0.001378572778776288,-0.0004962596576660872,0.0,0.0,0.0,-0.6,-0.04814594852768748,0.0021581649780273438,0.0021581649780273438,0.013776540756225586,0
2.009284257888794,-0.06190725415945053,0.011262479238212109,-0.2390015870332718,-0.04814594852768748,0.513202965259552,-0.0009650214924477041,-0.0003941045724786818,0.0,0.0,0.0,-0.6,-0.04814594852768748,0.0015113353729248047,0.0015113353729248047,0.01303553581237793,0
2.02547550201416,-0.06191132217645645,0.011288376525044441,-0.23900717496871948,-0.04815034759707568,0.5132013559341431,-0.0018870068015530705,1.008823801385006e-06,0.0,0.0,0.0,-0.6,-0.04815034759707568,0.0017695426940917969,0.0017695426940917969,0.01418614387512207,0
2.041935920715332,-0.06191132217645645,0.011288376525044441,-0.23900717496871948,-0.04815034759707568,0.5132002234458923,-0.0013209142489358783,1.7292409211222548e-06,0.0,0.0,0.0,-0.6,-0.04815034759707568,0.0019714832305908203,0.0019714832305908203,0.014090776443481445,0
2.0582115650177,-0.061915185302495956,0.011317254975438118,-0.2390117645263672,-0.04813714611231,0.5131998658180237,-0.0014786618994548917,-0.00058983318740502,0.0,0.0,0.0,-0.6,-0.04813714611231,0.0022878646850585938,0.0022878646850585938,0.0140838623046875,0
2.0742270946502686,-0.061915185302495956,0.011317254975438118,-0.2390117645263672,-0.04813714611231,0.5131997466087341,-0.0010350593365728855,-0.0004716738185379654,0.0,0.0,0.0,-0.6,-0.04813714611231,0.0017361640930175781,0.0017361640930175781,0.013072013854980469,0
2.0895187854766846,-0.06192033737897873,0.011343110352754593,-0.23902124166488647,-0.04814457806937407,0.5132009983062744,-0.0006600924534723163,-0.000815117615275085,0.0,0.0,0.0,-0.6,-0.04814457806937407,0.001550912857055664,0.001550912857055664,0.015156030654907227,0
2.107778549194336,-0.061926405876874924,0.011360458098351955,-0.23902364075183868,-0.04813767061570348,0.5131999254226685,-0.001223905710503459,-0.0008992286748252809,0.0,0.0,0.0,-0.6,-0.04813767061570348,0.002324819564819336,0.002324819564819336,0.01466226577758789,0
2.125086784362793,-0.061926405876874924,0.011360458098351955,-0.23902364075183868,-0.04813767061570348,0.5131992697715759,-0.0008567359764128923,-0.0007187871960923076,0.0,0.0,0.0,-0.6,-0.04813767061570348,0.0019788742065429688,0.0019788742065429688,0.013664484024047852,0
2.1409780979156494,-0.06193361058831215,0.011386649683117867,-0.23904341459274292,-0.04814826936831622,0.5131964087486267,0.0005155792459845543,-0.0003508366644382477,0.0,0.0,0.0,-0.6,-0.04814826936831622,0.0020835399627685547,0.0020835399627685547,0.01507878303527832,0
2.1587047576904297,-0.06193361058831215,0.011386649683117867,-0.23904341459274292,-0.04814826936831622,0.5131944417953491,0.00036090787034481764,-0.00027905849856324494,0.0,0.0,0.0,-0.6,-0.04814826936831622,0.001901865005493164,0.001901865005493164,0.013642311096191406,0
2.174642562866211,-0.06193975359201431,0.01142235565930605,-0.23908625543117523,-0.04816167760444734,0.5131949782371521,-0.0012244835961610079,-0.0005286861560307443,0.0,0.0,0.0,-0.6,-0.04816167760444734,0.0018372535705566406,0.0018372535705566406,0.013491153717041016,0
2.190419912338257,-0.06193975359201431,0.01142235565930605,-0.23908625543117523,-0.04816167760444734,0.5131953358650208,-0.0008571358630433679,-0.0004232227220200002,0.0,0.0,0.0,-0.6,-0.04816167760444734,0.0016596317291259766,0.0016596317291259766,0.012759685516357422,0
2.2051775455474854,-0.061941973865032196,0.011456546373665333,-0.2391275018453598,-0.0481641597426589,0.51319420337677,-0.0011812711600214243,-0.00045503489673137665,0.0,0.0,0.0,-0.6,-0.0481641597426589,0.0016391277313232422,0.0016391277313232422,0.014317035675048828,0
2.22269606590271,-0.061941973865032196,0.011456546373665333,-0.2391275018453598,-0.0481641597426589,0.5131934285163879,-0.0008268905803561211,-0.00036339115467853844,0.0,0.0,0.0,-0.6,-0.0481641597426589,0.001951456069946289,0.001951456069946289,0.013950347900390625,0
2.238706588745117,-0.06194467842578888,0.01148903463035822,-0.239157572388649,-0.04816355057616543,0.5131929516792297,-0.001423456473276019,0.00034513164428062737,0.0,0.0,0.0,-0.6,-0.04816355057616543,0.001848459243774414,0.001848459243774414,0.014683723449707031,0
2.2547881603240967,-0.06194467842578888,0.01148903463035822,-0.239157572388649,-0.04816355057616543,0.5131925940513611,-0.0009964221389964223,0.00027636581216938794,0.0,0.0,0.0,-0.6,-0.04816355057616543,0.002934694290161133,0.002934694290161133,0.016184091567993164,0
2.273761510848999,-0.06195445731282234,0.011522753164172173,-0.23917707800865173,-0.04817830513256194,0.5131891965866089,-0.0001787172514013946,-0.0011099489638581872,0.0,0.0,0.0,-0.6,-0.04817830513256194,0.002032756805419922,0.002032756805419922,0.01384115219116211,0
2.2895421981811523,-0.06195445731282234,0.011522753164172173,-0.23917707800865173,-0.04817830513256194,0.5131868720054626,-0.00012510066153481603,-0.0008860384114086628,0.0,0.0,0.0,-0.6,-0.04817830513256194,0.002374887466430664,0.002374887466430664,0.015805482864379883,0
2.307464599609375,-0.061966974288225174,0.011537798680365086,-0.23918160796165466,-0.04819278144326815,0.5131884217262268,0.0002167871716665104,-0.001092173159122467,0.0,0.0,0.0,-0.6,-0.04819278144326815,0.001958608627319336,0.001958608627319336,0.014558076858520508,0
2.3250482082366943,-0.061966974288225174,0.011537798680365086,-0.23918160796165466,-0.04819278144326815,0.5131894946098328,0.00015174431609921157,-0.0008745739469304681,0.0,0.0,0.0,-0.6,-0.04819278144326815,0.0019452571868896484,0.0019452571868896484,0.014312505722045898,0
2.341611862182617,-0.061988528817892075,0.011553491465747356,-0.2391614466905594,-0.04817489542649549,0.5131956338882446,-0.00032052447204478085,-0.0008161428268067539,0.0,0.0,0.0,-0.6,-0.04817489542649549,0.0015709400177001953,0.0015709400177001953,0.014666557312011719,0
2.358428716659546,-0.061988528817892075,0.011553491465747356,-0.2391614466905594,-0.04817489542649549,0.5131998658180237,-0.00022435944993048906,-0.0006563097122125328,0.0,0.0,0.0,-0.6,-0.04817489542649549,0.0017006397247314453,0.0017006397247314453,0.012866735458374023,0
2.3734519481658936,-0.062003400176763535,0.011566303670406342,-0.2391577959060669,-0.04819351066135542,0.5132057666778564,0.001152676297351718,-0.0011327940737828612,0.0,0.0,0.0,-0.6,-0.04819351066135542,0.0015599727630615234,0.0015599727630615234,0.012746095657348633,0
2.3877086639404297,-0.062003400176763535,0.011566303670406342,-0.2391577959060669,-0.04819351066135542,0.5132099390029907,0.0008068537572398782,-0.0009095423738472164,0.0,0.0,0.0,-0.6,-0.04819351066135542,0.0016431808471679688,0.0016431808471679688,0.013405323028564453,0
2.4036762714385986,-0.06201982870697975,0.011579479090869427,-0.23916378617286682,-0.04819325174537766,0.5132149457931519,0.0007388709927909076,-0.0014994917437434196,0.0,0.0,0.0,-0.6,-0.04819325174537766,0.0015993118286132812,0.0015993118286132812,0.012125968933105469,0
2.4173412322998047,-0.06201982870697975,0.011579479090869427,-0.23916378617286682,-0.04819325174537766,0.5132185220718384,0.0005172016681171954,-0.0012024090392515063,0.0,0.0,0.0,-0.6,-0.04819325174537766,0.001692056655883789,0.001692056655883789,0.013075828552246094,0
2.441593885421753,-0.06203706935048103,0.011594929732382298,-0.23917968571186066,-0.048182164240650686,0.5132226347923279,0.00014981147251091897,-0.000855692895129323,0.0,0.0,0.0,-0.6,-0.048182164240650686,0.001975536346435547,0.001975536346435547,0.013942718505859375,0
2.457749843597412,-0.06203706935048103,0.011594929732382298,-0.23917968571186066,-0.048182164240650686,0.5132255554199219,0.0001048678532242775,-0.000686853367369622,0.0,0.0,0.0,-0.6,-0.048182164240650686,0.0018074512481689453,0.0018074512481689453,0.013671875,0
2.474301338195801,-0.062056414783000946,0.011621074751019478,-0.23920677602291107,-0.0481858155216939,0.5132294297218323,-0.000843099900521338,-0.0007916438044048846,0.0,0.0,0.0,-0.6,-0.0481858155216939,0.001859426498413086,0.001859426498413086,0.013134002685546875,0
2.4895646572113037,-0.062056414783000946,0.011621074751019478,-0.23920677602291107,-0.0481858155216939,0.5132321715354919,-0.0005901613621972501,-0.0006354895303957164,0.0,0.0,0.0,-0.6,-0.0481858155216939,0.00150299072265625,0.00150299072265625,0.010716915130615234,0
2.502595901489258,-0.062060438096523285,0.011627528816461563,-0.2392134964466095,-0.04820056978614584,0.5132335424423218,-0.0006299696397036314,-0.00015301037637982517,0.0,0.0,0.0,-0.6,-0.04820056978614584,0.0018482208251953125,0.0018482208251953125,0.014340400695800781,0
2.518433094024658,-0.062060438096523285,0.011627528816461563,-0.2392134964466095,-0.04820056978614584,0.5132344365119934,-0.0004409747489262372,-0.00012313842307776213,0.0,0.0,0.0,-0.6,-0.04820056978614584,0.0021486282348632812,0.0021486282348632812,0.014706850051879883,0
2.5361130237579346,-0.062071993947029114,0.011658755131065845,-0.23924711346626282,-0.048220847570019744,0.513238251209259,-0.002134875161573291,7.582535181427374e-05,0.0,0.0,0.0,-0.6,-0.048220847570019744,0.0021262168884277344,0.0021262168884277344,0.015605688095092773,0
2.553577423095703,-0.062071993947029114,0.011658755131065845,-0.23924711346626282,-0.048220847570019744,0.5132409334182739,-0.0014943907735869288,5.8477784477872774e-05,0.0,0.0,0.0,-0.6,-0.048220847570019744,0.0020596981048583984,0.0020596981048583984,0.014265298843383789,0
2.570434093475342,-0.06208585947751999,0.01169266551733017,-0.23926006257534027,-0.04824291798227873,0.5132424235343933,-0.0002641628379933536,5.873498594155535e-05,0.0,0.0,0.0,-0.6,-0.04824291798227873,0.002237081527709961,0.002237081527709961,0.015353679656982422,0
2.5878963470458984,-0.06208585947751999,0.01169266551733017,-0.23926006257534027,-0.04824291798227873,0.5132434964179993,-0.00018491629452910274,4.6126500819809735e-05,0.0,0.0,0.0,-0.6,-0.04824291798227873,0.0019884109497070312,0.0019884109497070312,0.014871358871459961,0
2.605450391769409,-0.06208983436226845,0.01171114481985569,-0.23928222060203552,-0.04820377861215757,0.5132373571395874,-0.0044953664764761925,0.004961837083101273,0.0,0.0,0.0,-0.6,-0.04820377861215757,0.001989603042602539,0.001989603042602539,0.014684677124023438,0
2.6227049827575684,-0.06208983436226845,0.01171114481985569,-0.23928222060203552,-0.04820377861215757,0.5132331252098083,-0.0031468449160456657,0.003972889389842749,0.0,0.0,0.0,-0.6,-0.04820377861215757,0.0020155906677246094,0.0020155906677246094,0.01427316665649414,0
2.6392438411712646,-0.06208457797765732,0.011727456003427505,-0.23933590948581696,-0.048278518676076826,0.5132316946983337,-3.085548087256029e-05,-0.003448009490966797,0.0,0.0,0.0,-0.6,-0.048278518676076826,0.0016124248504638672,0.0016124248504638672,0.013691425323486328,0
2.6548330783843994,-0.06208457797765732,0.011727456003427505,-0.23933590948581696,-0.048278518676076826,0.5132306814193726,-2.1602720153168775e-05,-0.00275752623565495,0.0,0.0,0.0,-0.6,-0.048278518676076826,0.0016551017761230469,0.0016551017761230469,0.012115955352783203,0
2.6700263023376465,-0.06207691505551338,0.011742682196199894,-0.23937152326107025,-0.04833325313516112,0.513224720954895,0.010968625545501709,0.0077491868287324905,0.0,0.0,0.0,-0.6,-0.04833325313516112,0.002346515655517578,0.002346515655517578,0.017152070999145508,0
2.68810772895813,-0.06207691505551338,0.011742682196199894,-0.23937152326107025,-0.04833325313516112,0.513220489025116,0.007678242865949869,0.006202662829309702,0.0,0.0,0.0,-0.6,-0.04833325313516112,0.0020008087158203125,0.0020008087158203125,0.013989686965942383,0
2.704862117767334,-0.06205779314041138,0.011759258806705475,-0.23945313692092896,-0.048169760951230635,0.5132185220718384,-0.010467474348843098,-0.006731495261192322,0.0,0.0,0.0,-0.6,-0.048169760951230635,0.002124309539794922,0.002124309539794922,0.01386260986328125,0
2.720785140991211,-0.06205779314041138,0.011759258806705475,-0.23945313692092896,-0.048169760951230635,0.5132171511650085,-0.007327303756028414,-0.005383917596191168,0.0,0.0,0.0,-0.6,-0.048169760951230635,0.0016760826110839844,0.0016760826110839844,0.012103557586669922,0
2.734797239303589,-0.062051936984062195,0.01177241001278162,-0.23949310183525085,-0.04829012551086681,0.5132071375846863,0.011854404583573341,0.007800729479640722,0.0,0.0,0.0,-0.6,-0.04829012551086681,0.001619577407836914,0.001619577407836914,0.01196908950805664,0
2.74875807762146,-0.062051936984062195,0.01177241001278162,-0.23949310183525085,-0.04829012551086681,0.5132001042366028,0.008298445492982864,0.0062463064678013325,0.0,0.0,0.0,-0.6,-0.04829012551086681,0.0015985965728759766,0.0015985965728759766,0.01232600212097168,0
2.7631921768188477,-0.06204238906502724,0.011769010685384274,-0.2395293265581131,-0.04817833763844071,0.5131855010986328,0.012484601698815823,-0.005082723218947649,0.0,0.0,0.0,-0.6,-0.04817833763844071,0.001588582992553711,0.001588582992553711,0.012127876281738281,0
2.776824951171875,-0.06204238906502724,0.011769010685384274,-0.2395293265581131,-0.04817833763844071,0.5131752490997314,0.008739801123738289,-0.004057996906340122,0.0,0.0,0.0,-0.6,-0.04817833763844071,0.0015528202056884766,0.0015528202056884766,0.012487173080444336,0
2.7917771339416504,-0.062020789831876755,0.011760375462472439,-0.2395520657300949,-0.04820795570839375,0.513184666633606,-0.009875068441033363,0.0018749998416751623,0.0,0.0,0.0,-0.6,-0.04820795570839375,0.0015056133270263672,0.0015056133270263672,0.012014150619506836,0
2.8052051067352295,-0.062020789831876755,0.011760375462472439,-0.2395520657300949,-0.04820795570839375,0.5131912231445312,-0.006912258919328451,0.0014945919392630458,0.0,0.0,0.0,-0.6,-0.04820795570839375,0.0015034675598144531,0.0015034675598144531,0.01248621940612793,0
2.8203649520874023,-0.06201484426856041,0.011746757663786411,-0.23954874277114868,-0.04821606172362029,0.5131926536560059,-0.01504278089851141,-0.003900180570781231,0.0,0.0,0.0,-0.6,-0.04821606172362029,0.0015289783477783203,0.0015289783477783203,0.012518167495727539,0
2.835444927215576,-0.0620117224752903,0.011716963723301888,-0.2395343780517578,-0.048233876238998726,0.5131892561912537,0.010159353725612164,0.008604297414422035,0.0,0.0,0.0,-0.6,-0.048233876238998726,0.0017693042755126953,0.0017693042755126953,0.013454675674438477,0
2.8504137992858887,-0.0620117224752903,0.011716963723301888,-0.2395343780517578,-0.048233876238998726,0.5131868720054626,0.007111647631973028,0.006885186769068241,0.0,0.0,0.0,-0.6,-0.048233876238998726,0.0016627311706542969,0.0016627311706542969,0.012820720672607422,0
2.865767240524292,-0.06200529634952545,0.011677848175168037,-0.23950551450252533,-0.04816007209931554,0.5131740570068359,0.016165239736437798,-0.005934572778642178,0.0,0.0,0.0,-0.6,-0.04816007209931554,0.0017232894897460938,0.0017232894897460938,0.013401985168457031,0
2.8806450366973877,-0.06200529634952545,0.011677848175168037,-0.23950551450252533,-0.04816007209931554,0.5131651759147644,0.011316330172121525,-0.004740532021969557,0.0,0.0,0.0,-0.6,-0.04816007209931554,0.0015714168548583984,0.0015714168548583984,0.012853622436523438,0
2.896085500717163,-0.06199130043387413,0.011631636880338192,-0.239463210105896,-0.04822903901988412,0.5131815671920776,-0.01725512556731701,-0.0010783198522403836,0.0,0.0,0.0,-0.6,-0.04822903901988412,0.0016546249389648438,0.0016546249389648438,0.012683629989624023,0
2.910244941711426,-0.06199130043387413,0.011631636880338192,-0.239463210105896,-0.04822903901988412,0.5131930708885193,-0.012077695690095425,-0.000871828175149858,0.0,0.0,0.0,-0.6,-0.04822903901988412,0.0018284320831298828,0.0018284320831298828,0.01325368881225586,0
2.9261436462402344,-0.06197945401072502,0.011570687405765057,-0.23944157361984253,-0.04818647383533672,0.5131890177726746,0.010817304253578186,0.009394161403179169,0.0,0.0,0.0,-0.6,-0.04818647383533672,0.0017745494842529297,0.0017745494842529297,0.013024091720581055,0
2.9413065910339355,-0.06197945401072502,0.011570687405765057,-0.23944157361984253,-0.04818647383533672,0.5131860375404358,0.007572239264845848,0.007517487742006779,0.0,0.0,0.0,-0.6,-0.04818647383533672,0.0016627311706542969,0.0016627311706542969,0.013007402420043945,0
2.9569787979125977,-0.061971861869096756,0.011515616439282894,-0.2394270896911621,-0.04818211163717976,0.5131848454475403,0.011522380635142326,-0.007845928892493248,0.0,0.0,0.0,-0.6,-0.04818211163717976,0.001821279525756836,0.001821279525756836,0.013036727905273438,0
2.971468448638916,-0.061971861869096756,0.011515616439282894,-0.2394270896911621,-0.04818211163717976,0.5131840109825134,0.008065716363489628,-0.006275806110352278,0.0,0.0,0.0,-0.6,-0.04818211163717976,0.0017249584197998047,0.0017249584197998047,0.013280630111694336,0
2.987809181213379,-0.061963219195604324,0.011453725397586823,-0.2393941581249237,-0.04822996173895132,0.5131875276565552,-0.010435962118208408,0.0012746840948238969,0.0,0.0,0.0,-0.6,-0.04822996173895132,0.0016529560089111328,0.0016529560089111328,0.012728691101074219,0
3.0026769638061523,-0.061960093677043915,0.01140323095023632,-0.23936553299427032,-0.0482300622908477,0.5131686925888062,0.011697285808622837,0.00491279037669301,0.0,0.0,0.0,-0.6,-0.0482300622908477,0.0017247200012207031,0.0017247200012207031,0.013301610946655273,0
3.017406463623047,-0.061960093677043915,0.01140323095023632,-0.23936553299427032,-0.0482300622908477,0.513155460357666,0.008188786916434765,0.003941034898161888,0.0,0.0,0.0,-0.6,-0.0482300622908477,0.0017559528350830078,0.0017559528350830078,0.012644290924072266,0
3.0331203937530518,-0.06195830553770065,0.011324802413582802,-0.23931068181991577,-0.04819037726718367,0.5131679177284241,-0.0038354378193616867,-0.003093237057328224,0.0,0.0,0.0,-0.6,-0.04819037726718367,0.001996278762817383,0.001996278762817383,0.013226509094238281,0
3.0479159355163574,-0.06195830553770065,0.011324802413582802,-0.23931068181991577,-0.04819037726718367,0.513176679611206,-0.0026846535038203,-0.0024813625495880842,0.0,0.0,0.0,-0.6,-0.04819037726718367,0.0017385482788085938,0.0017385482788085938,0.01239013671875,0
3.0623152256011963,-0.06195716932415962,0.011236258782446384,-0.2392512410879135,-0.04822746679001019,0.5131667256355286,0.010915365070104599,0.0005257354350760579,0.0,0.0,0.0,-0.6,-0.04822746679001019,0.0016815662384033203,0.0016815662384033203,0.012244701385498047,0
3.0763959884643555,-0.06195716932415962,0.011236258782446384,-0.2392512410879135,-0.04822746679001019,0.5131597518920898,0.0076410965994000435,0.00042621613829396665,0.0,0.0,0.0,-0.6,-0.04822746679001019,0.001695394515991211,0.001695394515991211,0.013435840606689453,0
3.091958999633789,-0.0619567446410656,0.011152513325214386,-0.2391960471868515,-0.04815877370080814,0.5131585001945496,-0.005944224074482918,-0.004107570741325617,0.0,0.0,0.0,-0.6,-0.04815877370080814,0.0016062259674072266,0.0016062259674072266,0.012159109115600586,0
3.106096029281616,-0.0619567446410656,0.011152513325214386,-0.2391960471868515,-0.04815877370080814,0.5131576657295227,-0.004160982556641102,-0.003285235958173871,0.0,0.0,0.0,-0.6,-0.04815877370080814,0.0017867088317871094,0.0017867088317871094,0.013375282287597656,0
3.1221139430999756,-0.061955273151397705,0.011065387167036533,-0.23914068937301636,-0.04821003105167018,0.5131615996360779,0.010514886118471622,0.0050530568696558475,0.0,0.0,0.0,-0.6,-0.04821003105167018,0.0017998218536376953,0.0017998218536376953,0.012885332107543945,0
3.1372008323669434,-0.061955273151397705,0.011065387167036533,-0.23914068937301636,-0.04821003105167018,0.5131644010543823,0.007360281888395548,0.0040399800054728985,0.0,0.0,0.0,-0.6,-0.04821003105167018,0.0017261505126953125,0.0017261505126953125,0.013085365295410156,0
3.152362823486328,-0.06196312978863716,0.010975674726068974,-0.23909354209899902,-0.048152708850025906,0.5131607055664062,0.002345049986615777,-0.0007576417410746217,0.0,0.0,0.0,-0.6,-0.048152708850025906,0.0018215179443359375,0.0018215179443359375,0.013422727584838867,0
3.167259693145752,-0.06196312978863716,0.010975674726068974,-0.23909354209899902,-0.048152708850025906,0.5131582021713257,0.0016415658174082637,-0.0006040327716618776,0.0,0.0,0.0,-0.6,-0.048152708850025906,0.0015039443969726562,0.0015039443969726562,0.012255668640136719,0
3.1822142601013184,-0.061966050416231155,0.01087744627147913,-0.23906239867210388,-0.048204761028852655,0.5131680369377136,0.003075140528380871,-0.0034047244116663933,0.0,0.0,0.0,-0.6,-0.048204761028852655,0.001733541488647461,0.001733541488647461,0.01250147819519043,0
3.1962437629699707,-0.061966050416231155,0.01087744627147913,-0.23906239867210388,-0.048204761028852655,0.5131748914718628,0.002152505796402693,-0.002729092724621296,0.0,0.0,0.0,-0.6,-0.048204761028852655,0.0017275810241699219,0.0017275810241699219,0.012688159942626953,0
3.210927963256836,-0.06196912005543709,0.01078422088176012,-0.2390495389699936,-0.048159292742187415,0.5131667256355286,0.006760804448276758,0.0011650208616629243,0.0,0.0,0.0,-0.6,-0.048159292742187415,0.0015931129455566406,0.0015931129455566406,0.013108968734741211,0
3.2267439365386963,-0.06196912005543709,0.01078422088176012,-0.2390495389699936,-0.048159292742187415,0.5131609439849854,0.004732740577310324,0.000936659169383347,0.0,0.0,0.0,-0.6,-0.048159292742187415,0.002201080322265625,0.002201080322265625,0.012785673141479492,0
3.2418341636657715,-0.06197341904044151,0.010719221085309982,-0.23904849588871002,-0.04816116753161782,0.5131734609603882,-0.005445885471999645,-0.004865529481321573,0.0,0.0,0.0,-0.6,-0.04816116753161782,0.0015149116516113281,0.0015149116516113281,0.011210918426513672,0
3.254720687866211,-0.06197341904044151,0.010719221085309982,-0.23904849588871002,-0.04816116753161782,0.5131822228431702,-0.0038119081873446703,-0.003899132600054145,0.0,0.0,0.0,-0.6,-0.04816116753161782,0.001554250717163086,0.001554250717163086,0.011784791946411133,0
3.2679648399353027,-0.06197341904044151,0.010719221085309982,-0.23904849588871002,-0.04816116753161782,0.513188362121582,-0.002668230328708887,-0.0031240489333868027,0.0,0.0,0.0,-0.6,-0.04816116753161782,0.0015087127685546875,0.0015087127685546875,0.011960744857788086,0
3.2811458110809326,-0.06197341904044151,0.010719221085309982,-0.23904849588871002,-0.04816116753161782,0.5131927132606506,-0.001867707003839314,-0.002502567134797573,0.0,0.0,0.0,-0.6,-0.04816116753161782,0.001547098159790039,0.001547098159790039,0.011425018310546875,0
3.2939252853393555,-0.06197341904044151,0.010719221085309982,-0.23904849588871002,-0.04816116753161782,0.5131957530975342,-0.0013073711888864636,-0.0020044068805873394,0.0,0.0,0.0,-0.6,-0.04816116753161782,0.0016179084777832031,0.0016179084777832031,0.011295557022094727,0
3.3064699172973633,-0.06197341904044151,0.010719221085309982,-0.23904849588871002,-0.04816116753161782,0.5131978988647461,-0.0009151491103693843,-0.001605186378583312,0.0,0.0,0.0,-0.6,-0.04816116753161782,0.0015645027160644531,0.0015645027160644531,0.010942935943603516,0
3.3193247318267822,-0.06197341904044151,0.010719221085309982,-0.23904849588871002,-0.04816116753161782,0.5131994485855103,-0.0006405992899090052,-0.001285308855585754,0.0,0.0,0.0,-0.6,-0.04816116753161782,0.0015683174133300781,0.0015683174133300781,0.011433839797973633,0
3.3320751190185547,-0.06197341904044151,0.010719221085309982,-0.23904849588871002,-0.04816116753161782,0.5132004618644714,-0.0004484152013901621,-0.00102904811501503,0.0,0.0,0.0,-0.6,-0.04816116753161782,0.001598358154296875,0.001598358154296875,0.011231184005737305,0
3.344672918319702,-0.06197341904044151,0.010719221085309982,-0.23904849588871002,-0.04816116753161782,0.5132012367248535,-0.00031388987554237247,-0.0008238184382207692,0.0,0.0,0.0,-0.6,-0.04816116753161782,0.0015475749969482422,0.0015475749969482422,0.013947248458862305,0
3.360020399093628,-0.06197341904044151,0.010719221085309982,-0.23904849588871002,-0.04816116753161782,0.5132017731666565,-0.0002197235298808664,-0.0006594449514523149,0.0,0.0,0.0,-0.6,-0.04816116753161782,0.0015153884887695312,0.0015153884887695312,0.011486530303955078,0
3.3728513717651367,-0.06197341904044151,0.010719221085309982,-0.23904849588871002,-0.04816116753161782,0.5132021307945251,-0.00015380472177639604,-0.0005278268363326788,0.0,0.0,0.0,-0.6,-0.04816116753161782,0.0014567375183105469,0.0014567375183105469,0.011159420013427734,0
3.3853402137756348,-0.06197341904044151,0.010719221085309982,-0.23904849588871002,-0.04816116753161782,0.513202428817749,-0.00010766415653051808,-0.00042246325756423175,0.0,0.0,0.0,-0.6,-0.04816116753161782,0.0015139579772949219,0.0015139579772949219,0.011214017868041992,0
3.3980202674865723,-0.06197341904044151,0.010719221085309982,-0.23904849588871002,-0.04816116753161782,0.5132026076316833,-7.53651256673038e-05,-0.0003381087735760957,0.0,0.0,0.0,-0.6,-0.04816116753161782,0.0014767646789550781,0.0014767646789550781,0.010919809341430664,0
3.4102141857147217,-0.06197341904044151,0.010719221085309982,-0.23904849588871002,-0.04816116753161782,0.5132027268409729,-5.275452713249251e-05,-0.0002705724909901619,0.0,0.0,0.0,-0.6,-0.04816116753161782,0.0015158653259277344,0.0015158653259277344,0.011235475540161133,0
3.4233412742614746,-0.06197341904044151,0.010719221085309982,-0.23904849588871002,-0.04816116753161782,0.5132028460502625,-3.693312464747578e-05,-0.00021653613657690585,0.0,0.0,0.0,-0.6,-0.04816116753161782,0.0014853477478027344,0.0014853477478027344,0.011162757873535156,0
3.435930013656616,-0.06197341904044151,0.010719221085309982,-0.23904849588871002,-0.04816116753161782,0.5132029056549072,-2.585653419373557e-05,-0.00017328148533124477,0.0,0.0,0.0,-0.6,-0.04816116753161782,0.0014493465423583984,0.0014493465423583984,0.01130223274230957,0
3.4485530853271484,-0.06197341904044151,0.010719221085309982,-0.23904849588871002,-0.04816116753161782,0.5132029056549072,-1.809855348255951e-05,-0.0001386632357025519,0.0,0.0,0.0,-0.6,-0.04816116753161782,0.0014922618865966797,0.0014922618865966797,0.011594533920288086,0
3.4615464210510254,-0.06197341904044151,0.010719221085309982,-0.23904849588871002,-0.04816116753161782,0.513202965259552,-1.2668405361182522e-05,-0.00011094491492258385,0.0,0.0,0.0,-0.6,-0.04816116753161782,0.001495361328125,0.001495361328125,0.01107335090637207,0
3.4739315509796143,-0.06197341904044151,0.010719221085309982,-0.23904849588871002,-0.04816116753161782,0.513202965259552,-8.870514648151584e-06,-8.876297215465456e-05,0.0,0.0,0.0,-0.6,-0.04816116753161782,0.0015411376953125,0.0015411376953125,0.011049509048461914,0
3.486403703689575,-0.06197341904044151,0.010719221085309982,-0.23904849588871002,-0.04816116753161782,0.5132030248641968,-6.206586931511993e-06,-7.10173771949485e-05,0.0,0.0,0.0,-0.6,-0.04816116753161782,0.001491546630859375,0.001491546630859375,0.010848760604858398,0
3.498551368713379,-0.06197341904044151,0.010719221085309982,-0.23904849588871002,-0.04816116753161782,0.5132030248641968,-4.347828962636413e-06,-5.682634946424514e-05,0.0,0.0,0.0,-0.6,-0.04816116753161782,0.0015106201171875,0.0015106201171875,0.010876655578613281,0
3.5107789039611816,-0.06197341904044151,0.010719221085309982,-0.23904849588871002,-0.04816116753161782,0.5132030248641968,-3.041438503714744e-06,-4.547169737634249e-05,0.0,0.0,0.0,-0.6,-0.04816116753161782,0.001588582992553711,0.001588582992553711,0.011011838912963867,0
3.523785352706909,-0.06197341904044151,0.010719221085309982,-0.23904849588871002,-0.04816116753161782,0.5132030248641968,-2.1325167836039327e-06,-3.637159170466475e-05,0.0,0.0,0.0,-0.6,-0.04816116753161782,0.0014619827270507812,0.0014619827270507812,0.01121377944946289,0
3.5362467765808105,-0.06197341904044151,0.010719221085309982,-0.23904849588871002,-0.04816116753161782,0.5132030844688416,-1.4895504136802629e-06,-2.9098779123160057e-05,0.0,0.0,0.0,-0.6,-0.04816116753161782,0.0015425682067871094,0.0015425682067871094,0.01125955581665039,0
3.5491647720336914,-0.06197341904044151,0.010719221085309982,-0.23904849588871002,-0.04816116753161782,0.5132030844688416,-1.0409362403152045e-06,-2.327144284208771e-05,0.0,0.0,0.0,-0.6,-0.04816116753161782,0.0014653205871582031,0.0014653205871582031,0.011245489120483398,0
3.5617809295654297,-0.06197341904044151,0.010719221085309982,-0.23904849588871002,-0.04816116753161782,0.5132030844688416,-7.238357966343756e-07,-1.860773772932589e-05,0.0,0.0,0.0,-0.6,-0.04816116753161782,0.0015840530395507812,0.0015840530395507812,0.011150598526000977,0
3.5742666721343994,-0.06197341904044151,0.010719221085309982,-0.23904849588871002,-0.04816116753161782,0.5132030844688416,-5.090258810014348e-07,-1.4871313396724872e-05,0.0,0.0,0.0,-0.6,-0.04816116753161782,0.00150299072265625,0.00150299072265625,0.010724544525146484,0
3.5862977504730225,-0.06197341904044151,0.010719221085309982,-0.23904849588871002,-0.04816116753161782,0.5132030844688416,-3.5559017419473093e-07,-1.1898539014509879e-05,0.0,0.0,0.0,-0.6,-0.04816116753161782,0.0015380382537841797,0.0015380382537841797,0.011167526245117188,0
3.598872184753418,-0.06197341904044151,0.010719221085309982,-0.23904849588871002,-0.04816116753161782,0.5132030844688416,-2.5329964614684286e-07,-9.525771929475013e-06,0.0,0.0,0.0,-0.6,-0.04816116753161782,0.0014958381652832031,0.0014958381652832031,0.010833263397216797,0
3.6110312938690186,-0.06197341904044151,0.010719221085309982,-0.23904849588871002,-0.04816116753161782,0.5132030844688416,-1.816963219880563e-07,-7.616649327246705e-06,0.0,0.0,0.0,-0.6,-0.04816116753161782,0.0014688968658447266,0.0014688968658447266,0.010840892791748047,0
3.6238200664520264,-0.06197341904044151,0.010719221085309982,-0.23904849588871002,-0.04816116753161782,0.5132030844688416,-1.305511005966764e-07,-6.089349426474655e-06,0.0,0.0,0.0,-0.6,-0.04816116753161782,0.001493215560913086,0.001493215560913086,0.011167287826538086,0
3.6363277435302734,-0.06197341904044151,0.010719221085309982,-0.23904849588871002,-0.04816116753161782,0.5132030844688416,-8.963490216729042e-08,-4.862055902776774e-06,0.0,0.0,0.0,-0.6,-0.04816116753161782,0.0016219615936279297,0.0016219615936279297,0.011544942855834961,0
3.6491897106170654,-0.06197341904044151,0.010719221085309982,-0.23904849588871002,-0.04816116753161782,0.5132030844688416,-5.894775867432145e-08,-3.880219992424827e-06,0.0,0.0,0.0,-0.6,-0.04816116753161782,0.0015382766723632812,0.0015382766723632812,0.01112985610961914,0
3.6617319583892822,-0.06197341904044151,0.010719221085309982,-0.23904849588871002,-0.04816116753161782,0.5132030844688416,-3.8489663012342135e-08,-3.0892977065377636e-06,0.0,0.0,0.0,-0.6,-0.04816116753161782,0.0014884471893310547,0.0014884471893310547,0.011011600494384766,0
3.6740598678588867,-0.06197341904044151,0.010719221085309982,-0.23904849588871002,-0.04816116753161782,0.5132030844688416,-2.8260616957709317e-08,-2.4620137537567643e-06,0.0,0.0,0.0,-0.6,-0.04816116753161782,0.001600503921508789,0.001600503921508789,0.010867595672607422,0
3.6863625049591064,-0.06197341904044151,0.010719221085309982,-0.23904849588871002,-0.04816116753161782,0.5132030844688416,-1.803156912671966e-08,-1.971095798580791e-06,0.0,0.0,0.0,-0.6,-0.04816116753161782,0.0015180110931396484,0.0015180110931396484,0.011222124099731445,0
3.698892116546631,-0.06197341904044151,0.010719221085309982,-0.23904849588871002,-0.04816116753161782,0.5132030844688416,-7.802521295730003e-09,-1.5619978057657136e-06,0.0,0.0,0.0,-0.6,-0.04816116753161782,0.001520395278930664,0.001520395278930664,0.010774374008178711,0
3.7110702991485596,-0.06197341904044151,0.010719221085309982,-0.23904849588871002,-0.04816116753161782,0.5132030844688416,-7.802521295730003e-09,-1.2347189795036684e-06,0.0,0.0,0.0,-0.6,-0.04816116753161782,0.0015063285827636719,0.0015063285827636719,0.010843038558959961,0
3.7240164279937744,-0.06197341904044151,0.010719221085309982,-0.23904849588871002,-0.04816116753161782,0.5132030844688416,-7.802521295730003e-09,-9.892597745420062e-07,0.0,0.0,0.0,-0.6,-0.04816116753161782,0.0014827251434326172,0.0014827251434326172,0.012024641036987305,0
3.737156391143799,-0.06197341904044151,0.010719221085309982,-0.23904849588871002,-0.04816116753161782,0.5132030844688416,-7.802521295730003e-09,-7.983470027284056e-07,0.0,0.0,0.0,-0.6,-0.04816116753161782,0.0015611648559570312,0.0015611648559570312,0.011460065841674805,0
3.75002121925354,-0.06197341904044151,0.010719221085309982,-0.23904849588871002,-0.04816116753161782,0.5132030844688416,-7.802521295730003e-09,-6.347075327539642e-07,0.0,0.0,0.0,-0.6,-0.04816116753161782,0.001486063003540039,0.001486063003540039,0.010923624038696289,0
3.762302875518799,-0.06197341904044151,0.010719221085309982,-0.23904849588871002,-0.04816116753161782,0.5132030844688416,-7.802521295730003e-09,-4.983414214621007e-07,0.0,0.0,0.0,-0.6,-0.04816116753161782,0.0019521713256835938,0.0019521713256835938,0.011567831039428711,0
3.7751901149749756,-0.06197341904044151,0.010719221085309982,-0.23904849588871002,-0.04816116753161782,0.5132030844688416,-7.802521295730003e-09,-3.8924844147913973e-07,0.0,0.0,0.0,-0.6,-0.04816116753161782,0.0014803409576416016,0.0014803409576416016,0.01102137565612793,0
3.787562847137451,-0.06197341904044151,0.010719221085309982,-0.23904849588871002,-0.04816116753161782,0.5132030844688416,-7.802520407551583e-09,-3.07428706491919e-07,0.0,0.0,0.0,-0.6,-0.04816116753161782,0.0014545917510986328,0.0014545917510986328,0.01128530502319336,0
3.8002328872680664,-0.06197341904044151,0.010719221085309982,-0.23904849588871002,-0.04816116753161782,0.5132030844688416,-7.802521295730003e-09,-2.5288224492214795e-07,0.0,0.0,0.0,-0.6,-0.04816116753161782,0.0014977455139160156,0.0014977455139160156,0.010966300964355469,0
3.812521457672119,-0.06197341904044151,0.010719221085309982,-0.23904849588871002,-0.04816116753161782,0.5132030844688416,-7.802520407551583e-09,-1.983357833523769e-07,0.0,0.0,0.0,-0.6,-0.04816116753161782,0.0014424324035644531,0.0014424324035644531,0.010797262191772461,0
3.8249568939208984,-0.06197341904044151,0.010719221085309982,-0.23904849588871002,-0.04816116753161782,0.5132030844688416,-7.802520407551583e-09,-1.437892933608964e-07,0.0,0.0,0.0,-0.6,-0.04816116753161782,0.0014843940734863281,0.0014843940734863281,0.010675191879272461,0
3.836991548538208,-0.06197341904044151,0.010719221085309982,-0.23904849588871002,-0.04816116753161782,0.5132030844688416,-7.802521295730003e-09,-1.1651604836515617e-07,0.0,0.0,0.0,-0.6,-0.04816116753161782,0.001962423324584961,0.001962423324584961,0.011452198028564453,0
3.849747657775879,-0.06197341904044151,0.010719221085309982,-0.23904849588871002,-0.04816116753161782,0.5132030844688416,-7.802521295730003e-09,-8.924281047484328e-08,0.0,0.0,0.0,-0.6,-0.04816116753161782,0.0015418529510498047,0.0015418529510498047,0.010979890823364258,0
3.8620829582214355,-0.06197341904044151,0.010719221085309982,-0.23904849588871002,-0.04816116753161782,0.5132030844688416,-7.802521295730003e-09,-6.196956547910304e-08,0.0,0.0,0.0,-0.6,-0.04816116753161782,0.0014998912811279297,0.0014998912811279297,0.011200189590454102,0
3.8746423721313477,-0.06197341904044151,0.010719221085309982,-0.23904849588871002,-0.04816116753161782,0.5132030844688416,-7.802521295730003e-09,-3.469633824693119e-08,0.0,0.0,0.0,-0.6,-0.04816116753161782,0.0015447139739990234,0.0015447139739990234,0.011015653610229492,0
3.8870127201080322,-0.06197341904044151,0.010719221085309982,-0.23904849588871002,-0.04816116753161782,0.5132030844688416,-7.802521295730003e-09,-3.469633824693119e-08,0.0,0.0,0.0,-0.6,-0.04816116753161782,0.0014700889587402344,0.0014700889587402344,0.012723684310913086,0
3.901803970336914,-0.06197341904044151,0.010719221085309982,-0.23904849588871002,-0.04816116753161782,0.5132030844688416,-7.802521295730003e-09,-3.469633824693119e-08,0.0,0.0,0.0,-0.6,-0.04816116753161782,0.0024018287658691406,0.0024018287658691406,0.018065690994262695,0
3.9221792221069336,-0.06197341904044151,0.010719221085309982,-0.23904849588871002,-0.04816116753161782,0.5132030844688416,-7.802521295730003e-09,-3.469633824693119e-08,0.0,0.0,0.0,-0.6,-0.04816116753161782,0.0020990371704101562,0.0020990371704101562,0.015533924102783203,0
3.9393622875213623,-0.06197341904044151,0.010719221085309982,-0.23904849588871002,-0.04816116753161782,0.5132030844688416,-7.802521295730003e-09,-3.469633824693119e-08,0.0,0.0,0.0,-0.6,-0.04816116753161782,0.001980304718017578,0.001980304718017578,0.014760732650756836,0
3.955789566040039,-0.06197341904044151,0.010719221085309982,-0.23904849588871002,-0.04816116753161782,0.5132030844688416,-7.802521295730003e-09,-3.469633824693119e-08,0.0,0.0,0.0,-0.6,-0.04816116753161782,0.0018622875213623047,0.0018622875213623047,0.014754533767700195,0
3.972318649291992,-0.06197341904044151,0.010719221085309982,-0.23904849588871002,-0.04816116753161782,0.5132030844688416,-7.802521295730003e-09,-3.469633824693119e-08,0.0,0.0,0.0,-0.6,-0.04816116753161782,0.002239704132080078,0.002239704132080078,0.02481532096862793,0
4.000375747680664,-0.06197341904044151,0.010719221085309982,-0.23904849588871002,-0.04816116753161782,0.516242265701294,0.800000011920929,-0.800000011920929,0.024080585688352585,0.5556636903505183,0.2263578212168584,-0.7,0.0,0.0014083385467529297,0.0014083385467529297,0.013625383377075195,0
4.0157599449157715,-0.06197341904044151,0.010719221085309982,-0.23904849588871002,-0.04816116753161782,0.5186845660209656,0.800000011920929,-0.800000011920929,0.024080585688352585,0.5539652573097728,0.2304831744265019,-0.7,0.0,0.0023543834686279297,0.0023543834686279297,0.014493703842163086,0
4.03225040435791,-0.06197341904044151,0.010719221085309982,-0.23904849588871002,-0.04816116753161782,0.5206102728843689,0.800000011920929,-0.800000011920929,0.024080585688352585,0.5521106845606636,0.23489102152691013,-0.7,0.0,0.001483917236328125,0.001483917236328125,0.011620521545410156,0
4.045664548873901,-0.06197341904044151,0.010719221085309982,-0.23904849588871002,-0.04816116753161782,0.5221118330955505,0.7057892084121704,-0.800000011920929,0.024080585688352585,0.5505762107979283,0.23846558683255586,-0.7,0.0,0.001539468765258789,0.001539468765258789,0.011533260345458984,0
4.058968782424927,-0.06197341904044151,0.010719221085309982,-0.23904849588871002,-0.04816116753161782,0.5232751965522766,0.5204131007194519,-0.800000011920929,0.024080585688352585,0.5490314507299611,0.24200096303393992,-0.7,0.0,0.0027010440826416016,0.0027010440826416016,0.013773918151855469,0
4.073963165283203,-0.06197341904044151,0.010719221085309982,-0.23904849588871002,-0.04816116753161782,0.5241736769676208,0.39549797773361206,-0.800000011920929,0.024080585688352585,0.5472632397533087,0.24597346689168034,-0.7,0.0,0.0015702247619628906,0.0015702247619628906,0.012190580368041992,0
4.087482690811157,-0.06197341904044151,0.010719221085309982,-0.23904849588871002,-0.04816116753161782,0.5248662233352661,0.3053746819496155,-0.7462283372879028,0.024080585688352585,0.5456443076807753,0.2495441634171543,-0.7,0.0,0.0016369819641113281,0.0016369819641113281,0.013629436492919922,0
4.10258936882019,-0.06197341904044151,0.010719221085309982,-0.23904849588871002,-0.04816116753161782,0.525399923324585,0.24597685039043427,-0.5862231850624084,0.024080585688352585,0.5438077606925269,0.253521437773178,-0.7,0.0,0.0015168190002441406,0.0015168190002441406,0.011936426162719727,0
4.11616063117981,-0.06197341904044151,0.010719221085309982,-0.23904849588871002,-0.04816116753161782,0.5258110761642456,0.2011488676071167,-0.4595450758934021,0.024080585688352585,0.5421331538288381,0.2570829506591157,-0.7,0.0,0.00205230712890625,0.00205230712890625,0.012313365936279297,0
4.130938768386841,-0.061259765177965164,0.00822123046964407,-0.24355949461460114,-0.048056190256315634,0.5259230136871338,0.20693613588809967,-0.3565880358219147,0.024028096348047256,0.540283100396245,0.2609485992034083,-0.7,0.0,0.0017757415771484375,0.0017757415771484375,0.012527942657470703,0
4.144806385040283,-0.061259765177965164,0.00822123046964407,-0.24355949461460114,-0.048056190256315634,0.526023805141449,0.17455320060253143,-0.274911105632782,0.024028096348047256,0.5385219636339305,0.26456397087255784,-0.7,0.0,0.001369476318359375,0.001369476318359375,0.013353824615478516,0
4.160089492797852,-0.061259765177965164,0.00822123046964407,-0.24355949461460114,-0.048056190256315634,0.5261119604110718,0.15479406714439392,-0.20858724415302277,0.024028096348047256,0.536553045378441,0.26853459645848377,-0.7,0.0,0.0014514923095703125,0.0014514923095703125,0.012024164199829102,0
4.174092054367065,-0.061259765177965164,0.00822123046964407,-0.24355949461460114,-0.048056190256315634,0.5261870622634888,0.1381143480539322,-0.15644240379333496,0.024028096348047256,0.5347233978388041,0.2721596733605552,-0.7,0.0,0.001980304718017578,0.001980304718017578,0.013336181640625,0
4.188943147659302,-0.061259765177965164,0.00822123046964407,-0.24355949461460114,-0.048056190256315634,0.5262502431869507,0.12812501192092896,-0.11404657363891602,0.024028096348047256,0.5327561159048158,0.27599079869809884,-0.7,0.0,0.0016248226165771484,0.0016248226165771484,0.012165069580078125,0
4.203703165054321,-0.06229433789849281,0.010325529612600803,-0.23507530987262726,-0.04805265312847068,0.5265000462532043,0.10370892286300659,-0.07439254224300385,0.024026324972510338,0.5307737019423623,0.27978434074551123,-0.7,0.0,0.0017142295837402344,0.0017142295837402344,0.013660907745361328,0
4.219314336776733,-0.06229433789849281,0.010325529612600803,-0.23507530987262726,-0.04805265312847068,0.5266813635826111,0.10528086870908737,-0.04858114570379257,0.024026324972510338,0.5286475785346401,0.28378114403438015,-0.7,0.0,0.0015909671783447266,0.0015909671783447266,0.012171268463134766,0
4.234076499938965,-0.06223803386092186,0.010255874134600163,-0.23537234961986542,-0.0480031037928165,0.5267825722694397,0.10102560371160507,-0.023259442299604416,0.024001551792025566,0.5266093962961301,0.2875457245945857,-0.7,0.0,0.0017330646514892578,0.0017330646514892578,0.013091564178466797,0
4.24873161315918,-0.06223803386092186,0.010255874134600163,-0.23537234961986542,-0.0480031037928165,0.5268566608428955,0.10118822753429413,-0.007568985689431429,0.024001551792025566,0.5245594771579586,0.29126852717684604,-0.7,0.0,0.0015926361083984375,0.0015926361083984375,0.012315034866333008,0
4.263755798339844,-0.06217607483267784,0.010194645263254642,-0.23566791415214539,-0.04801857707275451,0.526917576789856,0.10257893055677414,-0.0033599219750612974,0.02400928921997547,0.522430614109608,0.29506991280213213,-0.7,0.0,0.0016794204711914062,0.0016794204711914062,0.013152599334716797,0
4.278330087661743,-0.06217607483267784,0.010194645263254642,-0.23566791415214539,-0.04801857707275451,0.5269622802734375,0.10186281055212021,0.008716238662600517,0.02400928921997547,0.5203391758480741,0.2987426017121545,-0.7,0.0,0.0016922950744628906,0.0016922950744628906,0.012428998947143555,0
4.2929534912109375,-0.062115054577589035,0.010144193656742573,-0.23595690727233887,-0.04799150722233235,0.5269713401794434,0.0928635448217392,0.021974554285407066,0.02399575524032116,0.5182147404722923,0.3024127688396021,-0.7,0.0,0.0017063617706298828,0.0017063617706298828,0.012917518615722656,0
4.307822942733765,-0.062115054577589035,0.010144193656742573,-0.23595690727233887,-0.04799150722233235,0.5269783735275269,0.09543148428201675,0.02970052883028984,0.02399575524032116,0.5160280169701486,0.3061291977284364,-0.7,0.0,0.0015673637390136719,0.0015673637390136719,0.012770891189575195,0
4.323241472244263,-0.06222043186426163,0.010331137105822563,-0.23627319931983948,-0.047995175774432665,0.5269808769226074,0.10751573741436005,0.03823748230934143,0.023997588083148003,0.5137324000140014,0.3099661613399985,-0.7,0.0,0.0015988349914550781,0.0015988349914550781,0.012221097946166992,0
4.337491989135742,-0.06222043186426163,0.010331137105822563,-0.23627319931983948,-0.047995175774432665,0.5269825458526611,0.10416445881128311,0.04248072952032089,0.023997588083148003,0.5115853124228966,0.3134971580623454,-0.7,0.0,0.0017216205596923828,0.0017216205596923828,0.01314544677734375,0
4.352739572525024,-0.06216314062476158,0.010288262739777565,-0.23659923672676086,-0.047965718943378144,0.52695232629776,0.11163175106048584,0.04993500933051109,0.023982862010598183,0.5092611267500154,0.31725873475966687,-0.7,0.0,0.0015306472778320312,0.0015306472778320312,0.012125968933105469,0
4.367002964019775,-0.06216314062476158,0.010288262739777565,-0.23659923672676086,-0.047965718943378144,0.5269305109977722,0.1068291962146759,0.052267421036958694,0.023982862010598183,0.5070619214173344,0.3207619177030854,-0.7,0.0,0.0016040802001953125,0.0016040802001953125,0.012607097625732422,0
4.382218837738037,-0.06210799887776375,0.01025003008544445,-0.2369334101676941,-0.04801656407434629,0.5269101858139038,0.092701755464077,0.048797257244586945,0.024008283391594887,0.5046892945414407,0.32448222751833866,-0.7,0.0,0.0017521381378173828,0.0017521381378173828,0.012981891632080078,0
4.396759986877441,-0.06210799887776375,0.01025003008544445,-0.2369334101676941,-0.04801656407434629,0.5268953442573547,0.0938650444149971,0.051827672868967056,0.024008283391594887,0.5023963697298166,0.32802116956425453,-0.7,0.0,0.0015604496002197266,0.0015604496002197266,0.012569665908813477,0
4.411869525909424,-0.06204919517040253,0.010208874009549618,-0.2372715175151825,-0.04800826879901042,0.5268704891204834,0.08871141076087952,0.04915117472410202,0.0240041334182024,0.4999875308092845,0.33168127628076133,-0.7,0.0,0.0019223690032958984,0.0019223690032958984,0.01250910758972168,0
4.426486253738403,-0.06204919517040253,0.010208874009549618,-0.2372715175151825,-0.04800826879901042,0.5268524885177612,0.09094933420419693,0.0524800680577755,0.0240041334182024,0.4976318828866748,0.33520517468359995,-0.7,0.0,0.0016667842864990234,0.0016667842864990234,0.01230621337890625,0
4.44104266166687,-0.06199672073125839,0.010177991352975368,-0.23760110139846802,-0.04800129213607934,0.5268292427062988,0.10870332270860672,0.06968919187784195,0.02400064654648304,0.4952612736592137,0.3386979049439978,-0.7,0.0,0.0016815662384033203,0.0016815662384033203,0.012883424758911133,0
4.455935955047607,-0.06199672073125839,0.010177991352975368,-0.23760110139846802,-0.04800129213607934,0.5268115997314453,0.10520398616790771,0.0693889781832695,0.02400064654648304,0.49281042974259043,0.3422541166106308,-0.7,0.0,0.0015575885772705078,0.0015575885772705078,0.012749433517456055,0
4.470711946487427,-0.06195102259516716,0.010171179659664631,-0.23791542649269104,-0.04801197380172272,0.5267833471298218,0.10283958166837692,0.05929618701338768,0.024005986750125885,0.49035365480711196,0.345764794647037,-0.7,0.0,0.0018191337585449219,0.0018191337585449219,0.012851715087890625,0
4.485124826431274,-0.06195102259516716,0.010171179659664631,-0.23791542649269104,-0.04801197380172272,0.5267626047134399,0.09988348186016083,0.06095273420214653,0.024005986750125885,0.48793315816488037,0.3491722113273705,-0.7,0.0,0.0016345977783203125,0.0016345977783203125,0.01238703727722168,0
4.50006365776062,-0.061901528388261795,0.010161141864955425,-0.23821978271007538,-0.04795878334843004,0.526741623878479,0.07645652443170547,0.06814886629581451,0.023979391902685165,0.48539934569391624,0.3526860859176585,-0.7,0.0,0.001623392105102539,0.001623392105102539,0.01190185546875,0
4.514118432998657,-0.061901528388261795,0.010161141864955425,-0.23821978271007538,-0.04795878334843004,0.5267254710197449,0.08044277876615524,0.06789697706699371,0.023979391902685165,0.4829923748877255,0.35597523200401854,-0.7,0.0,0.0019202232360839844,0.0019202232360839844,0.012957096099853516,0
4.52987003326416,-0.06184617802500725,0.010154014453291893,-0.23851820826530457,-0.047997484455080675,0.5266954898834229,0.09368754923343658,0.06643584370613098,0.023998742923140526,0.4802683312679658,0.3596419469153778,-0.7,0.0,0.0016188621520996094,0.0016188621520996094,0.011936187744140625,0
4.5437912940979,-0.06184617802500725,0.010154014453291893,-0.23851820826530457,-0.047997484455080675,0.5266731977462769,0.09196842461824417,0.06670824438333511,0.023998742923140526,0.4778376450244917,0.36286524357872557,-0.7,0.0,0.0017521381378173828,0.0017521381378173828,0.01260066032409668,0
4.558462619781494,-0.061790864914655685,0.010153191164135933,-0.2388233244419098,-0.04799240016981822,0.5266433954238892,0.11164850741624832,0.07098092138767242,0.023996202275156975,0.47525258544839105,0.3662444266123646,-0.7,0.0,0.0017266273498535156,0.0017266273498535156,0.012751340866088867,0
4.573249578475952,-0.061790864914655685,0.010153191164135933,-0.2388233244419098,-0.04799240016981822,0.5266212224960327,0.10588142275810242,0.07144737243652344,0.023996202275156975,0.47262297214285404,0.3696316087712941,-0.7,0.0,0.0017652511596679688,0.0017652511596679688,0.012463569641113281,0
4.587864398956299,-0.06173524633049965,0.010158156976103783,-0.23912465572357178,-0.04799031445222966,0.5265982151031494,0.08038607984781265,0.06707500666379929,0.023995159193873405,0.4700002497639514,0.37296080923043823,-0.7,0.0,0.001621246337890625,0.001621246337890625,0.013071537017822266,0
4.602338075637817,-0.06173524633049965,0.010158156976103783,-0.23912465572357178,-0.04799031445222966,0.5265809297561646,0.08310583978891373,0.06823927909135818,0.023995159193873405,0.4673797440150934,0.3762395179727745,-0.7,0.0,0.0016143321990966797,0.0016143321990966797,0.012258529663085938,0
4.617371320724487,-0.061679668724536896,0.010156647302210331,-0.23942776024341583,-0.04798950379396634,0.5265606045722961,0.0797990933060646,0.068516306579113,0.023994751274585724,0.464633713181519,0.37962548989122674,-0.7,0.0,0.001674652099609375,0.001674652099609375,0.01209568977355957,0
4.6315319538116455,-0.061679668724536896,0.010156647302210331,-0.23942776024341583,-0.04798950379396634,0.5265451073646545,0.0818120688199997,0.06931012868881226,0.023994751274585724,0.46202463944469235,0.38279659421943923,-0.7,0.0,0.0018169879913330078,0.0018169879913330078,0.012581110000610352,0
4.646340370178223,-0.06163473799824715,0.010162155143916607,-0.23971904814243317,-0.04797634955992938,0.5265079140663147,0.10738439112901688,0.07622291892766953,0.02398817427456379,0.45927306478088475,0.3860935792871635,-0.7,0.0,0.001529693603515625,0.001529693603515625,0.012801170349121094,0
