time,x,y,z,yaw,throttle,roll_rate,pitch_rate,yaw_rate,x_ref,y_ref,z_ref,yaw_ref,pred_time,nr_time,ctrl_callback_time,metadata
4.76837158203125e-06,-0.0746726468205452,0.05330696702003479,-0.2392909824848175,0.03465591874270232,-0.5565948132176416,-0.1377641878905253,-0.09497688734707213,-0.12087027779316448,0.0,0.0,-0.6,0.0,0.3143348693847656,0.31778740882873535,0.3221585750579834,Hardware
0.3303966522216797,-0.0746726468205452,0.05330696702003479,-0.2392909824848175,0.03465591874270232,-0.5647608787094639,-0.2075905390991003,-0.16145299786135278,-0.16836968720234824,0.0,0.0,-0.6,0.0,0.029010534286499023,0.03553414344787598,0.04529547691345215,NN
0.39174485206604004,-0.07493212074041367,0.053499579429626465,-0.23941192030906677,0.03445257624118046,-0.570625829415627,-0.23916400257518655,-0.20889100996297943,-0.17587622998268765,0.0,0.0,-0.6,0.0,0.031293392181396484,0.03764677047729492,0.05053377151489258,1x Speed
0.4524853229522705,-0.0749703049659729,0.05350767821073532,-0.2397320717573166,0.0346461721360407,-0.5747274413270126,-0.24235271357448804,-0.2381621884547595,-0.15926572567785854,0.0,0.0,-0.6,0.0,0.01793503761291504,0.021782636642456055,0.03604435920715332,1stOrderHold
0.49236488342285156,-0.0749703049659729,0.05350767821073532,-0.2397320717573166,0.0346461721360407,-0.5779440619564192,-0.23631478784239232,-0.25863752920220495,-0.13464197447072673,0.0,0.0,-0.6,0.0,0.017750263214111328,0.021825790405273438,0.029326677322387695,QuatYawError
0.5274722576141357,-0.07420795410871506,0.05286699905991554,-0.24088796973228455,0.03707168309713313,-0.5793000404042034,-0.1836318066084016,-0.257255476464378,-0.10075507245713478,0.0,0.0,-0.6,0.0,0.02691483497619629,0.03011012077331543,0.03962969779968262,NoPyJoules
0.5739610195159912,-0.07420795410871506,0.05286699905991554,-0.24088796973228455,0.03707168309713313,-0.5808244759329763,-0.14715524241723377,-0.25626771773300755,-0.0727315650332951,0.0,0.0,-0.6,0.0,0.01798224449157715,0.021231651306152344,0.029580116271972656,0
0.611793041229248,-0.0727151483297348,0.049748633056879044,-0.24576134979724884,0.041473723051405634,-0.5800967506126454,-0.04934259806337765,-0.22154186836031253,-0.03197931682844781,0.0,0.0,-0.6,0.0,0.020081281661987305,0.023096799850463867,0.031545162200927734,0
0.6469025611877441,-0.0727151483297348,0.049748633056879044,-0.24576134979724884,0.041473723051405634,-0.5803568285715334,0.009222174148653714,-0.19720486452004315,-0.005786120780035622,0.0,0.0,-0.6,0.0,0.011581182479858398,0.014662504196166992,0.02107548713684082,0
0.674349308013916,-0.07123169302940369,0.045977383852005005,-0.25279974937438965,0.04502821546324682,-0.578716925612348,0.12367304497317357,-0.13696506304315595,0.03201635523672941,0.0,0.0,-0.6,0.0,0.01932692527770996,0.02260303497314453,0.03093552589416504,0
0.7096984386444092,-0.07016625255346298,0.04298655688762665,-0.2593235671520233,0.047729121406968014,-0.5768860307363426,0.24193605489657066,-0.062023728333845035,0.06559366939220143,0.0,0.0,-0.6,0.0,0.019433259963989258,0.022457361221313477,0.028407812118530273,0
0.7456934452056885,-0.06913737207651138,0.040205877274274826,-0.26530176401138306,0.05010131830469285,-0.5753030415163575,0.34687147822502634,0.0180548322676274,0.09292536169007087,0.0,0.0,-0.6,0.0,0.019833087921142578,0.020947933197021484,0.028623104095458984,0
0.7796542644500732,-0.067215196788311,0.03592943772673607,-0.27396804094314575,0.053436989257901,-0.5737439145644251,0.44285376467713444,0.1028284598302079,0.11685919343945515,0.0,0.0,-0.6,0.0,0.029667377471923828,0.034987688064575195,0.044927358627319336,0
0.8371412754058838,-0.067215196788311,0.03592943772673607,-0.27396804094314575,0.053436989257901,-0.5733287505023501,0.48568495594756256,0.16220868537490213,0.12865228473587698,0.0,0.0,-0.6,0.0,0.03129220008850098,0.03684210777282715,0.050104618072509766,0
0.8900265693664551,-0.05792529508471489,0.022177591919898987,-0.30292195081710815,0.06243782075465736,-0.5719377476375297,0.5721438864940624,0.28407240911629417,0.15691238077153372,0.0,0.0,-0.6,0.0,0.02988719940185547,0.03244304656982422,0.03842926025390625,0
0.9313557147979736,-0.05792529508471489,0.022177591919898987,-0.30292195081710815,0.06243782075465736,-0.5715729165151521,0.597579343017728,0.3694259436983545,0.17227394587486225,0.0,0.0,-0.6,0.0,0.02771735191345215,0.03155922889709473,0.03768181800842285,0
0.9754998683929443,-0.045219648629426956,0.010204054415225983,-0.33093270659446716,0.0702318987429327,-0.5714008400740362,0.583590693469145,0.47504966711846575,0.2040519310245365,0.0,0.0,-0.6,0.0,0.01808452606201172,0.02159285545349121,0.030487060546875,0
1.0129573345184326,-0.045219648629426956,0.010204054415225983,-0.33093270659446716,0.0702318987429327,-0.5711396113306624,0.5433116816133532,0.5490140854927118,0.2257538060052734,0.0,0.0,-0.6,0.0,0.02354884147644043,0.028525590896606445,0.038687944412231445,0
1.0575828552246094,-0.03032016009092331,0.0016602396499365568,-0.3572983145713806,0.07945615105683737,-0.5720372786410413,0.43281524890191725,0.6147355955798791,0.247492873012025,0.0,0.0,-0.6,0.0,0.018515586853027344,0.022085189819335938,0.03255438804626465,0
1.0973148345947266,-0.03032016009092331,0.0016602396499365568,-0.3572983145713806,0.07945615105683737,-0.5717954383606338,0.33641065309021195,0.6607408343274525,0.26557049154103907,0.0,0.0,-0.6,0.0,0.02039361000061035,0.02457427978515625,0.03355813026428223,0
1.134164571762085,-0.014014476910233498,-0.0031903604976832867,-0.3843637704849243,0.09238353082860283,-0.5737474325296953,0.08470733305664951,0.6443850516968824,0.2817178057484843,0.0,0.0,-0.6,0.0,0.04161500930786133,0.050386667251586914,0.060823678970336914,0
1.2079429626464844,-0.014014476910233498,-0.0031903604976832867,-0.3843637704849243,0.09238353082860283,-0.5731326251400538,-0.08692794080955804,0.6328847012198969,0.2992454730325509,0.0,0.0,-0.6,0.0,0.03231000900268555,0.03851628303527832,0.05192828178405762,0
1.2695624828338623,0.009127226658165455,0.0006167531246319413,-0.42568013072013855,0.1218663613647218,-0.5750082095729669,-0.30084955856669066,0.5306493687083814,0.3195100313404487,0.0,0.0,-0.6,0.0,0.029338598251342773,0.033333778381347656,0.04718160629272461,0
1.3310775756835938,0.01764816977083683,0.008620098233222961,-0.44636744260787964,0.14097943759149043,-0.576315002545207,-0.4505946909966835,0.3698116963258421,0.3426726835443349,0.0,0.0,-0.6,0.0,0.03625154495239258,0.045427799224853516,0.05608725547790527,0
1.3944294452667236,0.023291785269975662,0.023285463452339172,-0.4700123965740204,0.16451367274781623,-0.5771598881909518,-0.5554162836976785,0.13818194640287149,0.3600257430626231,0.0,0.0,-0.6,0.0,0.02404308319091797,0.025429248809814453,0.030065536499023438,0
1.4352076053619385,0.023731375113129616,0.03412555158138275,-0.48338583111763,0.17834827198680364,-0.5772827161143778,-0.628791398588375,-0.09347608426670936,0.37261780963987434,0.0,0.0,-0.6,0.0,0.03042745590209961,0.037050485610961914,0.04096388816833496,0
1.4831624031066895,0.019978996366262436,0.05323955789208412,-0.5024002194404602,0.1992420365765981,-0.5770197643204289,-0.6801539790118625,-0.30543325898669654,0.3791638263316748,0.0,0.0,-0.6,0.0,0.030141830444335938,0.031614065170288086,0.03856015205383301,0
1.5267622470855713,0.019978996366262436,0.05323955789208412,-0.5024002194404602,0.1992420365765981,-0.5763836203499341,-0.7161077853083038,-0.4538032812906876,0.38291545469653454,0.0,0.0,-0.6,0.0,0.029270172119140625,0.03068995475769043,0.03892374038696289,0
1.570631742477417,0.004510995000600815,0.08565318584442139,-0.5301981568336487,0.22849198178034658,-0.5749420033346384,-0.7412754497158126,-0.5576622969034813,0.37634237927101777,0.0,0.0,-0.6,0.0,0.020297527313232422,0.0217435359954834,0.028101205825805664,0
1.6026384830474854,0.004510995000600815,0.08565318584442139,-0.5301981568336487,0.22849198178034658,-0.5735883451766056,-0.7588928148010688,-0.630363607832437,0.36716749226555073,0.0,0.0,-0.6,0.0,0.021581172943115234,0.022875070571899414,0.028249502182006836,0
1.634507179260254,-0.012074076570570469,0.10886220633983612,-0.5478185415267944,0.24704914702153813,-0.5706852347114991,-0.7712249703607482,-0.6812545254827058,0.35380363582581115,0.0,0.0,-0.6,0.0,0.021433353424072266,0.023131847381591797,0.028914690017700195,0
1.6677277088165283,-0.012074076570570469,0.10886220633983612,-0.5478185415267944,0.24704914702153813,-0.5682755406396361,-0.7798574792525238,-0.716878167837894,0.33525419756088676,0.0,0.0,-0.6,0.0,0.015691518783569336,0.017341136932373047,0.02246713638305664,0
1.6945059299468994,-0.03304239362478256,0.1317928582429886,-0.5650997161865234,0.2664119600161362,-0.5640907711622482,-0.7859002354767667,-0.7418147174865258,0.3104697448762745,0.0,0.0,-0.6,0.0,0.02226090431213379,0.02364969253540039,0.027497053146362305,0
1.7238051891326904,-0.03304239362478256,0.1317928582429886,-0.5650997161865234,0.2664119600161362,-0.5607085162086491,-0.7901301648337368,-0.7592703022405681,0.27991395254073337,0.0,0.0,-0.6,0.0,0.024584293365478516,0.02603626251220703,0.029490947723388672,0
1.7573022842407227,-0.05714035406708717,0.15246528387069702,-0.5820326209068298,0.28709237529013004,-0.5552264722995641,-0.7930911153836158,-0.7714892115683977,0.24437410127656378,0.0,0.0,-0.6,0.0,0.018337488174438477,0.0197296142578125,0.024001359939575195,0
1.786003828048706,-0.06981928646564484,0.16164514422416687,-0.5903155207633972,0.2981930313411724,-0.5491725362473855,-0.795163780768531,-0.7800424480978784,0.20171398416550387,0.0,0.0,-0.6,0.0,0.019747257232666016,0.021065711975097656,0.02541518211364746,0
1.8150441646575928,-0.06981928646564484,0.16164514422416687,-0.5903155207633972,0.2981930313411724,-0.544315133299862,-0.7966146465379718,-0.7860297136685148,0.15290736733649346,0.0,0.0,-0.6,0.0,0.019446372985839844,0.020798683166503906,0.02465224266052246,0
1.8427281379699707,-0.09533955156803131,0.17715899646282196,-0.60654217004776,0.32093304043807835,-0.5373838806615677,-0.7976302525765803,-0.7902207995679604,0.09477170890999762,0.0,0.0,-0.6,0.0,0.0172574520111084,0.01916027069091797,0.023130178451538086,0
1.869093656539917,-0.09533955156803131,0.17715899646282196,-0.60654217004776,0.32093304043807835,-0.5318154914396437,-0.7983411768036062,-0.7931545596975723,0.03253701975711935,0.0,0.0,-0.6,0.0,0.029157638549804688,0.030335426330566406,0.034566640853881836,0
1.9084460735321045,-0.11912594735622406,0.1884549856185913,-0.6217374205589294,0.34463022386562825,-0.5237750694684499,-0.6102636845102043,-0.7952081917883006,-0.039652625872332196,0.0,0.0,-0.6,0.0,0.03474736213684082,0.036077260971069336,0.039603233337402344,0
1.9515526294708252,-0.13625578582286835,0.19349032640457153,-0.6330766081809998,0.3636907673437458,-0.5159311417331415,-0.25977027242907913,-0.7616936639947252,-0.13156863507027297,0.0,0.0,-0.6,0.0,0.010930061340332031,0.012340545654296875,0.015585660934448242,0
1.9695489406585693,-0.13625578582286835,0.19349032640457153,-0.6330766081809998,0.3636907673437458,-0.5127690999485227,-0.023722516293570084,-0.7381877224611842,-0.2200252716067917,0.0,0.0,-0.6,0.0,0.01590728759765625,0.017244815826416016,0.021307945251464844,0
1.9959385395050049,-0.14724750816822052,0.19455601274967194,-0.6408132910728455,0.37921324214837293,-0.5097328785564609,0.33402596951370755,-0.6261958537754599,-0.30632676300538975,0.0,0.0,-0.6,0.0,0.03418421745300293,0.035614967346191406,0.038899898529052734,0
2.0398504734039307,-0.1555902659893036,0.19272424280643463,-0.6468498110771179,0.393132265519237,-0.5085608946287801,0.4738181786595953,-0.4594029439923652,-0.39616394227263846,0.0,0.0,-0.6,0.0,0.01134181022644043,0.012856483459472656,0.01732611656188965,0
2.0609731674194336,-0.15989306569099426,0.18986773490905762,-0.6500778198242188,0.4015436874972745,-0.5077488909214667,0.5716727250617167,-0.2663480761587326,-0.4774167931156994,0.0,0.0,-0.6,0.0,0.010756731033325195,0.012117862701416016,0.016253948211669922,0
2.0783519744873047,-0.15989306569099426,0.18986773490905762,-0.6500778198242188,0.4015436874972745,-0.5079681942865648,0.6401709075432017,-0.13113263630963837,-0.5367761119051,0.0,0.0,-0.6,0.0,0.01665806770324707,0.018120765686035156,0.022077083587646484,0
2.104545831680298,-0.16240866482257843,0.18411028385162354,-0.65274578332901,0.41040810792686283,-0.5085563880772371,0.6881196352802412,0.06441025329514824,-0.6000389102460372,0.0,0.0,-0.6,0.0,0.013409614562988281,0.01482248306274414,0.018985509872436523,0
2.125706434249878,-0.16240866482257843,0.18411028385162354,-0.65274578332901,0.41040810792686283,-0.5094488649223403,0.7216837446961689,0.20136432295563655,-0.6425333574742002,0.0,0.0,-0.6,0.0,0.013249635696411133,0.014699697494506836,0.019354820251464844,0
2.1489462852478027,-0.160925030708313,0.1738360971212387,-0.6521490216255188,0.4135325166361464,-0.5114231366490634,0.7451786212873183,0.3809550260689456,-0.6897733502319401,0.0,0.0,-0.6,0.0,0.014821767807006836,0.01612067222595215,0.019415616989135742,0
2.1713368892669678,-0.160925030708313,0.1738360971212387,-0.6521490216255188,0.4135325166361464,-0.5132063215384741,0.7616250349011228,0.506668518248262,-0.7211528040013886,0.0,0.0,-0.6,0.0,0.012379646301269531,0.014398336410522461,0.018086910247802734,0
2.1946609020233154,-0.15588510036468506,0.16319552063941956,-0.6485987901687622,0.408265343020245,-0.5160382416845771,0.773137524430786,0.5946679627737834,-0.744806962800972,0.0,0.0,-0.6,0.0,0.02052140235900879,0.02185678482055664,0.026401758193969727,0
2.2235517501831055,-0.15588510036468506,0.16319552063941956,-0.6485987901687622,0.408265343020245,-0.5184033543324732,0.7811962671015502,0.6562675739416484,-0.7613648739606804,0.0,0.0,-0.6,0.0,0.011630773544311523,0.01294565200805664,0.017293930053710938,0
2.244570732116699,-0.14477628469467163,0.14700749516487122,-0.6407402753829956,0.3921635318299157,-0.5228963477458731,0.7868373869710852,0.6993873017591539,-0.7729554117724763,0.0,0.0,-0.6,0.0,0.019359350204467773,0.02082967758178711,0.02417898178100586,0
2.271077871322632,-0.14477628469467163,0.14700749516487122,-0.6407402753829956,0.3921635318299157,-0.5265314793821226,0.7907861708797597,0.7295711112314077,-0.7810687882407334,0.0,0.0,-0.6,0.0,0.012672901153564453,0.014023780822753906,0.017473459243774414,0
2.29249906539917,-0.12827685475349426,0.12825624644756317,-0.6288378238677979,0.3689416057799437,-0.5318296299341189,0.7935503196158318,0.7506997778619854,-0.7867481517685134,0.0,0.0,-0.6,0.0,0.014774560928344727,0.01616501808166504,0.021785259246826172,0
2.3167452812194824,-0.12827685475349426,0.12825624644756317,-0.6288378238677979,0.3689416057799437,-0.5360719020445166,0.7954852237310822,0.7654898445033897,-0.7898980005210825,0.0,0.0,-0.6,0.0,0.01446533203125,0.01610398292541504,0.019903898239135742,0
2.3398125171661377,-0.10689125955104828,0.1075792908668518,-0.6136972308158875,0.34190720771642125,-0.5427146247494111,0.7968396566117576,0.7758428911523728,-0.7929286003647578,0.0,0.0,-0.6,0.0,0.015508890151977539,0.017009973526000977,0.020360469818115234,0
2.3620872497558594,-0.10689125955104828,0.1075792908668518,-0.6136972308158875,0.34190720771642125,-0.5479983439306717,0.7977877596282303,0.7830900238066609,-0.7792873839880595,0.0,0.0,-0.6,0.0,0.017642498016357422,0.01906895637512207,0.022535324096679688,0
2.389430046081543,-0.08654418587684631,0.0901813954114914,-0.5996364951133728,0.31933024389531517,-0.5540184809782956,0.7984514317397613,0.7881630166646627,-0.7581205614656057,0.0,0.0,-0.6,0.0,0.010179281234741211,0.011728048324584961,0.015189170837402344,0
2.408000946044922,-0.06965320557355881,0.07691732048988342,-0.587942898273468,0.3027454258718994,-0.5604487538729701,0.7989160022178329,0.791714111665264,-0.7318464583897362,0.0,0.0,-0.6,0.0,0.016082763671875,0.0172274112701416,0.021264314651489258,0
2.4322192668914795,-0.06965320557355881,0.07691732048988342,-0.587942898273468,0.3027454258718994,-0.5655407483290529,0.799241201552483,0.7941998781656848,-0.6932693640255664,0.0,0.0,-0.6,0.0,0.030261993408203125,0.03171896934509277,0.03642082214355469,0
2.4724137783050537,-0.032690029591321945,0.05064999312162399,-0.5632585883140564,0.2704541840684705,-0.5729023290677852,0.7994688410867381,0.7959399147159795,-0.6563491370555219,0.0,0.0,-0.6,0.0,0.022611141204833984,0.023920774459838867,0.028631210327148438,0
2.505208969116211,-0.032690029591321945,0.05064999312162399,-0.5632585883140564,0.2704541840684705,-0.5787140752090876,0.7996281887607167,0.7971579403011856,-0.6072285744440845,0.0,0.0,-0.6,0.0,0.010247468948364258,0.011641740798950195,0.01559138298034668,0
2.524286985397339,0.00015688181156292558,0.029753101989626884,-0.5417804718017578,0.2459734416159812,-0.5855990188283898,0.7997397321325017,0.7980105582108299,-0.5483910887739023,0.0,0.0,-0.6,0.0,0.01047372817993164,0.011990070343017578,0.01634693145751953,0
2.5429744720458984,0.00015688181156292558,0.029753101989626884,-0.5417804718017578,0.2459734416159812,-0.591026175738735,0.7998178124927512,0.7986073907475809,-0.48526624945931207,0.0,0.0,-0.6,0.0,0.020000696182250977,0.021310806274414062,0.025518417358398438,0
2.5717978477478027,0.03355565294623375,0.01072709821164608,-0.5202571749687195,0.22415598346854343,-0.5976946337948151,0.7998724687449259,0.7990251735233067,-0.4219856321944416,0.0,0.0,-0.6,0.0,0.010087251663208008,0.011495113372802734,0.015311241149902344,0
2.5910723209381104,0.03355565294623375,0.01072709821164608,-0.5202571749687195,0.22415598346854343,-0.6029434791411202,0.7999107281214481,0.7993176214663147,-0.3562852431018623,0.0,0.0,-0.6,0.0,0.020092487335205078,0.02207326889038086,0.027018070220947266,0
2.6206319332122803,0.0665476843714714,-0.005595072638243437,-0.49966955184936523,0.20688707952757657,-0.6095031902828596,0.754927721021443,0.7995223350264203,-0.28383076342315094,0.0,0.0,-0.6,0.0,0.010742425918579102,0.012063026428222656,0.01607370376586914,0
2.639930009841919,0.0665476843714714,-0.005595072638243437,-0.49966955184936523,0.20688707952757657,-0.6142848572045326,0.7231184773096888,0.7996656345184943,-0.2119023799052459,0.0,0.0,-0.6,0.0,0.01189422607421875,0.013346195220947266,0.017385244369506836,0
2.6613266468048096,0.09135156869888306,-0.016485299915075302,-0.48357734084129333,0.1963655823123579,-0.6200536601153429,0.5489835842591667,0.799765944162946,-0.13957756972420463,0.0,0.0,-0.6,0.0,0.01001286506652832,0.01209402084350586,0.016632556915283203,0
2.680802345275879,0.09135156869888306,-0.016485299915075302,-0.48357734084129333,0.1963655823123579,-0.6231435600748457,0.4267912323950577,0.7998361609140622,-0.07015575491902608,0.0,0.0,-0.6,0.0,0.014405965805053711,0.015783309936523438,0.019911527633666992,0
2.7059333324432373,0.11925474554300308,-0.026274260133504868,-0.4653502404689789,0.18848334204844827,-0.6271989438709418,0.11484688883306726,0.7998853126398435,0.00040972024765062454,0.0,0.0,-0.6,0.0,0.009671926498413086,0.010970115661621094,0.0160977840423584,0
2.722928762435913,0.11925474554300308,-0.026274260133504868,-0.4653502404689789,0.18848334204844827,-0.6278116484648908,-0.10375889071293723,0.7999197188478905,0.06310886797145929,0.0,0.0,-0.6,0.0,0.029738187789916992,0.030855178833007812,0.033736228942871094,0
2.759507179260254,0.14263653755187988,-0.03146566078066826,-0.44783815741539,0.186535057809155,-0.6291999086950808,-0.3126312234990561,0.6725336880381814,0.10757714929500156,0.0,0.0,-0.6,0.0,0.016401290893554688,0.019716262817382812,0.0245363712310791,0
2.795316219329834,0.14263653755187988,-0.03146566078066826,-0.44783815741539,0.186535057809155,-0.6285764584800837,-0.4588418564493393,0.583284781423939,0.14328132367484048,0.0,0.0,-0.6,0.0,0.023814916610717773,0.040274858474731445,0.0425562858581543,0
2.8497719764709473,0.16701491177082062,-0.03078814037144184,-0.4229210317134857,0.19588007722181505,-0.6295820655505068,-0.5611892995145376,0.26719696456066505,0.17348625794910338,0.0,0.0,-0.6,0.0,0.016774654388427734,0.022313356399536133,0.03053426742553711,0
2.887415885925293,0.16701491177082062,-0.03078814037144184,-0.4229210317134857,0.19588007722181505,-0.6295472189165691,-0.6328325096601763,0.04582106021649335,0.19793468153347513,0.0,0.0,-0.6,0.0,0.017217397689819336,0.022701263427734375,0.031037092208862305,0
2.924685001373291,0.17146465182304382,-0.018391061574220657,-0.4024069309234619,0.2100220232534155,-0.630173442190044,-0.6829827567621234,-0.3941488844204315,0.22168698735627862,0.0,0.0,-0.6,0.0,0.017380475997924805,0.02275681495666504,0.0308074951171875,0
2.961012601852417,0.17146465182304382,-0.018391061574220657,-0.4024069309234619,0.2100220232534155,-0.630277628778981,-0.7180879297334863,-0.5159042190943021,0.24036671608714594,0.0,0.0,-0.6,0.0,0.014346837997436523,0.015417814254760742,0.03435945510864258,0
3.005107879638672,0.15351389348506927,0.004161403514444828,-0.3852522075176239,0.2200182340249215,-0.6308001899582024,-0.7426615508134405,-0.6011329533660115,0.254129184266054,0.0,0.0,-0.6,0.0,0.017185688018798828,0.018820524215698242,0.026304960250854492,0
3.0333590507507324,0.15351389348506927,0.004161403514444828,-0.3852522075176239,0.2200182340249215,-0.6310139957326276,-0.7598630855694084,-0.660793067356208,0.2654784969918092,0.0,0.0,-0.6,0.0,0.013307571411132812,0.01762676239013672,0.023225784301757812,0
3.0634877681732178,0.12605375051498413,0.026002490893006325,-0.3749617338180542,0.22236469729536404,-0.6302294343896709,-0.7719041598985859,-0.7025551471493456,0.2832875080313601,0.0,0.0,-0.6,0.0,0.03847646713256836,0.04683685302734375,0.05099129676818848,0
3.134472131729126,0.08695714175701141,0.05034470930695534,-0.36680471897125244,0.2228460351005817,-0.6285611007550651,-0.7803329119290101,-0.731788603004542,0.2918261737398506,0.0,0.0,-0.6,0.0,0.024326801300048828,0.03461170196533203,0.049721479415893555,0
3.191168785095215,0.040964774787425995,0.07527250796556473,-0.3485754132270813,0.1928994955115137,-0.6318886214285214,-0.786233038350307,-0.7522520221031794,0.18251515647771172,0.0,0.0,-0.6,0.0,0.04479479789733887,0.04611325263977051,0.053418636322021484,0
3.2500410079956055,-0.013111523352563381,0.10451771318912506,-0.2871720790863037,0.12937762164249916,-0.6345008170606828,-0.7903631268452149,-0.7665764154722257,-0.0877489430561183,0.0,0.0,-0.6,0.0,0.021239042282104492,0.023952007293701172,0.031108379364013672,0
3.2868497371673584,-0.013111523352563381,0.10451771318912506,-0.2871720790863037,0.12937762164249916,-0.6365518678136036,-0.7932541887916505,-0.776603490830558,-0.26834308830262515,0.0,0.0,-0.6,0.0,0.01623845100402832,0.02309584617614746,0.03219270706176758,0
3.325330972671509,-0.052458520978689194,0.14385230839252472,-0.23508596420288086,0.13210121967447352,-0.6203231013543684,-0.7952779321541553,-0.7836224435813907,0.2153546039716539,0.0,0.0,-0.6,0.0,0.020392656326293945,0.022967815399169922,0.031139373779296875,0
3.358525514602661,-0.052458520978689194,0.14385230839252472,-0.23508596420288086,0.13210121967447352,-0.6074298634153951,-0.7966945525079087,-0.7885357105069735,0.39074822278015775,0.0,0.0,-0.6,0.0,0.008925676345825195,0.011548995971679688,0.017589807510375977,0
3.380669116973877,-0.0552242137491703,0.1752340942621231,-0.2784087061882019,0.20215231058761077,-0.6069363471107015,-0.7976861867555362,-0.7919749973548814,0.43622927139228773,0.0,0.0,-0.6,0.0,0.015347480773925781,0.017997026443481445,0.02380514144897461,0
3.408527135848999,-0.0552242137491703,0.1752340942621231,-0.2784087061882019,0.20215231058761077,-0.6065411055186577,-0.7983803307288753,-0.794382498148417,0.46646771181563107,0.0,0.0,-0.6,0.0,0.011214017868041992,0.013641357421875,0.019871234893798828,0
3.433096170425415,-0.057021819055080414,0.2004159837961197,-0.287680983543396,0.26190529785398625,-0.6146155869701229,-0.7988662315102126,-0.796067748703892,0.319632739374355,0.0,0.0,-0.6,0.0,0.011246442794799805,0.013814449310302734,0.02003788948059082,0
3.4563066959381104,-0.057021819055080414,0.2004159837961197,-0.287680983543396,0.26190529785398625,-0.6209469005104268,-0.7992063620571488,-0.7972474240927244,0.24302421954591638,0.0,0.0,-0.6,0.0,0.01286625862121582,0.015523195266723633,0.02169632911682129,0
3.4833812713623047,-0.058737993240356445,0.2252991497516632,-0.2721967101097107,0.3197465329125312,-0.6259133461840823,-0.7994444534400041,-0.7980731968649071,0.03546796217042536,0.0,0.0,-0.6,0.0,0.00916743278503418,0.011693716049194336,0.01765584945678711,0
3.504149913787842,-0.058737993240356445,0.2252991497516632,-0.2721967101097107,0.3197465329125312,-0.6298104628852476,-0.7996111174080028,-0.798651237805435,-0.09359462419653594,0.0,0.0,-0.6,0.0,0.010404348373413086,0.012932777404785156,0.0193021297454834,0
3.5275204181671143,-0.05677596107125282,0.24775001406669617,-0.24387338757514954,0.3622124976122197,-0.6328693384183814,-0.799727782185602,-0.7990558664638046,-0.06369290661666052,0.0,0.0,-0.6,0.0,0.01703500747680664,0.019559144973754883,0.025569915771484375,0
3.556697368621826,-0.05677596107125282,0.24775001406669617,-0.24387338757514954,0.3622124976122197,-0.6352708167234686,-0.7998094475299214,-0.7993391065246632,-0.03272738484986523,0.0,0.0,-0.6,0.0,0.017508745193481445,0.020034074783325195,0.026395797729492188,0
3.5881404876708984,-0.032981984317302704,0.25946658849716187,-0.2532999813556671,0.4175546762009705,-0.6371565276037748,-0.799866613270945,-0.5375742086973248,0.013836328273979681,0.0,0.0,-0.6,0.0,0.016127586364746094,0.018726348876953125,0.024959087371826172,0
3.6169509887695312,-0.032981984317302704,0.25946658849716187,-0.2532999813556671,0.4175546762009705,-0.6386374606184896,-0.7999066292896615,-0.3542472412590253,0.05263702272173244,0.0,0.0,-0.6,0.0,0.008562088012695312,0.011172294616699219,0.017251253128051758,0
3.6380038261413574,-0.01008524652570486,0.2674626111984253,-0.24340277910232544,0.4755086016180517,-0.6398006400817197,-0.7999346405027631,0.018564217283563944,0.006595674605393974,0.0,0.0,-0.6,0.0,0.007730960845947266,0.010354757308959961,0.016521215438842773,0
3.6589996814727783,-0.01008524652570486,0.2674626111984253,-0.24340277910232544,0.4755086016180517,-0.6407143295353075,-0.7999542483519342,0.25299495209849476,-0.02179212570602608,0.0,0.0,-0.6,0.0,0.008549928665161133,0.011082649230957031,0.017305374145507812,0
3.6800575256347656,0.011096988804638386,0.2668561339378357,-0.24513235688209534,0.49937813881360926,-0.6384228076303323,-0.778786853891081,0.4170964664689464,-0.00766147869933438,0.0,0.0,-0.6,0.0,0.009094953536987305,0.01171422004699707,0.017768144607543945,0
3.7022953033447266,0.011096988804638386,0.2668561339378357,-0.24513235688209534,0.49937813881360926,-0.636783924399981,-0.7851507977237567,0.5319675265282625,-0.005325366073192918,0.0,0.0,-0.6,0.0,0.016877174377441406,0.01936507225036621,0.02546215057373047,0
3.731391429901123,0.03490975499153137,0.2571357488632202,-0.2422400861978531,0.5246449065837103,-0.6279019808764118,-0.5272714009093145,0.6123772685697838,-0.02304475351673817,0.0,0.0,-0.6,0.0,0.012651443481445312,0.015122175216674805,0.020998716354370117,0
3.7561991214752197,0.03490975499153137,0.2571357488632202,-0.2422400861978531,0.5246449065837103,-0.6230104812037935,-0.36944958191031085,0.6686640879988487,-0.06464360627139676,0.0,0.0,-0.6,0.0,0.010713577270507812,0.013132095336914062,0.019265174865722656,0
3.7791268825531006,0.05487724021077156,0.23514321446418762,-0.23566462099552155,0.5464413809443943,-0.6171839751224872,0.001243991289560209,0.7080648615991941,-0.1867905566615728,0.0,0.0,-0.6,0.0,0.015053272247314453,0.01775050163269043,0.024202823638916016,0
3.8081438541412354,0.05487724021077156,0.23514321446418762,-0.23566462099552155,0.5464413809443943,-0.6156621904716943,0.24087079390269214,0.7356454031194359,-0.2913367012394064,0.0,0.0,-0.6,0.0,0.014503240585327148,0.017012834548950195,0.023332834243774414,0
3.8351709842681885,0.06287068873643875,0.2085026204586029,-0.2302078753709793,0.5550790817431146,-0.6080129035133421,0.09371970951384925,0.53972290943043,-0.2615572865258926,0.0,0.0,-0.6,0.0,0.01400446891784668,0.01643204689025879,0.02278304100036621,0
3.862485408782959,0.05698879435658455,0.19519177079200745,-0.2317936271429062,0.5566490082712813,-0.604538723242808,-0.04988965852644281,0.2837328764835778,-0.33607814743765113,0.0,0.0,-0.6,0.0,0.010154485702514648,0.012682199478149414,0.018434524536132812,0
3.88527774810791,0.0507870614528656,0.18206121027469635,-0.2250312715768814,0.559601683958952,-0.6056431315263459,-0.16433947171266733,0.006941046024535158,-0.47525470320635577,0.0,0.0,-0.6,0.0,0.012905597686767578,0.014354228973388672,0.019654035568237305,0
3.9078009128570557,0.0507870614528656,0.18206121027469635,-0.2250312715768814,0.559601683958952,-0.605562255817003,-0.16473758686331683,-0.18691740924829586,-0.5726782922444491,0.0,0.0,-0.6,0.0,0.010657072067260742,0.0120849609375,0.0159299373626709,0
3.9272141456604004,0.04081554710865021,0.17355869710445404,-0.22674061357975006,0.5533948044851953,-0.6017086846608337,-0.3553163108043218,-0.37084218647380707,-0.4975828000494896,0.0,0.0,-0.6,0.0,0.01624751091003418,0.01772928237915039,0.021735429763793945,0
3.952333450317383,0.04081554710865021,0.17355869710445404,-0.22674061357975006,0.5533948044851953,-0.5970665083748298,-0.44676417129055096,-0.499589530531665,-0.4574301796721747,0.0,0.0,-0.6,0.0,0.013775348663330078,0.015209197998046875,0.02001786231994629,0
3.974618673324585,0.031931642442941666,0.168562650680542,-0.2278270274400711,0.5464153704484801,-0.596033213318933,-0.5254335301760934,-0.5897126713721655,-0.467524455170762,0.0,0.0,-0.6,0.0,0.01843881607055664,0.019872665405273438,0.023827314376831055,0
4.00191855430603,0.031931642442941666,0.168562650680542,-0.2278270274400711,0.5464153704484801,-0.5945559634012874,-0.5544338462894063,-0.6527988699605158,-0.47790002431391815,0.0,0.0,-0.6,0.0,0.018517017364501953,0.019933700561523438,0.023331642150878906,0
4.028700113296509,0.03133805841207504,0.16801567375659943,-0.22992776334285736,0.5493293600954333,-0.5956120351161135,-0.4849665827727554,-0.6027516862414222,-0.5174275464076648,0.0,0.0,-0.6,0.0,0.015030145645141602,0.016466617584228516,0.02055525779724121,0
4.0529046058654785,0.03133805841207504,0.16801567375659943,-0.22992776334285736,0.5493293600954333,-0.5970275025882503,-0.45089988812256915,-0.5676813961892591,-0.5417140556791877,0.0,0.0,-0.6,0.0,0.018405437469482422,0.0198819637298584,0.02328968048095703,0
4.078819274902344,0.0379842184484005,0.1712338626384735,-0.22943460941314697,0.5484857242300267,-0.6001984241146541,-0.3502099491200282,-0.3813815412764169,-0.550684773915896,0.0,0.0,-0.6,0.0,0.017767667770385742,0.019078731536865234,0.022475004196166992,0
4.105687379837036,0.04435918480157852,0.1759732961654663,-0.2282402664422989,0.5476905754063444,-0.6046239596933367,-0.3453683616770807,-0.1862551378528075,-0.5303615553108741,0.0,0.0,-0.6,0.0,0.02186727523803711,0.023172855377197266,0.02654886245727539,0
4.134227275848389,0.04435918480157852,0.1759732961654663,-0.2282402664422989,0.5476905754063444,-0.6081373636104696,-0.39860048697940687,-0.04957916048586103,-0.501859388379374,0.0,0.0,-0.6,0.0,0.01757049560546875,0.019473552703857422,0.024062156677246094,0
4.162134647369385,0.05050373822450638,0.18829181790351868,-0.23212890326976776,0.5443958031062877,-0.608158983546327,-0.48436695699961596,0.008062438605571029,-0.44469442452086766,0.0,0.0,-0.6,0.0,0.014892578125,0.01617717742919922,0.020996570587158203,0
4.185584306716919,0.05050373822450638,0.18829181790351868,-0.23212890326976776,0.5443958031062877,-0.6074570566955652,-0.5610162045415951,0.04840955188351192,-0.4045967589899244,0.0,0.0,-0.6,0.0,0.01996016502380371,0.021409273147583008,0.024732351303100586,0
4.214542865753174,0.04981110990047455,0.18765145540237427,-0.23375684022903442,0.5557801188497062,-0.6043820232026071,-0.5258486367248726,0.038797619808684396,-0.4149126943288011,0.0,0.0,-0.6,0.0,0.02008509635925293,0.021451711654663086,0.02567124366760254,0
4.242421865463257,0.04981110990047455,0.18765145540237427,-0.23375684022903442,0.5557801188497062,-0.6022474550034933,-0.49828873552715003,0.03205619463542306,-0.4320782864873578,0.0,0.0,-0.6,0.0,0.009621381759643555,0.011093616485595703,0.015067815780639648,0
4.26104736328125,0.04396435618400574,0.17922088503837585,-0.23249290883541107,0.544869083832562,-0.5987555947694695,-0.5422308797656301,-0.11539046376941373,-0.44726574985981093,0.0,0.0,-0.6,0.0,0.01625823974609375,0.017826318740844727,0.021561145782470703,0
4.285166025161743,0.04396435618400574,0.17922088503837585,-0.23249290883541107,0.544869083832562,-0.5956293172958694,-0.5302117185853628,-0.21867964254221217,-0.4691418076584831,0.0,0.0,-0.6,0.0,0.010242700576782227,0.011842966079711914,0.015804529190063477,0
4.303899049758911,0.03730634227395058,0.17175209522247314,-0.2332504689693451,0.5444366054906344,-0.5916434467285662,-0.4962396876453159,-0.30938670306315763,-0.47432310720893206,0.0,0.0,-0.6,0.0,0.010641336441040039,0.012258291244506836,0.017019271850585938,0
4.323155641555786,0.03730634227395058,0.17175209522247314,-0.2332504689693451,0.5444366054906344,-0.5887796712194373,-0.4460154010524928,-0.372925184175663,-0.49074585470551624,0.0,0.0,-0.6,0.0,0.012066841125488281,0.013549566268920898,0.01681351661682129,0
4.343766450881958,0.03406674787402153,0.16706283390522003,-0.2351563572883606,0.5536988261668118,-0.588962701012426,-0.42629621776835513,-0.3896043611183533,-0.5196133762237197,0.0,0.0,-0.6,0.0,0.01431727409362793,0.01566147804260254,0.020205259323120117,0
4.366705894470215,0.03406674787402153,0.16706283390522003,-0.2351563572883606,0.5536988261668118,-0.5892743252672232,-0.40771663347033454,-0.4012793990696233,-0.5392372219128813,0.0,0.0,-0.6,0.0,0.017087459564208984,0.018512725830078125,0.022975683212280273,0
4.395277261734009,0.03356253355741501,0.1685308814048767,-0.2355906069278717,0.5500720560987136,-0.5929288520856465,-0.41639253232678203,-0.33568254664951364,-0.5590244651436737,0.0,0.0,-0.6,0.0,0.011070489883422852,0.012647628784179688,0.016415119171142578,0
4.413472890853882,0.03356253355741501,0.1685308814048767,-0.2355906069278717,0.5500720560987136,-0.5957321654471472,-0.4416596921543311,-0.28972494968546264,-0.561163333223474,0.0,0.0,-0.6,0.0,0.009682655334472656,0.011163711547851562,0.014976263046264648,0
4.432306289672852,0.03618399798870087,0.1725604236125946,-0.2361137568950653,0.5457062363429068,-0.5978815181966148,-0.4526126606524215,-0.2074500787859495,-0.5415760234838997,0.0,0.0,-0.6,0.0,0.010708808898925781,0.012212514877319336,0.015697002410888672,0
4.450880289077759,0.03618399798870087,0.1725604236125946,-0.2361137568950653,0.5457062363429068,-0.5994806064004177,-0.4841573407607057,-0.14982231725920198,-0.5209532923275991,0.0,0.0,-0.6,0.0,0.010509490966796875,0.01198124885559082,0.01739668846130371,0
4.471469402313232,0.03728615492582321,0.17634141445159912,-0.2376050502061844,0.5489206089001372,-0.5998467036750637,-0.5251638891607255,-0.12545793929825996,-0.4984599802792401,0.0,0.0,-0.6,0.0,0.014830589294433594,0.01626276969909668,0.020028114318847656,0
4.494899034500122,0.03728615492582321,0.17634141445159912,-0.2376050502061844,0.5489206089001372,-0.5997899038382072,-0.5609134768092308,-0.10840228085485146,-0.48152966047335394,0.0,0.0,-0.6,0.0,0.021347999572753906,0.022647380828857422,0.02695608139038086,0
4.52559757232666,0.03616806119680405,0.17592890560626984,-0.23867279291152954,0.5500085105881869,-0.5977260314075235,-0.5356481977519105,-0.12817705249138955,-0.48158427703390067,0.0,0.0,-0.6,0.0,0.013943910598754883,0.015384197235107422,0.019060850143432617,0
4.547242879867554,0.03616806119680405,0.17592890560626984,-0.23867279291152954,0.5500085105881869,-0.596308958633167,-0.5121251783914426,-0.1420321908804818,-0.4882695949765921,0.0,0.0,-0.6,0.0,0.01832413673400879,0.019672155380249023,0.02390599250793457,0
4.575451374053955,0.03213774040341377,0.17129991948604584,-0.23876431584358215,0.5458843362469499,-0.5940915887116771,-0.5149254747995072,-0.21648258182389207,-0.49301513375851386,0.0,0.0,-0.6,0.0,0.011670351028442383,0.013067483901977539,0.017741918563842773,0
4.595879554748535,0.03213774040341377,0.17129991948604584,-0.23876431584358215,0.5458843362469499,-0.592317848967124,-0.49524972959056063,-0.2686344317781328,-0.5034588523834386,0.0,0.0,-0.6,0.0,0.019334793090820312,0.02067089080810547,0.025199413299560547,0
4.625645637512207,0.02835269086062908,0.16653679311275482,-0.2397957593202591,0.5491673303042841,-0.590961427623574,-0.47316138525852214,-0.3042677174306798,-0.5121954882494633,0.0,0.0,-0.6,0.0,0.012067556381225586,0.013520479202270508,0.01775503158569336,0
4.646623373031616,0.02835269086062908,0.16653679311275482,-0.2397957593202591,0.5491673303042841,-0.5900775929184312,-0.44732980525637445,-0.3292250937815606,-0.5226621600201286,0.0,0.0,-0.6,0.0,0.014642953872680664,0.016710519790649414,0.02144479751586914,0
4.670069694519043,0.026986170560121536,0.16596928238868713,-0.24059872329235077,0.5491308387715673,-0.5916673332915208,-0.45871780380885147,-0.3177096650936526,-0.5365996963002536,0.0,0.0,-0.6,0.0,0.029780864715576172,0.03127431869506836,0.03447151184082031,0
4.707315921783447,0.026986170560121536,0.16596928238868713,-0.24059872329235077,0.5491308387715673,-0.5928246509590162,-0.47012920594021446,-0.3096388606834252,-0.5412606064324322,0.0,0.0,-0.6,0.0,0.016893625259399414,0.018236160278320312,0.021394014358520508,0
4.730581283569336,0.02782723680138588,0.1691276729106903,-0.24134688079357147,0.5463515015728136,-0.5940388343725755,-0.4710149909605453,-0.27099895716465344,-0.5359387259697682,0.0,0.0,-0.6,0.0,0.021466970443725586,0.02293539047241211,0.025768756866455078,0
4.760693550109863,0.02782723680138588,0.1691276729106903,-0.24134688079357147,0.5463515015728136,-0.5949879568746933,-0.4828638287327446,-0.2439320681310219,-0.5283174489559642,0.0,0.0,-0.6,0.0,0.015277862548828125,0.016706228256225586,0.021196365356445312,0
4.78602409362793,0.027614077553153038,0.1709323525428772,-0.242262601852417,0.5478129129195204,-0.5951326330987714,-0.4864411232116532,-0.23032300698046207,-0.5204361853016014,0.0,0.0,-0.6,0.0,0.013871908187866211,0.015325784683227539,0.019312143325805664,0
4.807825803756714,0.027614077553153038,0.1709323525428772,-0.242262601852417,0.5478129129195204,-0.595216273637708,-0.49287713521744003,-0.2207924693876196,-0.5144539827190916,0.0,0.0,-0.6,0.0,0.024023056030273438,0.02614879608154297,0.029425382614135742,0
4.841592073440552,0.025606751441955566,0.16973620653152466,-0.24287304282188416,0.5471320955527914,-0.5942748888547088,-0.4931509854185316,-0.24574574459451926,-0.5115095692265231,0.0,0.0,-0.6,0.0,0.013910770416259766,0.015283584594726562,0.01938915252685547,0
4.863195896148682,0.025606751441955566,0.16973620653152466,-0.24287304282188416,0.5471320955527914,-0.5935300560636525,-0.4860737144212376,-0.26322649836824674,-0.5124717507166145,0.0,0.0,-0.6,0.0,0.016638755798339844,0.018134117126464844,0.021504640579223633,0
4.890135049819946,0.023326417431235313,0.16773702204227448,-0.24321869015693665,0.5467666752165615,-0.5925245774646964,-0.4753519961189772,-0.28874854866335714,-0.51386946051121,0.0,0.0,-0.6,0.0,0.014898300170898438,0.016339778900146484,0.0203702449798584,0
4.913928031921387,0.021932832896709442,0.16639770567417145,-0.24359482526779175,0.5474681612686404,-0.5918915112015832,-0.46895454213741283,-0.31059323026208163,-0.5173252139559279,0.0,0.0,-0.6,0.0,0.019663333892822266,0.020978450775146484,0.025127410888671875,0
4.941226482391357,0.021932832896709442,0.16639770567417145,-0.24359482526779175,0.5474681612686404,-0.5914463642858651,-0.4581294776929018,-0.32589342742272553,-0.5217752159581456,0.0,0.0,-0.6,0.0,0.011136054992675781,0.012640237808227539,0.016849040985107422,0
4.961140155792236,0.020820796489715576,0.1658024787902832,-0.2440641224384308,0.5481084886948047,-0.5918224569503797,-0.45864042914552505,-0.32734495524989765,-0.5270023484540697,0.0,0.0,-0.6,0.0,0.014185190200805664,0.015556097030639648,0.020287513732910156,0
4.98683762550354,0.020714761689305305,0.16632044315338135,-0.24433887004852295,0.5473119266716518,-0.5925378706513063,-0.4612466456158454,-0.31556624922440535,-0.5291203118627235,0.0,0.0,-0.6,0.0,0.013202667236328125,0.014596223831176758,0.018589258193969727,0
5.008754730224609,0.020714761689305305,0.16632044315338135,-0.24433887004852295,0.5473119266716518,-0.5930800760215603,-0.46651879588314094,-0.30731366114148306,-0.5283084317236707,0.0,0.0,-0.6,0.0,0.016473054885864258,0.01795506477355957,0.0225067138671875,0
5.036671876907349,0.021118152886629105,0.16792473196983337,-0.24483279883861542,0.5469778344964141,-0.593607789373506,-0.47161866042902606,-0.2929190952595867,-0.5248582260286,0.0,0.0,-0.6,0.0,0.014572381973266602,0.01664257049560547,0.021371126174926758,0
5.060018062591553,0.021118152886629105,0.16792473196983337,-0.24483279883861542,0.5469778344964141,-0.5939807803046402,-0.4793754044725139,-0.28283672138074406,-0.5207491950382612,0.0,0.0,-0.6,0.0,0.011537313461303711,0.013097524642944336,0.01732182502746582,0
5.082396984100342,0.021481268107891083,0.1691509187221527,-0.24532240629196167,0.5469217834352029,-0.5939440504945733,-0.4797448219683557,-0.27679217415036367,-0.5164556629567499,0.0,0.0,-0.6,0.0,0.010389566421508789,0.012017011642456055,0.01654791831970215,0
5.099932432174683,0.021481268107891083,0.1691509187221527,-0.24532240629196167,0.5469217834352029,-0.5939117650441219,-0.48174229942090335,-0.2725592605011395,-0.5135678517379608,0.0,0.0,-0.6,0.0,0.013633251190185547,0.015016794204711914,0.0182955265045166,0
5.122588872909546,0.02152876742184162,0.169422447681427,-0.24564427137374878,0.5470061094094667,-0.5936018223547944,-0.4809817106087176,-0.2763004857653405,-0.5118646939546593,0.0,0.0,-0.6,0.0,0.010843992233276367,0.012297630310058594,0.016886234283447266,0
5.141638517379761,0.02152876742184162,0.169422447681427,-0.24564427137374878,0.5470061094094667,-0.5933636309500168,-0.47934800807846134,-0.27892206866766894,-0.5116672717297087,0.0,0.0,-0.6,0.0,0.022050142288208008,0.023569822311401367,0.027927637100219727,0
5.173523187637329,0.02132466621696949,0.16922613978385925,-0.24599868059158325,0.5469923149053386,-0.5929970799800293,-0.4775422009222128,-0.28687395439916563,-0.5118378971948376,0.0,0.0,-0.6,0.0,0.018808364868164062,0.020199060440063477,0.025853633880615234,0
5.201805114746094,0.02132466621696949,0.16922613978385925,-0.24599868059158325,0.5469923149053386,-0.5927231412570413,-0.47395899460167173,-0.2924444629969421,-0.513133681934198,0.0,0.0,-0.6,0.0,0.018662214279174805,0.020066022872924805,0.023360490798950195,0
5.229145288467407,0.02151607722043991,0.16937004029750824,-0.24642103910446167,0.5473087343005386,-0.5928054237424706,-0.475478093840553,-0.29198581736732643,-0.5148640253356264,0.0,0.0,-0.6,0.0,0.01708364486694336,0.01867222785949707,0.022075891494750977,0
5.255664110183716,0.02151607722043991,0.16937004029750824,-0.24642103910446167,0.5473087343005386,-0.5928574469136888,-0.4766817826272266,-0.29166458266370443,-0.5158108679361895,0.0,0.0,-0.6,0.0,0.01772761344909668,0.01911473274230957,0.023930072784423828,0
5.2824387550354,0.02230721339583397,0.17039579153060913,-0.24671173095703125,0.5470904152996527,-0.5931665534945924,-0.4790508289872695,-0.2822715060667151,-0.5160117725955343,0.0,0.0,-0.6,0.0,0.02168130874633789,0.023040771484375,0.02636408805847168,0
5.311747789382935,0.02230721339583397,0.17039579153060913,-0.24671173095703125,0.5470904152996527,-0.5933901354299705,-0.4834424914131773,-0.27569214796987257,-0.5151605738528131,0.0,0.0,-0.6,0.0,0.022925615310668945,0.024498701095581055,0.02877950668334961,0
5.345351219177246,0.02351667359471321,0.17190353572368622,-0.2470247447490692,0.5469322586515318,-0.593545839773047,-0.4858603318278123,-0.26726835576287233,-0.5135384280470179,0.0,0.0,-0.6,0.0,0.01725912094116211,0.01862812042236328,0.024129390716552734,0
5.369932651519775,0.02351667359471321,0.17190353572368622,-0.2470247447490692,0.5469322586515318,-0.5936479900105516,-0.4899954298416489,-0.26136884490647294,-0.511902824428512,0.0,0.0,-0.6,0.0,0.013184070587158203,0.014662981033325195,0.018944501876831055,0
5.39470648765564,0.024299243465065956,0.17273695766925812,-0.24725322425365448,0.5469690693188567,-0.593572746388671,-0.491286260378674,-0.25825738343747845,-0.5104539325112079,0.0,0.0,-0.6,0.0,0.01618337631225586,0.018342018127441406,0.02374720573425293,0
5.4206223487854,0.024299243465065956,0.17273695766925812,-0.24725322425365448,0.5469690693188567,-0.5935022585965969,-0.49308363329705496,-0.25607890474341166,-0.50968054771981,0.0,0.0,-0.6,0.0,0.018078088760375977,0.019510984420776367,0.023276090621948242,0
5.448347091674805,0.02490491420030594,0.17324338853359222,-0.2474450320005417,0.547028327034429,-0.5933875299368813,-0.494482790226823,-0.2554513722149403,-0.509298439016794,0.0,0.0,-0.6,0.0,0.012903690338134766,0.021402835845947266,0.026926755905151367,0
5.481459140777588,0.02490491420030594,0.17324338853359222,-0.2474450320005417,0.547028327034429,-0.5932850256388226,-0.4956376087163947,-0.25501290848072666,-0.5093989257932244,0.0,0.0,-0.6,0.0,0.013850688934326172,0.021495819091796875,0.030638456344604492,0
5.521709680557251,0.025938237085938454,0.17411921918392181,-0.24768106639385223,0.5470589526394523,-0.5933537984029784,-0.49815324686726514,-0.25016574378413475,-0.50965557286957,0.0,0.0,-0.6,0.0,0.024623394012451172,0.028729915618896484,0.03795742988586426,0
5.566051006317139,0.0270144771784544,0.17505469918251038,-0.24779844284057617,0.5469530417925531,-0.5934890490984711,-0.5005720501861874,-0.24210866587576685,-0.5095084682088215,0.0,0.0,-0.6,0.0,0.02480459213256836,0.029261350631713867,0.038460493087768555,0
5.612343788146973,0.0270144771784544,0.17505469918251038,-0.24779844284057617,0.5469530417925531,-0.5935749769583559,-0.5046026139971718,-0.23646609256079995,-0.5089710778426889,0.0,0.0,-0.6,0.0,0.030759572982788086,0.03445029258728027,0.04540371894836426,0
5.662979602813721,0.02916773222386837,0.17671042680740356,-0.24791319668293,0.546948859869703,-0.5936021758107434,-0.5056489189531133,-0.2294747063226167,-0.5084245470040217,0.0,0.0,-0.6,0.0,0.04364204406738281,0.04774785041809082,0.055127620697021484,0
5.72795295715332,0.02916773222386837,0.17671042680740356,-0.24791319668293,0.546948859869703,-0.5936144350873748,-0.5084036389479314,-0.22457845915822675,-0.5079543228268973,0.0,0.0,-0.6,0.0,0.029450654983520508,0.03053569793701172,0.039275169372558594,0
5.773065090179443,0.0313282385468483,0.17814019322395325,-0.24792687594890594,0.5469649840103501,-0.5937155894849075,-0.510176378410024,-0.215501190304735,-0.5076667843655465,0.0,0.0,-0.6,0.0,0.032105207443237305,0.033959150314331055,0.04840445518493652,0
5.833984613418579,0.0313282385468483,0.17814019322395325,-0.24792687594890594,0.5469649840103501,-0.59378000066372,-0.5140476286347554,-0.20914428126261053,-0.5071404933317238,0.0,0.0,-0.6,0.0,0.024181127548217773,0.028417587280273438,0.039642333984375,0
5.879486799240112,0.03337360545992851,0.17951907217502594,-0.24786162376403809,0.5469160112027794,-0.5938576395844395,-0.5164489093297383,-0.2003792412948794,-0.5065846618821194,0.0,0.0,-0.6,0.0,0.03249025344848633,0.033860206604003906,0.049697160720825195,0
5.931697130203247,0.03447495773434639,0.18018652498722076,-0.2478155940771103,0.5469112311901664,-0.5939109119922794,-0.5195204523465887,-0.19252580546508818,-0.505913556358754,0.0,0.0,-0.6,0.0,0.034430503845214844,0.042181968688964844,0.046881914138793945,0
5.993198871612549,0.03447495773434639,0.18018652498722076,-0.2478155940771103,0.5469112311901664,-0.5939266015356941,-0.5239441367488257,-0.1870261709341228,-0.5052722879778777,0.0,0.0,-0.6,0.0,0.029129743576049805,0.033292293548583984,0.06011700630187988,0
6.052443742752075,0.036572348326444626,0.1814497858285904,-0.24766063690185547,0.5469045040482914,-0.5940073331286371,-0.5265033112053866,-0.17802190835529053,-0.5051729800310282,0.0,0.0,-0.6,0.0,0.027699947357177734,0.028995513916015625,0.032117605209350586,0
6.089372396469116,0.036572348326444626,0.1814497858285904,-0.24766063690185547,0.5469045040482914,-0.5940489710047778,-0.5309036382207047,-0.1717163254564419,-0.5048441059542744,0.0,0.0,-0.6,0.0,0.02356696128845215,0.03351283073425293,0.03686833381652832,0
6.128686189651489,0.03788206726312637,0.18217061460018158,-0.24749305844306946,0.5468976195329547,-0.5940693364875361,-0.5341261095813862,-0.16492428133201542,-0.504597045227735,0.0,0.0,-0.6,0.0,0.027494430541992188,0.028725862503051758,0.03158068656921387,0
6.161626577377319,0.03788206726312637,0.18217061460018158,-0.24749305844306946,0.5468976195329547,-0.5940577876531233,-0.5383476367120288,-0.1601685410455777,-0.5043580512227328,0.0,0.0,-0.6,0.0,0.028562545776367188,0.03113579750061035,0.03454017639160156,0
6.208923578262329,0.038931407034397125,0.18271245062351227,-0.24732276797294617,0.5468430477233927,-0.5940485772633232,-0.54144310930951,-0.15463763974049877,-0.504375381778509,0.0,0.0,-0.6,0.0,0.021539688110351562,0.025853872299194336,0.035405874252319336,0
6.2481207847595215,0.038931407034397125,0.18271245062351227,-0.24732276797294617,0.5468430477233927,-0.5940147864645929,-0.5452092335468874,-0.1507646349917841,-0.5044163473061041,0.0,0.0,-0.6,0.0,0.020270824432373047,0.02493762969970703,0.031339168548583984,0
6.289369344711304,0.04001375287771225,0.1832762360572815,-0.24713043868541718,0.5467950107630736,-0.5939970486916059,-0.5475464964757797,-0.14555917029468055,-0.50474081757822,0.0,0.0,-0.6,0.0,0.03576326370239258,0.036881208419799805,0.04714655876159668,0
6.338524103164673,0.04085692763328552,0.18363553285598755,-0.24693840742111206,0.5467525041954656,-0.5939822806302341,-0.549564910744131,-0.14037239733776397,-0.5051502296481521,0.0,0.0,-0.6,0.0,0.032364845275878906,0.034995317459106445,0.04443192481994629,0
6.390982389450073,0.04085692763328552,0.18363553285598755,-0.24693840742111206,0.5467525041954656,-0.5939532147335769,-0.552477589554375,-0.1367403989282351,-0.5054836998505173,0.0,0.0,-0.6,0.0,0.024379253387451172,0.030331850051879883,0.038804054260253906,0
6.437823057174683,0.04202201962471008,0.18408523499965668,-0.24664174020290375,0.5466751067993354,-0.593941672654454,-0.55379387063465,-0.13178737691476683,-0.506108542400214,0.0,0.0,-0.6,0.0,0.03228330612182617,0.03336310386657715,0.044130563735961914,0
6.47821307182312,0.04202201962471008,0.18408523499965668,-0.24664174020290375,0.5466751067993354,-0.5939211013858449,-0.5561481656371353,-0.12831928789254005,-0.5065825481338782,0.0,0.0,-0.6,0.0,0.03856801986694336,0.03967547416687012,0.04419088363647461,0
6.533183336257935,0.04306793212890625,0.18445664644241333,-0.24632154405117035,0.5466523014280309,-0.593912682849624,-0.5571970582678338,-0.1237510319406621,-0.5072064452778982,0.0,0.0,-0.6,0.0,0.032808542251586914,0.03721189498901367,0.049138545989990234,0
6.590435981750488,0.04368653893470764,0.18465030193328857,-0.2461339682340622,0.5466519862808432,-0.5939050258799831,-0.5582562824649583,-0.11939587308327815,-0.507744025188884,0.0,0.0,-0.6,0.0,0.04129743576049805,0.04239654541015625,0.048799753189086914,0
6.641631603240967,0.04428408667445183,0.18479818105697632,-0.24593332409858704,0.54661927978607,-0.5939001144090452,-0.558913783298738,-0.11493179722626272,-0.5082863378689015,0.0,0.0,-0.6,0.0,0.029588937759399414,0.03067779541015625,0.04414176940917969,0
6.689727783203125,0.04428408667445183,0.18479818105697632,-0.24593332409858704,0.54661927978607,-0.5938903990339006,-0.5606658697092053,-0.11180587546055294,-0.5086816025780254,0.0,0.0,-0.6,0.0,0.027113676071166992,0.028229236602783203,0.03268885612487793,0
6.733907461166382,0.045100726187229156,0.18495282530784607,-0.24564453959465027,0.5466232464162543,-0.5938839282063295,-0.5613866645238974,-0.10802320567301858,-0.5091898276475826,0.0,0.0,-0.6,0.0,0.024756431579589844,0.03302121162414551,0.037099599838256836,0
6.778602838516235,0.045100726187229156,0.18495282530784607,-0.24564453959465027,0.5466232464162543,-0.5938724875665363,-0.5629854349754093,-0.10537440738307809,-0.5095663605953247,0.0,0.0,-0.6,0.0,0.026152610778808594,0.02902507781982422,0.04261422157287598,0
