time,x,y,z,yaw,throttle,roll_rate,pitch_rate,yaw_rate,x_ref,y_ref,z_ref,yaw_ref,pred_time,nr_time,metadata
3.5762786865234375e-06,-0.0625850260257721,-0.008295535109937191,-0.23901668190956116,0.02434201536851675,-0.5642278947857146,0.001039423032396739,-0.020019595937975424,-0.009128255763192572,0.0,0.0,-0.6,0.0,0.010961532592773438,0.012274980545043945,Hardware
0.017800331115722656,-0.0625850260257721,-0.008295535109937191,-0.23901668190956116,0.02434201536851675,-0.5734822968689609,0.0017193214558353172,-0.03311606506445919,-0.015518034797430507,0.0,0.0,-0.6,0.0,0.005516767501831055,0.0065038204193115234,Nonlinear
0.02953481674194336,-0.06248238682746887,-0.008198208175599575,-0.23898077011108398,0.024323432612927708,-0.5807634125863567,0.002176803436665928,-0.04154935997446587,-0.01998391158804865,0.0,0.0,-0.6,0.0,0.0021686553955078125,0.003177642822265625,0OrderHold
0.03686809539794922,-0.062448665499687195,-0.008167232386767864,-0.23896758258342743,0.024368832096849147,-0.5865203488019738,0.0025158584100618366,-0.04606419310337324,-0.023127050147954797,0.0,0.0,-0.6,0.0,0.006146907806396484,0.007136344909667969,QuatYawError
0.04870891571044922,-0.062448665499687195,-0.008167232386767864,-0.23896758258342743,0.024368832096849147,-0.5910587844746333,0.002669750408769057,-0.04844437816714363,-0.025327247139887453,0.0,0.0,-0.6,0.0,0.0010733604431152344,0.0019576549530029297,NoPyJoules
0.055520057678222656,-0.062350139021873474,-0.008100842125713825,-0.23894700407981873,0.024366495232066028,-0.5946173505549641,0.002333806287984073,-0.04998896488378739,-0.02686650870994644,0.0,0.0,-0.6,0.0,0.0016484260559082031,0.002892732620239258,0
0.06355786323547363,-0.062350139021873474,-0.008100842125713825,-0.23894700407981873,0.024366495232066028,-0.5974227540251394,0.0020486224809173133,-0.050572093965980974,-0.027943991808987594,0.0,0.0,-0.6,0.0,0.0014996528625488281,0.002596616744995117,0
0.07246708869934082,-0.06232066452503204,-0.008068740367889404,-0.23894144594669342,0.024473060659300386,-0.5996213432181824,0.002020611733193698,-0.05054101629030528,-0.028738192013528854,0.0,0.0,-0.6,0.0,0.0013973712921142578,0.0026772022247314453,0
0.08220410346984863,-0.062263552099466324,-0.008032497018575668,-0.23895151913166046,0.024645664830432245,-0.6013299446383585,0.0016526911742989789,-0.04965489484254361,-0.029358858720882206,0.0,0.0,-0.6,0.0,0.0015196800231933594,0.0026526451110839844,0
0.09088611602783203,-0.06224692985415459,-0.008001161739230156,-0.238962322473526,0.02457937712675015,-0.6026723623298424,0.0022575346743641624,-0.05015962085406616,-0.029768467527148974,0.0,0.0,-0.6,0.0,0.0015256404876708984,0.0027425289154052734,0
0.10086965560913086,-0.06222505122423172,-0.007975054904818535,-0.2389862835407257,0.024290739838687608,-0.6036910034735767,0.001282170177596339,-0.050483782054052954,-0.029946954708512188,0.0,0.0,-0.6,0.0,0.0016162395477294922,0.0028505325317382812,0
0.11134219169616699,-0.06222505122423172,-0.007975054904818535,-0.2389862835407257,0.024290739838687608,-0.6044942112722084,0.0005962314579058347,-0.050569621671516025,-0.030071895735466477,0.0,0.0,-0.6,0.0,0.0012960433959960938,0.0025534629821777344,0
0.12096357345581055,-0.06218021363019943,-0.007918979972600937,-0.2390572428703308,0.024180111048793276,-0.6051446555077121,0.0005278056073529398,-0.04765107387260469,-0.030117868658123985,0.0,0.0,-0.6,0.0,0.0015902519226074219,0.0026700496673583984,0
0.13039898872375488,-0.062085047364234924,-0.007890095002949238,-0.2391090840101242,0.024428955556605413,-0.6056328107929055,3.833189542979472e-05,-0.0419399267692442,-0.0302433663944138,0.0,0.0,-0.6,0.0,0.0016601085662841797,0.0029497146606445312,0
0.14040374755859375,-0.06196849048137665,-0.007869602181017399,-0.23914717137813568,0.02479641286013636,-0.6059878511790241,-0.00011783300842543228,-0.0362632556121929,-0.030469011298640766,0.0,0.0,-0.6,0.0,0.0013277530670166016,0.0025908946990966797,0
0.15068507194519043,-0.06183391064405441,-0.007864258252084255,-0.23920664191246033,0.025023427313219975,-0.6062571594456788,0.0007552546351769448,-0.03281082882381218,-0.030712093151506206,0.0,0.0,-0.6,0.0,0.0013210773468017578,0.002527475357055664,0
0.16066908836364746,-0.06176143139600754,-0.007868305779993534,-0.23925985395908356,0.02498260646342953,-0.6064480653049742,0.003901349225465102,-0.03083076013381552,-0.030866942629840462,0.0,0.0,-0.6,0.0,0.001428842544555664,0.002678394317626953,0
0.17080903053283691,-0.06159883737564087,-0.007892233319580555,-0.23937329649925232,0.024869124786890587,-0.6064795622057807,0.006958892475136312,-0.027321900110384267,-0.030932781635972344,0.0,0.0,-0.6,0.0,0.001676797866821289,0.0028502941131591797,0
0.18054485321044922,-0.06141624599695206,-0.007944304496049881,-0.23955149948596954,0.024867263108229176,-0.6063223100442777,0.012119549987705903,-0.02137671989599281,-0.030978170810766575,0.0,0.0,-0.6,0.0,0.0017290115356445312,0.003056764602661133,0
0.19041037559509277,-0.06101228669285774,-0.008156775496900082,-0.24008683860301971,0.02588915177373838,-0.6058737681343688,0.019412542796531443,-0.00537873286933967,-0.03139315148268826,0.0,0.0,-0.6,0.0,0.0019788742065429688,0.0033042430877685547,0
0.20045018196105957,-0.060745224356651306,-0.008317842148244381,-0.24050909280776978,0.026687873414365005,-0.6053493673726628,0.02762479081346675,0.009521674009618921,-0.031983158568269096,0.0,0.0,-0.6,0.0,0.0013756752014160156,0.002671957015991211,0
0.2127370834350586,-0.06044313684105873,-0.008524301461875439,-0.24104902148246765,0.02754421692858983,-0.6047030684420335,0.03629515943649335,0.0250157972429288,-0.0327172923460101,0.0,0.0,-0.6,0.0,0.0014405250549316406,0.0026581287384033203,0
0.22138071060180664,-0.06044313684105873,-0.008524301461875439,-0.24104902148246765,0.02754421692858983,-0.6041854731443997,0.04227286524066681,0.035607245554986316,-0.033231185990427965,0.0,0.0,-0.6,0.0,0.0014002323150634766,0.002493143081665039,0
0.23067212104797363,-0.059808164834976196,-0.008991391398012638,-0.24232259392738342,0.02968924083647172,-0.6033888514886901,0.04912083279000866,0.048988130936292236,-0.03439529550697581,0.0,0.0,-0.6,0.0,0.0016012191772460938,0.0027675628662109375,0
0.24125289916992188,-0.05944981426000595,-0.009277486242353916,-0.2432187795639038,0.03079449028076993,-0.602433082120392,0.05639993327410041,0.06189525327977005,-0.035624640710171095,0.0,0.0,-0.6,0.0,0.0016429424285888672,0.002696990966796875,0
0.25023317337036133,-0.05910484492778778,-0.009586132131516933,-0.24428614974021912,0.03210710776872079,-0.6012978904936648,0.06263271754775113,0.0759964995518769,-0.0369774139103893,0.0,0.0,-0.6,0.0,0.0017466545104980469,0.0030107498168945312,0
0.26215147972106934,-0.058765728026628494,-0.009901830926537514,-0.24552562832832336,0.03333904666615852,-0.6000122116867257,0.06785303113388613,0.09010271589978568,-0.038386332237081155,0.0,0.0,-0.6,0.0,0.0026247501373291016,0.004874229431152344,0
0.2759673595428467,-0.058765728026628494,-0.009901830926537514,-0.24552562832832336,0.03333904666615852,-0.5989955922909348,0.07149251292033466,0.09965142439237856,-0.0393725750657657,0.0,0.0,-0.6,0.0,0.0023021697998046875,0.003670215606689453,0
0.2880980968475342,-0.05808068811893463,-0.010556361638009548,-0.24850423634052277,0.036498858677631155,-0.5974615570841354,0.07554926849412294,0.11622379323403806,-0.041247874550145794,0.0,0.0,-0.6,0.0,0.002651214599609375,0.005191802978515625,0
0.3011317253112793,-0.05808068811893463,-0.010556361638009548,-0.24850423634052277,0.036498858677631155,-0.5962485306424072,0.07840893067765123,0.12742229341140848,-0.04256058418921357,0.0,0.0,-0.6,0.0,0.0024008750915527344,0.004487276077270508,0
0.3169078826904297,-0.05700709670782089,-0.011697504669427872,-0.25414106249809265,0.04170236894861214,-0.5943191066853409,0.0839881303121894,0.14552519790670201,-0.04543079728817618,0.0,0.0,-0.6,0.0,0.0026397705078125,0.004973411560058594,0
0.32947683334350586,-0.05700709670782089,-0.011697504669427872,-0.25414106249809265,0.04170236894861214,-0.592795138886569,0.08791835024090833,0.15771035776579181,-0.047439946457450866,0.0,0.0,-0.6,0.0,0.0024824142456054688,0.003954172134399414,0
0.34265971183776855,-0.055792249739170074,-0.012890934012830257,-0.2612113058567047,0.0474945869484243,-0.590563496282103,0.08546777077026427,0.17439004660086754,-0.05101843262587114,0.0,0.0,-0.6,0.0,0.0026421546936035156,0.004923343658447266,0
0.3557288646697998,-0.055792249739170074,-0.012890934012830257,-0.2612113058567047,0.0474945869484243,-0.5887974665135615,0.08397830925436209,0.18554565605459306,-0.053523372943766405,0.0,0.0,-0.6,0.0,0.00186920166015625,0.0036902427673339844,0
0.36843299865722656,-0.05442197993397713,-0.014139896258711815,-0.26978835463523865,0.053848741823177705,-0.5861749299748479,0.07916102885722162,0.19963281094414645,-0.05765963924432399,0.0,0.0,-0.6,0.0,0.002711057662963867,0.0050640106201171875,0
0.38282132148742676,-0.05442197993397713,-0.014139896258711815,-0.26978835463523865,0.053848741823177705,-0.5840983571471673,0.07616439487118433,0.20898888772433663,-0.06055502565471805,0.0,0.0,-0.6,0.0,0.0018248558044433594,0.003274202346801758,0
0.39352941513061523,-0.05346653610467911,-0.015109892934560776,-0.27626460790634155,0.05809580904179697,-0.5816743498684395,0.0746741154522197,0.21883615822959077,-0.06417444634897287,0.0,0.0,-0.6,0.0,0.0020444393157958984,0.0040130615234375,0
0.40766263008117676,-0.05298696085810661,-0.015611850656569004,-0.27974000573158264,0.06048222178685326,-0.579624665591795,0.07245089344517858,0.2253695377000955,-0.06760294561435053,0.0,0.0,-0.6,0.0,0.0026280879974365234,0.005031108856201172,0
0.4219090938568115,-0.05298696085810661,-0.015611850656569004,-0.27974000573158264,0.06048222178685326,-0.5780032045501273,0.07120374665436782,0.2297081150046551,-0.07000289510011502,0.0,0.0,-0.6,0.0,0.0024182796478271484,0.004612445831298828,0
0.4374508857727051,-0.051455143839120865,-0.017294710502028465,-0.2908358871936798,0.0676303283494446,-0.5757282756850125,0.07177878144847352,0.23657095867594674,-0.07436339970112166,0.0,0.0,-0.6,0.0,0.00255584716796875,0.0049326419830322266,0
0.45111751556396484,-0.051455143839120865,-0.017294710502028465,-0.2908358871936798,0.0676303283494446,-0.5739302485175418,0.07248966949143101,0.24117448768900768,-0.07741575292183707,0.0,0.0,-0.6,0.0,0.002742767333984375,0.00487828254699707,0
0.46602869033813477,-0.04965595528483391,-0.019261272624135017,-0.303715318441391,0.07519795932160421,-0.571675826102877,0.08305510213878833,0.24843577529049732,-0.08239026179088686,0.0,0.0,-0.6,0.0,0.002602815628051758,0.005056619644165039,0
0.47988390922546387,-0.04965595528483391,-0.019261272624135017,-0.303715318441391,0.07519795932160421,-0.5699011290989512,0.09061250149071298,0.25341422719393375,-0.0858724179992189,0.0,0.0,-0.6,0.0,0.002516508102416992,0.0044820308685302734,0
0.49294424057006836,-0.048272404819726944,-0.020798854529857635,-0.3130984902381897,0.0810931733541136,-0.5678328516447427,0.10130074514724471,0.2582374896219287,-0.09052063260724118,0.0,0.0,-0.6,0.0,0.0026226043701171875,0.004761457443237305,0
0.5062301158905029,-0.048272404819726944,-0.020798854529857635,-0.3130984902381897,0.0810931733541136,-0.5662049886886863,0.10897489135216402,0.26161910526382404,-0.09377438283285816,0.0,0.0,-0.6,0.0,0.002514362335205078,0.005056619644165039,0
0.5226750373840332,-0.0456426665186882,-0.02350550889968872,-0.3297968804836273,0.09012438016390406,-0.5639620931451743,0.106344051267853,0.2607587357381105,-0.09943871054447873,0.0,0.0,-0.6,0.0,0.002510547637939453,0.004899740219116211,0
0.5365369319915771,-0.0456426665186882,-0.02350550889968872,-0.3297968804836273,0.09012438016390406,-0.562174456997452,0.10508983095147018,0.26030916767532597,-0.10340373994260893,0.0,0.0,-0.6,0.0,0.002260923385620117,0.0044269561767578125,0
0.5515749454498291,-0.044058769941329956,-0.02515690214931965,-0.33907684683799744,0.09444905138239952,-0.5603817648589995,0.10059568181185913,0.25733993349629974,-0.1078010122282293,0.0,0.0,-0.6,0.0,0.009259223937988281,0.011675596237182617,0
0.5744075775146484,-0.0418265275657177,-0.02750730700790882,-0.35210418701171875,0.10132183313829606,-0.5584049257100628,0.1004651153103838,0.25559178320383846,-0.11345639598662569,0.0,0.0,-0.6,0.0,0.0013949871063232422,0.002366304397583008,0
0.586167573928833,-0.0418265275657177,-0.02750730700790882,-0.35210418701171875,0.10132183313829606,-0.5568290888454713,0.10089241662673525,0.254584448785659,-0.11741516461750191,0.0,0.0,-0.6,0.0,0.0014657974243164062,0.002446889877319336,0
0.5940108299255371,-0.040290363132953644,-0.02916192077100277,-0.3604643940925598,0.10578540490736346,-0.5553264855880129,0.10629591409130801,0.25647484282304756,-0.12186014207252362,0.0,0.0,-0.6,0.0,0.0011775493621826172,0.002101421356201172,0
0.599799394607544,-0.040290363132953644,-0.02916192077100277,-0.3604643940925598,0.10578540490736346,-0.5541393195260917,0.11040218674991754,0.2579415590374672,-0.12497162629102472,0.0,0.0,-0.6,0.0,0.001081705093383789,0.0020020008087158203,0
0.6112983226776123,-0.038513749837875366,-0.031028393656015396,-0.37008407711982727,0.10979760408932064,-0.5528899512684448,0.10936258724097851,0.2549504502432873,-0.12865423993720887,0.0,0.0,-0.6,0.0,0.0012621879577636719,0.002128124237060547,0
0.6199867725372314,-0.037619564682245255,-0.03194800019264221,-0.37491095066070557,0.11180264411160935,-0.5517151264622493,0.10779848986356277,0.25116274783714043,-0.1319839594978964,0.0,0.0,-0.6,0.0,0.00133514404296875,0.0023632049560546875,0
0.6300151348114014,-0.03698619455099106,-0.03266557306051254,-0.37861403822898865,0.11422864211430458,-0.550671201289849,0.10357491809920624,0.2462597803031859,-0.13522451244138847,0.0,0.0,-0.6,0.0,0.0010488033294677734,0.002011537551879883,0
0.6399848461151123,-0.03610639646649361,-0.033594559878110886,-0.38345885276794434,0.11626468500271257,-0.5497272561789307,0.10143062231233838,0.2415126890788919,-0.1382564155849861,0.0,0.0,-0.6,0.0,0.00121307373046875,0.002237081527709961,0
0.6499783992767334,-0.035228181630373,-0.03452398627996445,-0.3882961869239807,0.11840024238285068,-0.5488933568517632,0.1017311701211265,0.23607788153983972,-0.14117958180305637,0.0,0.0,-0.6,0.0,0.0011377334594726562,0.002166271209716797,0
0.6600539684295654,-0.03410208225250244,-0.035641156136989594,-0.3943631052970886,0.12179480484834312,-0.5481255251818113,0.09428606122777657,0.2288565821276441,-0.1444987590802648,0.0,0.0,-0.6,0.0,0.001425027847290039,0.0023756027221679688,0
0.6699106693267822,-0.03323991596698761,-0.03659642115235329,-0.39919188618659973,0.12388161509649509,-0.5473093033875303,0.09033227635029417,0.2226217176552355,-0.1476047370173679,0.0,0.0,-0.6,0.0,0.002162456512451172,0.0032563209533691406,0
0.6804509162902832,-0.032390303909778595,-0.03755222260951996,-0.40403130650520325,0.1260148574916923,-0.546480270772851,0.09009586079596656,0.21465614632330637,-0.15057888747153916,0.0,0.0,-0.6,0.0,0.0012187957763671875,0.002215862274169922,0
0.6899676322937012,-0.03155514597892761,-0.03850655257701874,-0.40885308384895325,0.12835004424170807,-0.5457620761484618,0.08994753972717039,0.2050377617534248,-0.153536487820715,0.0,0.0,-0.6,0.0,0.0014727115631103516,0.002475738525390625,0
0.7002530097961426,-0.030734609812498093,-0.03947421908378601,-0.41365793347358704,0.13072075769468872,-0.5451378548812967,0.0903614447010525,0.19352445017495556,-0.1564958256100058,0.0,0.0,-0.6,0.0,0.001119852066040039,0.0020897388458251953,0
0.7112598419189453,-0.029908131808042526,-0.04044151306152344,-0.41843846440315247,0.13265500397867216,-0.5446258132104812,0.08958382185223536,0.18216107831564987,-0.15929270441900334,0.0,0.0,-0.6,0.0,0.001428842544555664,0.0023488998413085938,0
0.7199602127075195,-0.029083723202347755,-0.041419532150030136,-0.42318159341812134,0.13500059671860062,-0.5441834027393765,0.08646369783900383,0.17045568536734837,-0.16213011686277473,0.0,0.0,-0.6,0.0,0.0014526844024658203,0.002512693405151367,0
0.7298731803894043,-0.02826348878443241,-0.0424131415784359,-0.4279022216796875,0.13727787477167191,-0.5437642097601467,0.08186256623257805,0.15946951635126863,-0.16497028484331644,0.0,0.0,-0.6,0.0,0.0012772083282470703,0.0023262500762939453,0
0.739948034286499,-0.027437888085842133,-0.043406445533037186,-0.4326010048389435,0.1391949284343683,-0.54326278668378,0.07796263684383475,0.1510160489624052,-0.1676772975532069,0.0,0.0,-0.6,0.0,0.0011737346649169922,0.0022983551025390625,0
0.7498981952667236,-0.026615174487233162,-0.04440893605351448,-0.4372813403606415,0.14141052772926227,-0.5427880500886871,0.0754069689852285,0.14268992404606817,-0.17040305618571547,0.0,0.0,-0.6,0.0,0.0010895729064941406,0.0021271705627441406,0
0.759904146194458,-0.025808673352003098,-0.04542090743780136,-0.4419075548648834,0.14347458392092846,-0.5423217727331319,0.07445775307513408,0.13476340239342544,-0.17308510830034632,0.0,0.0,-0.6,0.0,0.001316070556640625,0.0022950172424316406,0
0.7706336975097656,-0.02502037025988102,-0.04643836244940758,-0.446510374546051,0.14523679957693877,-0.5418354413446818,0.07618152268435935,0.125716307874749,-0.17562337565159192,0.0,0.0,-0.6,0.0,0.0011777877807617188,0.0021593570709228516,0
0.7799596786499023,-0.024239065125584602,-0.04744888097047806,-0.4510674476623535,0.14725073452153334,-0.5414756379483893,0.07698680688880166,0.116513441241286,-0.17815538840168682,0.0,0.0,-0.6,0.0,0.0016508102416992188,0.002686738967895508,0
0.7899253368377686,-0.02344622276723385,-0.04846211150288582,-0.45568472146987915,0.14931590271022346,-0.5411780433201224,0.07734325797276763,0.10687678508348564,-0.18070223539751204,0.0,0.0,-0.6,0.0,0.0014083385467529297,0.002356290817260742,0
0.7998921871185303,-0.02268066443502903,-0.04944392293691635,-0.46017974615097046,0.15132358719989455,-0.5408795256430653,0.07777055256017558,0.0963372847307322,-0.18323790997821635,0.0,0.0,-0.6,0.0,0.0015590190887451172,0.0025501251220703125,0
0.8110451698303223,-0.021932514384388924,-0.050421398133039474,-0.46465396881103516,0.152960972817482,-0.540641837902711,0.07596986755148134,0.08772377120945263,-0.1856269017913048,0.0,0.0,-0.6,0.0,0.0013604164123535156,0.0023453235626220703,0
0.8199095726013184,-0.02120782807469368,-0.0513986237347126,-0.4691123366355896,0.15477371368533607,-0.5402928221487494,0.07605984441000145,0.08115571385426781,-0.18797897388591203,0.0,0.0,-0.6,0.0,0.0011968612670898438,0.002179861068725586,0
0.8308107852935791,-0.02029283344745636,-0.05260021612048149,-0.47466516494750977,0.1569552702780102,-0.5398935279637883,0.07234350690134884,0.07220361272913034,-0.19044350807438978,0.0,0.0,-0.6,0.0,0.0011217594146728516,0.0021238327026367188,0
0.8399524688720703,-0.01963522844016552,-0.053543273359537125,-0.4790668189525604,0.15835558397548993,-0.5394014934984999,0.07310271637052741,0.06409149733025539,-0.19269379964287933,0.0,0.0,-0.6,0.0,0.001399993896484375,0.0024008750915527344,0
0.8499927520751953,-0.018997693434357643,-0.05445669963955879,-0.4834473729133606,0.15977806253059038,-0.5389807064880437,0.0730044352121386,0.056057407665346164,-0.19480243319898483,0.0,0.0,-0.6,0.0,0.001554250717163086,0.0026230812072753906,0
0.8608486652374268,-0.01820576749742031,-0.05555644631385803,-0.48893991112709045,0.16214300081687055,-0.5386123441370411,0.06892664502816094,0.04692901224188343,-0.19716532854561347,0.0,0.0,-0.6,0.0,0.0014193058013916016,0.0023908615112304688,0
0.8700225353240967,-0.01820576749742031,-0.05555644631385803,-0.48893991112709045,0.16214300081687055,-0.5383053516552896,0.06629343732235017,0.040739312566058186,-0.19881935528825423,0.0,0.0,-0.6,0.0,0.0012259483337402344,0.0021431446075439453,0
0.8800749778747559,-0.017640598118305206,-0.05646408349275589,-0.4932820498943329,0.1634931509188013,-0.538006805281306,0.06267361802732815,0.03641921663600014,-0.2004834802963268,0.0,0.0,-0.6,0.0,0.0015575885772705078,0.002553224563598633,0
0.8899788856506348,-0.01709430292248726,-0.05735573172569275,-0.49762195348739624,0.16482768298623013,-0.5376402288845139,0.05998352256940511,0.031180712081016,-0.2021488173272634,0.0,0.0,-0.6,0.0,0.0011973381042480469,0.0020945072174072266,0
0.9000301361083984,-0.016576286405324936,-0.05824226513504982,-0.5019419193267822,0.166132830657159,-0.5373469142423118,0.05545583360571483,0.023443658024647172,-0.20380398362551733,0.0,0.0,-0.6,0.0,0.0013408660888671875,0.0022649765014648438,0
0.9105226993560791,-0.015785349532961845,-0.059795279055833817,-0.5093996524810791,0.16881456741847056,-0.5369963976509693,0.048473085727396115,0.011755619161786078,-0.20596825131978644,0.0,0.0,-0.6,0.0,0.0013649463653564453,0.002364635467529297,0
0.9199609756469727,-0.015785349532961845,-0.059795279055833817,-0.5093996524810791,0.16881456741847056,-0.5366993999673821,0.0438490618284809,0.003807757920381516,-0.20748323870577545,0.0,0.0,-0.6,0.0,0.0012383460998535156,0.0023374557495117188,0
0.9302935600280762,-0.014912258833646774,-0.06148757040500641,-0.5178171396255493,0.1713586250482917,-0.5363913978901217,0.04061370099510503,-0.0038382491343603737,-0.2094977514871502,0.0,0.0,-0.6,0.0,0.001102447509765625,0.0021393299102783203,0
0.9399294853210449,-0.01461070403456688,-0.06213349476456642,-0.5209079384803772,0.17285913118641658,-0.5362363931015319,0.03451127884711782,-0.012074112353634543,-0.21147060023590938,0.0,0.0,-0.6,0.0,0.0011293888092041016,0.0021986961364746094,0
0.9498758316040039,-0.014226561412215233,-0.06291215866804123,-0.5249975323677063,0.17403457614476192,-0.5360214161651701,0.028878504960114706,-0.019844644201411334,-0.21329238621942048,0.0,0.0,-0.6,0.0,0.0011937618255615234,0.002215147018432617,0
0.9601943492889404,-0.013862974010407925,-0.06368185579776764,-0.529055118560791,0.17519770551489092,-0.5358210708397098,0.02415572241836681,-0.028519823221760346,-0.21500380992167673,0.0,0.0,-0.6,0.0,0.001123666763305664,0.002041339874267578,0
0.9699976444244385,-0.01352614164352417,-0.06443972140550613,-0.5330772399902344,0.17637629171541228,-0.53569079756158,0.019354960131226714,-0.03687923271099748,-0.21664377633845167,0.0,0.0,-0.6,0.0,0.0013575553894042969,0.002249002456665039,0
0.9799904823303223,-0.013317513279616833,-0.06501325219869614,-0.5360592603683472,0.17775336968082397,-0.535529144587248,0.014775761564452056,-0.04000895248625858,-0.21830815706722348,0.0,0.0,-0.6,0.0,0.0012176036834716797,0.002196788787841797,0
0.9899642467498779,-0.013018354773521423,-0.06573471426963806,-0.5400081276893616,0.17892924500835175,-0.5354244026345498,0.010840578043251415,-0.043033473588953944,-0.21991417682518674,0.0,0.0,-0.6,0.0,0.001216888427734375,0.0022439956665039062,0
0.9999690055847168,-0.01274658553302288,-0.06643297523260117,-0.543904721736908,0.18004379207001922,-0.535426648780125,0.006667062396427564,-0.04704198385487306,-0.2214563458038864,0.0,0.0,-0.6,0.0,0.0013387203216552734,0.002373218536376953,0
1.0112833976745605,-0.01249399222433567,-0.06712966412305832,-0.5478002429008484,0.18108441752821208,-0.5354457653934884,0.003013106167638434,-0.05161081124975821,-0.22292609863579854,0.0,0.0,-0.6,0.0,0.0015692710876464844,0.0025315284729003906,0
1.0206167697906494,-0.012148178182542324,-0.06832674145698547,-0.5543956756591797,0.18342997119746277,-0.5354841586047762,-0.003326034231867273,-0.055118360852141064,-0.22483450824410559,0.0,0.0,-0.6,0.0,0.0014712810516357422,0.0024809837341308594,0
1.0305697917938232,-0.011976678855717182,-0.06897497922182083,-0.5580922961235046,0.18447185726363244,-0.5355804646683398,-0.008864503310104785,-0.057986733672521704,-0.22656110224473436,0.0,0.0,-0.6,0.0,0.0013053417205810547,0.0022368431091308594,0
1.0399718284606934,-0.011976678855717182,-0.06897497922182083,-0.5580922961235046,0.18447185726363244,-0.5356513855850639,-0.012689340283803172,-0.05995043551719257,-0.22776971804517498,0.0,0.0,-0.6,0.0,0.001875162124633789,0.0029718875885009766,0
1.049912929534912,-0.011783963069319725,-0.06971029192209244,-0.5626587867736816,0.18618213566473302,-0.5357215937053774,-0.019848785543023873,-0.06271452666997472,-0.22925710350589587,0.0,0.0,-0.6,0.0,0.001371145248413086,0.002447843551635742,0
1.059915542602539,-0.011680026538670063,-0.07032507658004761,-0.5662344694137573,0.18717406706288864,-0.5356899955972066,-0.025278164470085282,-0.06389563410589862,-0.23067024760270893,0.0,0.0,-0.6,0.0,0.0010988712310791016,0.0020723342895507812,0
1.069934606552124,-0.01157980877906084,-0.07092287391424179,-0.5697530508041382,0.18806361984275288,-0.5356536624512863,-0.02997835829415019,-0.06303865854801416,-0.23199303076292727,0.0,0.0,-0.6,0.0,0.0018491744995117188,0.002879619598388672,0
1.080028772354126,-0.011500292457640171,-0.0715213268995285,-0.5732477903366089,0.18905677381906963,-0.5355715872413548,-0.03316850001194384,-0.06011093267005306,-0.2332914117161989,0.0,0.0,-0.6,0.0,0.0016036033630371094,0.0026297569274902344,0
1.0899434089660645,-0.011473854072391987,-0.07210349291563034,-0.5766392946243286,0.18999558658738902,-0.5355097615623453,-0.032900223210098584,-0.05880568148388571,-0.23455233317160887,0.0,0.0,-0.6,0.0,0.001222372055053711,0.0022301673889160156,0
1.1000251770019531,-0.011486159637570381,-0.07265160232782364,-0.5799785852432251,0.19080408768563528,-0.5355892934948203,-0.0333548999015136,-0.05840591861090705,-0.23573816610223824,0.0,0.0,-0.6,0.0,0.0016694068908691406,0.0027425289154052734,0
1.1113555431365967,-0.011525524780154228,-0.07319219410419464,-0.5832838416099548,0.19173252222890108,-0.5356678620115813,-0.03241895503955788,-0.05841164006146505,-0.2369164121074035,0.0,0.0,-0.6,0.0,0.0012776851654052734,0.0022721290588378906,0
1.1199252605438232,-0.01159399189054966,-0.07370872795581818,-0.5865353941917419,0.1926763130104006,-0.5358207167972912,-0.034500424565551024,-0.061471072412793024,-0.2380951058540815,0.0,0.0,-0.6,0.0,0.001489400863647461,0.002471923828125,0
1.1299684047698975,-0.011686318553984165,-0.07421012967824936,-0.5897530913352966,0.19343630024421649,-0.535981104912413,-0.03832954871257416,-0.06357637195439907,-0.23920518668943713,0.0,0.0,-0.6,0.0,0.0013959407806396484,0.0024836063385009766,0
1.1399345397949219,-0.011802141554653645,-0.07468699663877487,-0.5929243564605713,0.1942960647102757,-0.5360986684012266,-0.04205292599771751,-0.06461530671082885,-0.24030465494895828,0.0,0.0,-0.6,0.0,0.0017499923706054688,0.0028171539306640625,0
1.1499090194702148,-0.01194728072732687,-0.07516058534383774,-0.5960457921028137,0.19505551095363907,-0.5362132466057736,-0.04528500258563685,-0.06280961627744765,-0.2413590750718844,0.0,0.0,-0.6,0.0,0.0012395381927490234,0.0022835731506347656,0
1.159949779510498,-0.012133834883570671,-0.07562032341957092,-0.5991247296333313,0.19570611343013902,-0.5362379074577481,-0.04679305210909654,-0.05904767959797459,-0.24234114508662022,0.0,0.0,-0.6,0.0,0.0011141300201416016,0.0020487308502197266,0
1.1699533462524414,-0.012354833073914051,-0.0760585367679596,-0.6021569967269897,0.19640005851171333,-0.5362647902920054,-0.046890487266932006,-0.054389426192265715,-0.24328882350252568,0.0,0.0,-0.6,0.0,0.0018963813781738281,0.002982616424560547,0
1.1799185276031494,-0.01259589847177267,-0.07648354023694992,-0.6051523685455322,0.1971779999707729,-0.536310895779739,-0.04656363474221046,-0.051978874010888826,-0.24424392644080684,0.0,0.0,-0.6,0.0,0.001168966293334961,0.002165079116821289,0
1.189910650253296,-0.012857764959335327,-0.07688143849372864,-0.6081022024154663,0.19782061151302285,-0.5364232661872281,-0.047563668490637805,-0.05264589054619923,-0.24515347782594743,0.0,0.0,-0.6,0.0,0.0011379718780517578,0.002043008804321289,0
1.2001352310180664,-0.013146547600626945,-0.07725115120410919,-0.6110047698020935,0.19854627680611797,-0.5365535186813206,-0.049482536927222,-0.05679955511955089,-0.24606228828045654,0.0,0.0,-0.6,0.0,0.001207590103149414,0.0022652149200439453,0
1.2111804485321045,-0.013457389548420906,-0.07759250700473785,-0.613856315612793,0.1992643117060997,-0.5367238275340152,-0.050411924347063826,-0.06110081741312961,-0.24696771868610606,0.0,0.0,-0.6,0.0,0.0013988018035888672,0.0023670196533203125,0
1.2199227809906006,-0.01379542239010334,-0.07792015373706818,-0.6166647672653198,0.19982401858435433,-0.5368711773941925,-0.050796369420813,-0.06352274842836378,-0.24781141004940627,0.0,0.0,-0.6,0.0,0.001226663589477539,0.002289295196533203,0
1.2299132347106934,-0.01413773000240326,-0.07822427153587341,-0.6194319128990173,0.20066191617867013,-0.5370253916601129,-0.05176914206606945,-0.0626784198081979,-0.24871620560158478,0.0,0.0,-0.6,0.0,0.0014195442199707031,0.0024263858795166016,0
1.2399547100067139,-0.014499595388770103,-0.07852240651845932,-0.6221928596496582,0.20142082894150734,-0.5371924044036742,-0.05280767108555707,-0.059790569159340216,-0.24963415477417367,0.0,0.0,-0.6,0.0,0.0016608238220214844,0.002714395523071289,0
1.2498555183410645,-0.014895007014274597,-0.07880985736846924,-0.6248639225959778,0.20202629185445248,-0.537376727322136,-0.05485165949700718,-0.057019029817625605,-0.25050376778734035,0.0,0.0,-0.6,0.0,0.0013239383697509766,0.0024156570434570312,0
1.2599353790283203,-0.015392444096505642,-0.07915837317705154,-0.6281490921974182,0.20281860997276785,-0.5374719534941171,-0.051557700898220545,-0.053825207682443296,-0.2514096161909253,0.0,0.0,-0.6,0.0,0.0012123584747314453,0.002250194549560547,0
1.2699270248413086,-0.015797873958945274,-0.07939527928829193,-0.6307286024093628,0.20334539513217945,-0.5376440227318603,-0.049153878270051396,-0.05430842227571075,-0.2522412545082257,0.0,0.0,-0.6,0.0,0.0011372566223144531,0.0020132064819335938,0
1.2812049388885498,-0.016206612810492516,-0.07961664348840714,-0.6332695484161377,0.20384373139246234,-0.537841407262339,-0.04985348891074139,-0.05607678791288863,-0.2530102774279199,0.0,0.0,-0.6,0.0,0.001268625259399414,0.00218963623046875,0
1.2909328937530518,-0.01661774516105652,-0.07981529086828232,-0.6357826590538025,0.20429640432957602,-0.5380168298506481,-0.05216096115823429,-0.05758169105289987,-0.25371834582313424,0.0,0.0,-0.6,0.0,0.0012965202331542969,0.002269268035888672,0
1.3000261783599854,-0.016990097239613533,-0.08000226318836212,-0.6376239657402039,0.20481358206495756,-0.5381584990049252,-0.05037639745898048,-0.05600665506227374,-0.25440793535055234,0.0,0.0,-0.6,0.0,0.0011217594146728516,0.002035379409790039,0
1.3114280700683594,-0.01741667278110981,-0.08017776161432266,-0.640040934085846,0.2052169792188394,-0.5382918857936032,-0.04727656434759652,-0.05356216963300518,-0.2550419219524508,0.0,0.0,-0.6,0.0,0.0013010501861572266,0.002209901809692383,0
1.3200733661651611,-0.017850680276751518,-0.08034192770719528,-0.6424383521080017,0.20561702901949622,-0.5384457959453967,-0.04584487932593932,-0.05030024089223545,-0.25563573124902605,0.0,0.0,-0.6,0.0,0.0011005401611328125,0.0020613670349121094,0
1.330113172531128,-0.01829712651669979,-0.08048910647630692,-0.6448166966438293,0.20593881842909267,-0.5385520631677941,-0.046141574822424855,-0.04692687782805941,-0.2561720687852349,0.0,0.0,-0.6,0.0,0.0017931461334228516,0.002768278121948242,0
1.3399958610534668,-0.018683498725295067,-0.08062004297971725,-0.6465845108032227,0.2063727487591465,-0.5386285383511079,-0.04481753799417807,-0.04790254706503273,-0.2567102289343513,0.0,0.0,-0.6,0.0,0.0011131763458251953,0.0020160675048828125,0
1.3500721454620361,-0.01915348321199417,-0.0807364210486412,-0.6488921642303467,0.20663951071386005,-0.5387550365261364,-0.04565732626371154,-0.0463819936437236,-0.2571869767717363,0.0,0.0,-0.6,0.0,0.0011632442474365234,0.002099752426147461,0
1.3600268363952637,-0.019635023549199104,-0.08083304017782211,-0.6511874794960022,0.2069567691833854,-0.5388633110173153,-0.04558033936154586,-0.04233758654768808,-0.2576396721839845,0.0,0.0,-0.6,0.0,0.0013585090637207031,0.002338409423828125,0
1.3706848621368408,-0.020499760285019875,-0.08094727993011475,-0.6550526022911072,0.20751524900821278,-0.5389772326271643,-0.04486699559843142,-0.039193629516803004,-0.25816598890686104,0.0,0.0,-0.6,0.0,0.0011718273162841797,0.0020999908447265625,0
1.3800740242004395,-0.021007027477025986,-0.08100001513957977,-0.6572231650352478,0.20773442707750306,-0.5390578953702693,-0.04395742984903766,-0.034902348398199404,-0.2586166023888659,0.0,0.0,-0.6,0.0,0.00106048583984375,0.0019481182098388672,0
1.390000581741333,-0.021007027477025986,-0.08100001513957977,-0.6572231650352478,0.20773442707750306,-0.5391186367076357,-0.043355597810681414,-0.03194794072423828,-0.2589320318262695,0.0,0.0,-0.6,0.0,0.0014007091522216797,0.0023381710052490234,0
1.399970293045044,-0.021530790254473686,-0.08101954311132431,-0.6593442559242249,0.20795179337875785,-0.5391861941393289,-0.04413465086607142,-0.029327244141696292,-0.25923434479542257,0.0,0.0,-0.6,0.0,0.0014057159423828125,0.002337932586669922,0
1.411158800125122,-0.022060826420783997,-0.08104042708873749,-0.6614776253700256,0.20818838823932048,-0.5390758516573269,-0.040409607326351946,-0.027241357690488584,-0.2595346869465407,0.0,0.0,-0.6,0.0,0.0013573169708251953,0.0022919178009033203,0
1.4201014041900635,-0.022969486191868782,-0.0810578316450119,-0.6651890873908997,0.20866752349123774,-0.5390908487710703,-0.039785843825408604,-0.025224686971519802,-0.25992460217179225,0.0,0.0,-0.6,0.0,0.0012469291687011719,0.0025331974029541016,0
1.4299187660217285,-0.023499509319663048,-0.08105605840682983,-0.6672900319099426,0.20883714575778514,-0.5390472632523665,-0.03598890548811228,-0.023800570278367232,-0.26026115117942833,0.0,0.0,-0.6,0.0,0.0013544559478759766,0.0023622512817382812,0
1.4409968852996826,-0.024184616282582283,-0.08099222928285599,-0.6697842478752136,0.20936622871495397,-0.5391628809037808,-0.035052723018051415,-0.02717438746141369,-0.2606951415937071,0.0,0.0,-0.6,0.0,0.0012001991271972656,0.00212860107421875,0
1.4504261016845703,-0.024729028344154358,-0.08096610754728317,-0.6717967987060547,0.20952714385742627,-0.5392015516105749,-0.033022665486677816,-0.02745230265004313,-0.2610592780621345,0.0,0.0,-0.6,0.0,0.0011665821075439453,0.0020360946655273438,0
1.4599814414978027,-0.024729028344154358,-0.08096610754728317,-0.6717967987060547,0.20952714385742627,-0.5392335058319729,-0.03164219948979969,-0.02763316318006031,-0.26131417359002873,0.0,0.0,-0.6,0.0,0.0016021728515625,0.002561807632446289,0
1.4699621200561523,-0.025272155180573463,-0.0809255838394165,-0.6737548112869263,0.20970987096147334,-0.539343497791165,-0.0326404624839951,-0.026007560780645998,-0.2615611231235724,0.0,0.0,-0.6,0.0,0.0016748905181884766,0.0028574466705322266,0
1.47999906539917,-0.02596593089401722,-0.08086143434047699,-0.676156222820282,0.20996744323532235,-0.5393392038429298,-0.030604629527736342,-0.02450558653307589,-0.2618305773997463,0.0,0.0,-0.6,0.0,0.0014655590057373047,0.0024759769439697266,0
1.489945888519287,-0.026512276381254196,-0.08079804480075836,-0.6780728697776794,0.21011105574895564,-0.5393974694682756,-0.02869300626367198,-0.02471501318157898,-0.26207305008567716,0.0,0.0,-0.6,0.0,0.0016591548919677734,0.002736330032348633,0
1.499971866607666,-0.027062706649303436,-0.08070532977581024,-0.6799363493919373,0.21038733749917302,-0.5395195924836759,-0.028099084800421944,-0.026560845119337533,-0.26234638662216364,0.0,0.0,-0.6,0.0,0.0013837814331054688,0.0023381710052490234,0
1.5116090774536133,-0.027603749185800552,-0.08060894906520844,-0.6817570924758911,0.2106181210523451,-0.539705783431633,-0.030619356920600277,-0.02970104129567956,-0.26262426603014366,0.0,0.0,-0.6,0.0,0.0014138221740722656,0.002326488494873047,0
1.519981861114502,-0.028143590316176414,-0.08050011843442917,-0.6835554838180542,0.21082033235809217,-0.5398961465878654,-0.03383419271701317,-0.031114254367811574,-0.26289461085538485,0.0,0.0,-0.6,0.0,0.0016417503356933594,0.0029380321502685547,0
1.5299620628356934,-0.02867412194609642,-0.08038495481014252,-0.685326874256134,0.21106168555115584,-0.54007893186994,-0.0362440673854971,-0.02928453124096165,-0.26317435968045255,0.0,0.0,-0.6,0.0,0.0015060901641845703,0.0024557113647460938,0
1.5399928092956543,-0.02920740842819214,-0.08025280386209488,-0.6870527863502502,0.21126752560273504,-0.5402175872828996,-0.03708893883366228,-0.025468589093118346,-0.26344737387734213,0.0,0.0,-0.6,0.0,0.0011315345764160156,0.0023174285888671875,0
1.5499584674835205,-0.02975481003522873,-0.0801098495721817,-0.6887317895889282,0.21142233621125858,-0.5404520028143353,-0.03631132998593852,-0.021273997869168976,-0.2636965377933612,0.0,0.0,-0.6,0.0,0.0014383792877197266,0.0024738311767578125,0
1.5611414909362793,-0.030850790441036224,-0.07978513836860657,-0.6919788718223572,0.21158756537149134,-0.5405977524079941,-0.03380375757628001,-0.017470996026747777,-0.26393291346966186,0.0,0.0,-0.6,0.0,0.0010530948638916016,0.0019390583038330078,0
1.569974660873413,-0.030850790441036224,-0.07978513836860657,-0.6919788718223572,0.21158756537149134,-0.5407111395671321,-0.032115029392800754,-0.014830172757887495,-0.2640983764430724,0.0,0.0,-0.6,0.0,0.001201629638671875,0.002142667770385742,0
1.5799880027770996,-0.03138158842921257,-0.07960337400436401,-0.6935633420944214,0.21161252974427436,-0.5408574238460403,-0.032753643436879094,-0.013742266672786522,-0.2642235621642534,0.0,0.0,-0.6,0.0,0.0011098384857177734,0.002003192901611328,0
1.589975118637085,-0.031900662928819656,-0.07939457148313522,-0.6951099038124084,0.21165730215798376,-0.5410026845835321,-0.03411295195706154,-0.014087627475237802,-0.26432798182421974,0.0,0.0,-0.6,0.0,0.0012774467468261719,0.0022513866424560547,0
1.5998749732971191,-0.032418832182884216,-0.07917911559343338,-0.6966293454170227,0.21163171396907896,-0.5411439688132007,-0.03566906900884049,-0.013530785973186894,-0.26439148001535834,0.0,0.0,-0.6,0.0,0.0013136863708496094,0.002592802047729492,0
1.6111083030700684,-0.03294236212968826,-0.07894919812679291,-0.6981402039527893,0.21166337003081218,-0.5412907735012018,-0.03654357606734699,-0.010046402751854857,-0.26444779977230454,0.0,0.0,-0.6,0.0,0.0011103153228759766,0.0021889209747314453,0
1.6203811168670654,-0.03346053510904312,-0.07869432866573334,-0.6996567249298096,0.2116426350689494,-0.5414015588751417,-0.037442861428384655,-0.004690271849112472,-0.26447944799146916,0.0,0.0,-0.6,0.0,0.0009717941284179688,0.0018362998962402344,0
1.6299762725830078,-0.033980369567871094,-0.0784289762377739,-0.701133668422699,0.21152475420189876,-0.5415404546274916,-0.038061421723133614,0.001238328956763162,-0.2644573964197405,0.0,0.0,-0.6,0.0,0.0012462139129638672,0.002187490463256836,0
1.6399495601654053,-0.034512728452682495,-0.07816176116466522,-0.7025781869888306,0.21142438244555373,-0.5416360064720419,-0.03874575317191918,0.00616548328959289,-0.26440432091090105,0.0,0.0,-0.6,0.0,0.0012865066528320312,0.002306222915649414,0
1.6499717235565186,-0.035048894584178925,-0.07787753641605377,-0.7039986252784729,0.2112963861711105,-0.5416428369128818,-0.040014742030746155,0.008657248909520576,-0.26431916945179607,0.0,0.0,-0.6,0.0,0.0014834403991699219,0.0024831295013427734,0
1.6599342823028564,-0.03556745499372482,-0.07758723199367523,-0.7054070830345154,0.2111715315776367,-0.5416407087997114,-0.04160300738634746,0.009949694602025433,-0.2642127429578711,0.0,0.0,-0.6,0.0,0.0013954639434814453,0.0023903846740722656,0
1.669874668121338,-0.036073412746191025,-0.07729306071996689,-0.7067931294441223,0.21097407618852076,-0.54161424724166,-0.04137864307734073,0.010571349475969103,-0.26406419864120523,0.0,0.0,-0.6,0.0,0.0014157295227050781,0.0025682449340820312,0
1.6799390316009521,-0.03657090663909912,-0.07699065655469894,-0.7081411480903625,0.21085359959180863,-0.5416875754805418,-0.04141680655294107,0.012136819858435946,-0.26391503889577,0.0,0.0,-0.6,0.0,0.001176595687866211,0.0021419525146484375,0
1.690056562423706,-0.0370774120092392,-0.07667072862386703,-0.7094693779945374,0.21075722536685193,-0.541813999215838,-0.04172738102934888,0.014989718270498664,-0.2637744867396086,0.0,0.0,-0.6,0.0,0.001260995864868164,0.002190113067626953,0
1.699911117553711,-0.037567753344774246,-0.07634398341178894,-0.710780143737793,0.21061077980242388,-0.5418864825424775,-0.040932657219140745,0.01871889398701268,-0.26362118314363514,0.0,0.0,-0.6,0.0,0.0011494159698486328,0.002068758010864258,0
1.711134433746338,-0.038172584027051926,-0.07593788206577301,-0.7123715281486511,0.21033091220827446,-0.541874798098656,-0.04025872671014526,0.02243237189903333,-0.2634089202786477,0.0,0.0,-0.6,0.0,0.0012140274047851562,0.0023162364959716797,0
1.7199232578277588,-0.03865250200033188,-0.075593963265419,-0.7136221528053284,0.2101894768867817,-0.5418862270896689,-0.03961499673706182,0.02494961850506936,-0.26320729802759674,0.0,0.0,-0.6,0.0,0.0011286735534667969,0.0020308494567871094,0
1.7298426628112793,-0.03912550210952759,-0.07525403052568436,-0.7148600816726685,0.21005122001070967,-0.5420015818478181,-0.03951080711897704,0.026365267126640106,-0.26301431612333404,0.0,0.0,-0.6,0.0,0.0016036033630371094,0.002621173858642578,0
1.7446541786193848,-0.03912550210952759,-0.07525403052568436,-0.7148600816726685,0.21005122001070967,-0.5420925375179164,-0.03945421341167219,0.027363525343508718,-0.2628792287903482,0.0,0.0,-0.6,0.0,0.003809690475463867,0.0063898563385009766,0
1.7660274505615234,-0.04040798917412758,-0.07428841292858124,-0.7181273102760315,0.20945505013063856,-0.5422053516646036,-0.04006558454393185,0.027352630965557102,-0.2625611039522291,0.0,0.0,-0.6,0.0,0.0042684078216552734,0.007882833480834961,0
1.7867448329925537,-0.04040798917412758,-0.07428841292858124,-0.7181273102760315,0.20945505013063856,-0.5422951806647379,-0.040496708031339174,0.027374265896505007,-0.26233841656555007,0.0,0.0,-0.6,0.0,0.003069162368774414,0.006053924560546875,0
1.8071410655975342,-0.042003143578767776,-0.07286224514245987,-0.722137987613678,0.20875728482163305,-0.5424699465136315,-0.04171384875628484,0.028155354336578037,-0.26192087340399783,0.0,0.0,-0.6,0.0,0.004094123840332031,0.008064985275268555,0
1.829366683959961,-0.043046984821558,-0.07174725830554962,-0.724873423576355,0.2082797441428667,-0.5426079478428961,-0.04188788506358205,0.030833526847587257,-0.26144951543637396,0.0,0.0,-0.6,0.0,0.003957271575927734,0.007066249847412109,0
1.850437879562378,-0.043046984821558,-0.07174725830554962,-0.724873423576355,0.2082797441428667,-0.5427160667812002,-0.042020697720304034,0.03270034562433557,-0.26111956485903254,0.0,0.0,-0.6,0.0,0.003997087478637695,0.0068836212158203125,0
1.869293212890625,-0.04460670053958893,-0.06994186341762543,-0.7285463809967041,0.20740526062563405,-0.5430461508750065,-0.041066543710516434,0.03245162375892126,-0.2605606681359361,0.0,0.0,-0.6,0.0,0.003092527389526367,0.0063173770904541016,0
1.8902783393859863,-0.04460670053958893,-0.06994186341762543,-0.7285463809967041,0.20740526062563405,-0.5433093359421882,-0.04044343212916358,0.03235954985727295,-0.2601694404297738,0.0,0.0,-0.6,0.0,0.002918720245361328,0.005431652069091797,0
1.9041690826416016,-0.04588710516691208,-0.06819698214530945,-0.7314233779907227,0.2069328632211095,-0.5437205538908897,-0.04214776974875532,0.03047594783844614,-0.25971843200875816,0.0,0.0,-0.6,0.0,0.0014119148254394531,0.002364635467529297,0
1.9134390354156494,-0.04588710516691208,-0.06819698214530945,-0.7314233779907227,0.2069328632211095,-0.5440490439674672,-0.04334868924088883,0.029281363642925978,-0.2594027261140471,0.0,0.0,-0.6,0.0,0.0012087821960449219,0.0024385452270507812,0
1.9222877025604248,-0.04651928320527077,-0.06724093854427338,-0.7328333854675293,0.2065034766940757,-0.5442960786032024,-0.040956555285545516,0.029924719446551666,-0.25902071204011173,0.0,0.0,-0.6,0.0,0.0014684200286865234,0.0030002593994140625,0
1.9310767650604248,-0.04651928320527077,-0.06724093854427338,-0.7328333854675293,0.2065034766940757,-0.5444924268266592,-0.03933815639969965,0.030420997779656657,-0.2587533021883569,0.0,0.0,-0.6,0.0,0.0017485618591308594,0.003451108932495117,0
1.9400181770324707,-0.047056082636117935,-0.06641528010368347,-0.7340115904808044,0.20603641301837616,-0.5448003839201391,-0.03893555725039624,0.028899761242599728,-0.25839096641374126,0.0,0.0,-0.6,0.0,0.0019092559814453125,0.0031745433807373047,0
1.951246976852417,-0.04735400527715683,-0.065919890999794,-0.7346000075340271,0.20588879871388205,-0.5450613747550448,-0.03889862246673839,0.027185645784891382,-0.25808197600732496,0.0,0.0,-0.6,0.0,0.0017397403717041016,0.002972841262817383,0
1.9620757102966309,-0.04735400527715683,-0.065919890999794,-0.7346000075340271,0.20588879871388205,-0.5452701962234023,-0.03889013620763064,0.026071152845537033,-0.25786568272283344,0.0,0.0,-0.6,0.0,0.0017826557159423828,0.0031499862670898438,0
1.971785306930542,-0.047888126224279404,-0.06503193825483322,-0.7356062531471252,0.20541000296027875,-0.5454562939980551,-0.03423118259833921,0.028974232905221355,-0.25753472901608826,0.0,0.0,-0.6,0.0,0.0015578269958496094,0.002675294876098633,0
1.9827697277069092,-0.048178091645240784,-0.06455855071544647,-0.7361400723457336,0.20522801517312245,-0.5456032490329069,-0.03043747522574992,0.030804124170022155,-0.25723481600118714,0.0,0.0,-0.6,0.0,0.0014200210571289062,0.0024063587188720703,0
1.990544319152832,-0.048178091645240784,-0.06455855071544647,-0.7361400723457336,0.20522801517312245,-0.5457191045173553,-0.02785132647292123,0.03208794378989213,-0.2570248768907521,0.0,0.0,-0.6,0.0,0.0018546581268310547,0.003102540969848633,0
2.0019335746765137,-0.04897553101181984,-0.06315656751394272,-0.7376675605773926,0.20448065622266762,-0.5459270993705844,-0.024421166175146156,0.02999937900931884,-0.25659765990702726,0.0,0.0,-0.6,0.0,0.0015511512756347656,0.0025625228881835938,0
2.0122711658477783,-0.04897553101181984,-0.06315656751394272,-0.7376675605773926,0.20448065622266762,-0.5460936734931555,-0.02208549256071804,0.028612710724868814,-0.25629860801842386,0.0,0.0,-0.6,0.0,0.002264261245727539,0.003988742828369141,0
2.0240285396575928,-0.04897553101181984,-0.06315656751394272,-0.7376675605773926,0.20448065622266762,-0.5462270762699394,-0.02049718212588868,0.02769871008368645,-0.2560892716963944,0.0,0.0,-0.6,0.0,0.0025060176849365234,0.004769325256347656,0
2.039478063583374,-0.049696844071149826,-0.06172599270939827,-0.739024817943573,0.2034226760809996,-0.546404625393926,-0.012006101306687533,0.029181536117586913,-0.25554599371785147,0.0,0.0,-0.6,0.0,0.0025920867919921875,0.004830837249755859,0
2.053769826889038,-0.049696844071149826,-0.06172599270939827,-0.739024817943573,0.2034226760809996,-0.5465446062038505,-0.006204907103616985,0.03023085216617317,-0.25516569913287124,0.0,0.0,-0.6,0.0,0.0025069713592529297,0.004796266555786133,0
2.068812131881714,-0.050374891608953476,-0.0602441281080246,-0.7402073740959167,0.2022717982284873,-0.5466785150331153,-0.00571121250311315,0.02995768596979259,-0.2544679137286933,0.0,0.0,-0.6,0.0,0.002638101577758789,0.004652738571166992,0
2.0816469192504883,-0.050374891608953476,-0.0602441281080246,-0.7402073740959167,0.2022717982284873,-0.5467853151657421,-0.005380984671161364,0.029798027438159465,-0.25397946394576854,0.0,0.0,-0.6,0.0,0.002536296844482422,0.004803895950317383,0
2.0964467525482178,-0.05079706385731697,-0.05927301570773125,-0.7409341335296631,0.2015011604380408,-0.5469674381513813,-0.0019818768898867095,0.029117461830013274,-0.2533485599263039,0.0,0.0,-0.6,0.0,0.0024259090423583984,0.004706144332885742,0
2.1108245849609375,-0.05079706385731697,-0.05927301570773125,-0.7409341335296631,0.2015011604380408,-0.547112931225156,0.0003351653323260093,0.02868709654646364,-0.2529069271126785,0.0,0.0,-0.6,0.0,0.002103567123413086,0.0036172866821289062,0
2.1248133182525635,-0.05138834938406944,-0.0578058660030365,-0.7418761849403381,0.20032120419142016,-0.5473004433580756,0.006621683666330206,0.028808801664014318,-0.25215530055065827,0.0,0.0,-0.6,0.0,0.002044677734375,0.0036644935607910156,0
2.136857271194458,-0.05138834938406944,-0.0578058660030365,-0.7418761849403381,0.20032120419142016,-0.5474499625745743,0.01091407613589602,0.02892588377337711,-0.2516291619572439,0.0,0.0,-0.6,0.0,0.0022954940795898438,0.004246711730957031,0
2.150371789932251,-0.05194392427802086,-0.056311193853616714,-0.7427138686180115,0.19889224546147177,-0.5475673889931519,0.010082701769759459,0.029240578963180233,-0.25072500541812354,0.0,0.0,-0.6,0.0,0.002578258514404297,0.004863739013671875,0
2.1629409790039062,-0.05194392427802086,-0.056311193853616714,-0.7427138686180115,0.19889224546147177,-0.5476605314026673,0.009506820548460583,0.029478706319589085,-0.25009209584074776,0.0,0.0,-0.6,0.0,0.0022232532501220703,0.004331827163696289,0
2.17763352394104,-0.05227039009332657,-0.05534183979034424,-0.7432062029838562,0.197896555727596,-0.5478321773978277,0.012033508834186385,0.02718938088254132,-0.24927567548636143,0.0,0.0,-0.6,0.0,0.0026276111602783203,0.004831552505493164,0
2.189754009246826,-0.05227039009332657,-0.05534183979034424,-0.7432062029838562,0.197896555727596,-0.5479701519549847,0.013752106419393574,0.025652635807238616,-0.24870418123830207,0.0,0.0,-0.6,0.0,0.0025420188903808594,0.004933834075927734,0
2.203984022140503,-0.05281083658337593,-0.05388178303837776,-0.743830680847168,0.1962719930542431,-0.5480685439387838,0.014892412221529684,0.024399509622976698,-0.24769492426215362,0.0,0.0,-0.6,0.0,0.0024881362915039062,0.004719257354736328,0
2.2194595336914062,-0.05281083658337593,-0.05388178303837776,-0.743830680847168,0.1962719930542431,-0.5481476419244663,0.015665783225521885,0.023558736925457277,-0.24698844437884937,0.0,0.0,-0.6,0.0,0.0024628639221191406,0.004822254180908203,0
2.2336206436157227,-0.05324683338403702,-0.05259806662797928,-0.7443314790725708,0.1949653499129153,-0.5482759124794769,0.01589852868816438,0.020850489741414478,-0.24600391728253876,0.0,0.0,-0.6,0.0,0.0023767948150634766,0.004465579986572266,0
2.2471466064453125,-0.05324683338403702,-0.05259806662797928,-0.7443314790725708,0.1949653499129153,-0.5483791669540793,0.01604796904105398,0.019018733537895637,-0.24531474831512107,0.0,0.0,-0.6,0.0,0.0023314952850341797,0.004591464996337891,0
2.2610812187194824,-0.053739555180072784,-0.05124814808368683,-0.7447047233581543,0.19360781883264533,-0.5486101785496429,0.015300173368096621,0.010207568787434703,-0.24432325588282774,0.0,0.0,-0.6,0.0,0.001840829849243164,0.003963470458984375,0
2.2731645107269287,-0.053739555180072784,-0.05124814808368683,-0.7447047233581543,0.19360781883264533,-0.5487970460843217,0.014766625406272302,0.004215889891988688,-0.24362921118022213,0.0,0.0,-0.6,0.0,0.002174854278564453,0.004271030426025391,0
2.285689353942871,-0.05406779423356056,-0.050492167472839355,-0.7448617815971375,0.19274875646919729,-0.54893147300861,0.015536246095381767,-5.3024665806220526e-05,-0.24282123150210527,0.0,0.0,-0.6,0.0,0.002441883087158203,0.004498720169067383,0
2.298945188522339,-0.05406779423356056,-0.050492167472839355,-0.7448617815971375,0.19274875646919729,-0.5490408957991896,0.016050881638618574,-0.0029507228463945033,-0.24225564572742325,0.0,0.0,-0.6,0.0,0.0023102760314941406,0.004494667053222656,0
2.3134400844573975,-0.05449355021119118,-0.04928736761212349,-0.744985044002533,0.19128987765079114,-0.5492494963644098,0.00949532887053432,-0.008460364375708875,-0.2413126561282439,0.0,0.0,-0.6,0.0,0.0020766258239746094,0.0029854774475097656,0
2.3285627365112305,-0.05477367714047432,-0.048491060733795166,-0.7449803352355957,0.1905236440316442,-0.549455141812626,0.002088959786641087,-0.010841672295653193,-0.24036522580163824,0.0,0.0,-0.6,0.0,0.0013132095336914062,0.0027921199798583984,0
2.3360071182250977,-0.05477367714047432,-0.048491060733795166,-0.7449803352355957,0.1905236440316442,-0.5496174971105284,-0.0029991931100600607,-0.012428681954514093,-0.239702024573014,0.0,0.0,-0.6,0.0,0.0012879371643066406,0.0023157596588134766,0
2.343989372253418,-0.05504618212580681,-0.0478074736893177,-0.7449294924736023,0.18954375144747948,-0.549780456736392,-0.004603172381434592,-0.013157902262098672,-0.23887032399391545,0.0,0.0,-0.6,0.0,0.0014994144439697266,0.002748250961303711,0
2.350839853286743,-0.05504618212580681,-0.0478074736893177,-0.7449294924736023,0.18954375144747948,-0.5499102257753584,-0.005713962706031808,-0.01362524948506519,-0.2382881335885462,0.0,0.0,-0.6,0.0,0.0012743473052978516,0.0024771690368652344,0
2.3600165843963623,-0.055218685418367386,-0.04745551571249962,-0.7448599338531494,0.18907092575239537,-0.5500857795465841,-0.010553428650373122,-0.015796734487762965,-0.23770329066913118,0.0,0.0,-0.6,0.0,0.0017588138580322266,0.0030074119567871094,0
2.3699522018432617,-0.05541253089904785,-0.047097086906433105,-0.7447609305381775,0.18861470656454124,-0.5502150918807265,-0.015157882021526299,-0.01847182275698373,-0.23712281843009536,0.0,0.0,-0.6,0.0,0.0017385482788085938,0.0027267932891845703,0
2.3802237510681152,-0.055692657828330994,-0.04641330614686012,-0.7445867657661438,0.18774252288016213,-0.550391310838614,-0.017865034666930717,-0.019511446301653714,-0.23638941898112828,0.0,0.0,-0.6,0.0,0.0014576911926269531,0.0024192333221435547,0
2.38993763923645,-0.055873721837997437,-0.04605024307966232,-0.7444393038749695,0.18734961183880344,-0.5505289961830891,-0.018072766826976307,-0.02013692693796146,-0.23572869772634175,0.0,0.0,-0.6,0.0,0.0011410713195800781,0.0022575855255126953,0
2.3999342918395996,-0.05602230504155159,-0.04569944366812706,-0.7442792654037476,0.18689068261003466,-0.5507008766570234,-0.016628807453109375,-0.023671154689884014,-0.23509409438720286,0.0,0.0,-0.6,0.0,0.0018951892852783203,0.0028922557830810547,0
2.411116123199463,-0.05618346855044365,-0.045357637107372284,-0.7440875768661499,0.1865073671247447,-0.5509272090844077,-0.018721197872927843,-0.029244135969383092,-0.23450612874282184,0.0,0.0,-0.6,0.0,0.0012750625610351562,0.002337217330932617,0
2.4199514389038086,-0.05635124072432518,-0.0450071319937706,-0.7438784241676331,0.18609795106132598,-0.5511167160706729,-0.02252820942476439,-0.03504526765284074,-0.2339410217679731,0.0,0.0,-0.6,0.0,0.0015478134155273438,0.002496957778930664,0
2.4300408363342285,-0.05649849399924278,-0.044679053127765656,-0.743675947189331,0.18568195430805226,-0.5512612216925517,-0.02719794823317981,-0.039404399563543115,-0.2333894481031013,0.0,0.0,-0.6,0.0,0.002033710479736328,0.003087759017944336,0
2.440535068511963,-0.05649849399924278,-0.044679053127765656,-0.743675947189331,0.18568195430805226,-0.5513785305241603,-0.030406662342239883,-0.04235897781708339,-0.2330033465376909,0.0,0.0,-0.6,0.0,0.0013513565063476562,0.0023038387298583984,0
2.45019268989563,-0.05680568143725395,-0.04402979090809822,-0.7432079911231995,0.18475912926847282,-0.551567654853375,-0.032410815309327615,-0.04020577975268414,-0.23238701605206152,0.0,0.0,-0.6,0.0,0.0016350746154785156,0.0030493736267089844,0
2.4607958793640137,-0.05697459354996681,-0.04370275139808655,-0.742924153804779,0.18429588464424568,-0.5517291142738132,-0.03178530007972359,-0.03625075514714272,-0.2317818679780358,0.0,0.0,-0.6,0.0,0.0014352798461914062,0.002674102783203125,0
2.47110915184021,-0.05714745447039604,-0.04338906705379486,-0.7426381707191467,0.18395447214862326,-0.5518642009703523,-0.030160465363243794,-0.033614674328839966,-0.23123023464035933,0.0,0.0,-0.6,0.0,0.0017507076263427734,0.0029151439666748047,0
2.481743335723877,-0.057315099984407425,-0.04308334365487099,-0.7423421144485474,0.18355655470649848,-0.551992343147785,-0.028723616817910254,-0.033292219777314766,-0.230694872263189,0.0,0.0,-0.6,0.0,0.002022266387939453,0.003164529800415039,0
2.4913289546966553,-0.057481396943330765,-0.0427604578435421,-0.742021918296814,0.18315858205529895,-0.5521740719982408,-0.029348063637260394,-0.03482332180885275,-0.2301708788549699,0.0,0.0,-0.6,0.0,0.0013813972473144531,0.0023348331451416016,0
2.5011463165283203,-0.05765025317668915,-0.04244859516620636,-0.7416877746582031,0.1827500183207754,-0.5523585937213914,-0.02997471732824452,-0.03769505662909721,-0.22965087206877022,0.0,0.0,-0.6,0.0,0.0020842552185058594,0.003084421157836914,0
2.5107672214508057,-0.05765025317668915,-0.04244859516620636,-0.7416877746582031,0.1827500183207754,-0.5525075393887718,-0.0304171386437258,-0.03962348695173625,-0.2292868673184303,0.0,0.0,-0.6,0.0,0.001986265182495117,0.003643035888671875,0
2.519998788833618,-0.057990219444036484,-0.04183613508939743,-0.7409726977348328,0.181840633285598,-0.5527422673880032,-0.03147697882831833,-0.03802207317415581,-0.22869104460500103,0.0,0.0,-0.6,0.0,0.002472400665283203,0.0036034584045410156,0
2.531707286834717,-0.058143358677625656,-0.041528504341840744,-0.7405956387519836,0.18147093264424416,-0.5529331594176391,-0.030015155230637712,-0.03484831663843813,-0.22813533096509284,0.0,0.0,-0.6,0.0,0.002298593521118164,0.0034513473510742188,0
2.5401391983032227,-0.058143358677625656,-0.041528504341840744,-0.7405956387519836,0.18147093264424416,-0.5530821198923922,-0.029025155248712114,-0.03263233910410639,-0.22774633141715694,0.0,0.0,-0.6,0.0,0.0024666786193847656,0.003541707992553711,0
2.550870418548584,-0.05851142853498459,-0.04092743992805481,-0.739768385887146,0.18043556010010062,-0.5532581303589877,-0.027838842471459017,-0.029495991794230014,-0.22708576702954825,0.0,0.0,-0.6,0.0,0.002003192901611328,0.0032835006713867188,0
2.561112403869629,-0.05851142853498459,-0.04092743992805481,-0.739768385887146,0.18043556010010062,-0.5533953244070099,-0.027036332246443466,-0.027308297979251786,-0.22662337195822196,0.0,0.0,-0.6,0.0,0.002007722854614258,0.0031676292419433594,0
2.5702764987945557,-0.058901552110910416,-0.04030236229300499,-0.7389149069786072,0.17952432223939546,-0.5534975907193778,-0.026320562815834645,-0.025916257842400245,-0.22595798121052935,0.0,0.0,-0.6,0.0,0.004661083221435547,0.006626129150390625,0
2.5905208587646484,-0.058901552110910416,-0.04030236229300499,-0.7389149069786072,0.17952432223939546,-0.5535777655257627,-0.025836411339037996,-0.02494037146479758,-0.22549220768714429,0.0,0.0,-0.6,0.0,0.0034744739532470703,0.006351947784423828,0
2.6130995750427246,-0.059491053223609924,-0.039403922855854034,-0.7374559640884399,0.17775233014800038,-0.5537048087938633,-0.024483793962738785,-0.020980614413729885,-0.22450166918650213,0.0,0.0,-0.6,0.0,0.004282951354980469,0.007417201995849609,0
2.6355326175689697,-0.05990150198340416,-0.03877860680222511,-0.7364349961280823,0.17658981590389844,-0.5538741516745189,-0.02170084197507728,-0.019403187504727193,-0.22337234939451453,0.0,0.0,-0.6,0.0,0.004966020584106445,0.0077610015869140625,0
2.6564066410064697,-0.060278598219156265,-0.038165345788002014,-0.7355493307113647,0.17562580081599344,-0.5539917367331896,-0.020326056421201194,-0.018094184121621358,-0.22222031988215887,0.0,0.0,-0.6,0.0,0.00446629524230957,0.007675886154174805,0
2.6776812076568604,-0.06086914241313934,-0.037262629717588425,-0.7342590093612671,0.17408313068000525,-0.554093408468888,-0.0188424997562873,-0.014355430469631201,-0.22083539792251455,0.0,0.0,-0.6,0.0,0.00395655632019043,0.007359504699707031,0
2.6981983184814453,-0.06086914241313934,-0.037262629717588425,-0.7342590093612671,0.17408313068000525,-0.5541710203480898,-0.01783007589428849,-0.0117713791656178,-0.2198659525507631,0.0,0.0,-0.6,0.0,0.003715038299560547,0.007421970367431641,0
2.720726251602173,-0.06164314225316048,-0.036096617579460144,-0.7325417995452881,0.172010078654167,-0.5542043605816206,-0.021375931002002194,-0.010133589437421348,-0.21840994628084826,0.0,0.0,-0.6,0.0,0.0038967132568359375,0.0075299739837646484,0
2.740940809249878,-0.06164314225316048,-0.036096617579460144,-0.7325417995452881,0.172010078654167,-0.5542291150830184,-0.023804475039707222,-0.009001056319124033,-0.2173907418919074,0.0,0.0,-0.6,0.0,0.003976106643676758,0.007452487945556641,0
2.7628655433654785,-0.06251156330108643,-0.03470049053430557,-0.7303896546363831,0.16995466373396645,-0.5543759049592322,-0.026533940746660836,-0.013057127739487348,-0.21590651822457407,0.0,0.0,-0.6,0.0,0.004302978515625,0.008053779602050781,0
