time,x,y,z,yaw,throttle,roll_rate,pitch_rate,yaw_rate,x_ref,y_ref,z_ref,yaw_ref,pred_time,nr_time,ctrl_callback_time,metadata
1.6689300537109375e-06,-0.11557333171367645,-0.06988676637411118,-0.23916175961494446,0.06683508690941789,-0.5324525738690544,0.026097902328791826,-0.058577355821396254,-0.025063157591050125,0.0,0.0,-0.6,0.0,0.014989852905273438,0.01660466194152832,0.01924753189086914,Hardware
0.0220949649810791,-0.11557333171367645,-0.06988676637411118,-0.23916175961494446,0.06683508690941789,-0.541355664331907,0.04446932334828782,-0.09830612009228062,-0.042607367904749255,0.0,0.0,-0.6,0.0,0.001287221908569336,0.002378702163696289,0.006128072738647461,Nonlinear
0.032280683517456055,-0.11557988077402115,-0.06988829374313354,-0.23919114470481873,0.06682872468658581,-0.5484367181715286,0.05685384414871555,-0.12420991996948712,-0.05488592929079253,0.0,0.0,-0.6,0.0,0.0012929439544677734,0.0021898746490478516,0.004680156707763672,1x Speed
0.03914356231689453,-0.11558649688959122,-0.06989367306232452,-0.23919923603534698,0.06684996505238634,-0.5540705325558292,0.06475591216177391,-0.14072974283200618,-0.06348888739819851,0.0,0.0,-0.6,0.0,0.0012896060943603516,0.0022497177124023438,0.004698276519775391,0OrderHold
0.04813241958618164,-0.11559261381626129,-0.06989695876836777,-0.23921193182468414,0.06686140854032784,-0.5585600770875936,0.06945723821561081,-0.15098451082558473,-0.06951524938135586,0.0,0.0,-0.6,0.0,0.0013213157653808594,0.0024309158325195312,0.004758358001708984,QuatYawError
0.058037519454956055,-0.1155969500541687,-0.06989608705043793,-0.23922045528888702,0.0668359837862094,-0.5621433352340472,0.07204038728466806,-0.1567496054412148,-0.07372416848678803,0.0,0.0,-0.6,0.0,0.0012123584747314453,0.002568483352661133,0.005453348159790039,NoPyJoules
0.06884956359863281,-0.11559471487998962,-0.0698947012424469,-0.23924818634986877,0.0667250607147658,-0.5649875532784121,0.07300518502542286,-0.15987395732162335,-0.07662881570879598,0.0,0.0,-0.6,0.0,0.0014674663543701172,0.0025725364685058594,0.005335807800292969,0
0.07957100868225098,-0.11559286713600159,-0.06989049166440964,-0.2392740696668625,0.06667995911403277,-0.5672322411590175,0.07335436823159548,-0.16134584137521596,-0.0786451556639262,0.0,0.0,-0.6,0.0,0.002335071563720703,0.004745960235595703,0.009823322296142578,0
0.09148097038269043,-0.11559286713600159,-0.06989049166440964,-0.2392740696668625,0.06667995911403277,-0.5690145538366953,0.07323274079061538,-0.16169685575832088,-0.08005659363250921,0.0,0.0,-0.6,0.0,0.0022695064544677734,0.00435185432434082,0.008963584899902344,0
0.10422182083129883,-0.11556866019964218,-0.06991943717002869,-0.23939689993858337,0.06655492300905068,-0.5703619532660089,0.07352832052518446,-0.16053199948881583,-0.08099771167115113,0.0,0.0,-0.6,0.0,0.0024793148040771484,0.003877401351928711,0.00787663459777832,0
0.11656403541564941,-0.11548613756895065,-0.06996060162782669,-0.23957134783267975,0.06649444068030928,-0.5714358892907673,0.0748085791593446,-0.1554655212862381,-0.08163381342492335,0.0,0.0,-0.6,0.0,0.0025701522827148438,0.004202842712402344,0.008797407150268555,0
0.12790989875793457,-0.11548613756895065,-0.06996060162782669,-0.23957134783267975,0.06649444068030928,-0.5722794793880875,0.07551104492746878,-0.15165865471244097,-0.08207908465256188,0.0,0.0,-0.6,0.0,0.0015518665313720703,0.003799915313720703,0.0077800750732421875,0
0.13977956771850586,-0.11537469923496246,-0.07001600414514542,-0.2397480309009552,0.06635355173325665,-0.5728673195755224,0.07590795122861005,-0.15013949637193547,-0.08233794115676475,0.0,0.0,-0.6,0.0,0.0021944046020507812,0.004135847091674805,0.009114265441894531,0
0.15090036392211914,-0.11537469923496246,-0.07001600414514542,-0.2397480309009552,0.06635355173325665,-0.5733311904273993,0.0760839631871529,-0.14892503985326191,-0.08251914070970638,0.0,0.0,-0.6,0.0,0.0019605159759521484,0.0035657882690429688,0.007775783538818359,0
0.1616218090057373,-0.11521188914775848,-0.07002227753400803,-0.2400338500738144,0.06644532566244088,-0.5734469535112313,0.07391439652692805,-0.14364628201933302,-0.08268039562020991,0.0,0.0,-0.6,0.0,0.0013966560363769531,0.002846240997314453,0.006278514862060547,0
0.17109417915344238,-0.11521188914775848,-0.07002227753400803,-0.2400338500738144,0.06644532566244088,-0.5735278127744436,0.07240240222153202,-0.13998404727689653,-0.08279327405756215,0.0,0.0,-0.6,0.0,0.0014531612396240234,0.002621889114379883,0.006990194320678711,0
0.1814250946044922,-0.11488506197929382,-0.06998652219772339,-0.2406436651945114,0.06610089867495716,-0.5731370346338203,0.06775532201834968,-0.1269831767151637,-0.0827431288434024,0.0,0.0,-0.6,0.0,0.0014498233795166016,0.0026597976684570312,0.006110668182373047,0
0.19021892547607422,-0.11488506197929382,-0.06998652219772339,-0.2406436651945114,0.06610089867495716,-0.5727998854339947,0.06462311414084206,-0.11817160812095556,-0.08270802719349053,0.0,0.0,-0.6,0.0,0.0016400814056396484,0.0030364990234375,0.007490634918212891,0
0.20073676109313965,-0.11439821124076843,-0.06983292102813721,-0.24193724989891052,0.06538736933612269,-0.571950103258041,0.0580670128682216,-0.10327835483060854,-0.08241588253648917,0.0,0.0,-0.6,0.0,0.001542806625366211,0.0030384063720703125,0.007075309753417969,0
0.21151971817016602,-0.11439821124076843,-0.06983292102813721,-0.24193724989891052,0.06538736933612269,-0.5712447467024814,0.05370344150915228,-0.09331382018018393,-0.08221138127658863,0.0,0.0,-0.6,0.0,0.0018160343170166016,0.003262042999267578,0.007302045822143555,0
0.22187185287475586,-0.11390629410743713,-0.0694834291934967,-0.24380768835544586,0.06445605840800075,-0.5701489849324003,0.04609404569975652,-0.0763464099115177,-0.08171898879661281,0.0,0.0,-0.6,0.0,0.0017766952514648438,0.0031473636627197266,0.0074613094329833984,0
0.23235177993774414,-0.11390629410743713,-0.0694834291934967,-0.24380768835544586,0.06445605840800075,-0.5692450595215212,0.04105922971505617,-0.06504516295402743,-0.08137431406062959,0.0,0.0,-0.6,0.0,0.0015063285827636719,0.002997875213623047,0.00720667839050293,0
0.24304509162902832,-0.11336550861597061,-0.06908965855836868,-0.24662286043167114,0.06352686927394796,-0.5676233680800916,0.03341865892913635,-0.04675729137283497,-0.08078459582017178,0.0,0.0,-0.6,0.0,0.0015702247619628906,0.0032339096069335938,0.007115602493286133,0
0.25301098823547363,-0.11304965615272522,-0.0688633918762207,-0.24840545654296875,0.06302799685602029,-0.5658528778691551,0.023675920673903825,-0.027679259433815728,-0.08018471589512845,0.0,0.0,-0.6,0.0,0.0034027099609375,0.005476951599121094,0.010230541229248047,0
0.2674753665924072,-0.11304965615272522,-0.0688633918762207,-0.24840545654296875,0.06302799685602029,-0.5644113428426286,0.017307879288216393,-0.015152293537443594,-0.07976479994759794,0.0,0.0,-0.6,0.0,0.0023245811462402344,0.004214048385620117,0.010074377059936523,0
0.2815878391265869,-0.11206098645925522,-0.06805486977100372,-0.2550756633281708,0.061342074721248085,-0.5620683907885664,-0.0023933861769086136,0.009015493251052328,-0.07883863798378751,0.0,0.0,-0.6,0.0,0.002282857894897461,0.004225015640258789,0.010167360305786133,0
0.29441308975219727,-0.11206098645925522,-0.06805486977100372,-0.2550756633281708,0.061342074721248085,-0.5601551199911319,-0.015421585133393836,0.024809965162424206,-0.07819032460911769,0.0,0.0,-0.6,0.0,0.00222015380859375,0.0043561458587646484,0.010159492492675781,0
0.3084256649017334,-0.11094928532838821,-0.06715262681245804,-0.26388564705848694,0.05983281724513227,-0.5570487329172477,-0.03557398025625887,0.04974919554895255,-0.07717053369330625,0.0,0.0,-0.6,0.0,0.0024442672729492188,0.004481077194213867,0.01047825813293457,0
0.3227059841156006,-0.11094928532838821,-0.06715262681245804,-0.26388564705848694,0.05983281724513227,-0.5545332427203985,-0.04879757154782475,0.06582655856021309,-0.07645668005223907,0.0,0.0,-0.6,0.0,0.003029346466064453,0.005455732345581055,0.011115074157714844,0
0.3383920192718506,-0.1095876395702362,-0.06613049656152725,-0.2747096121311188,0.05829549906823887,-0.5511486698959487,-0.058856671877478464,0.08857553303546153,-0.07538048818715333,0.0,0.0,-0.6,0.0,0.0022430419921875,0.004281520843505859,0.010223627090454102,0
0.3519134521484375,-0.1095876395702362,-0.06613049656152725,-0.2747096121311188,0.05829549906823887,-0.5484273987647391,-0.06525169804548031,0.1030998384162199,-0.07462715388159766,0.0,0.0,-0.6,0.0,0.0025529861450195312,0.0048084259033203125,0.010962247848510742,0
0.36609935760498047,-0.10789104551076889,-0.06495663523674011,-0.2876342833042145,0.056331582081224275,-0.5448166020801614,-0.07301379297145065,0.12962899240476866,-0.07336335099757435,0.0,0.0,-0.6,0.0,0.0026090145111083984,0.004805803298950195,0.010405778884887695,0
0.3801307678222656,-0.10789104551076889,-0.06495663523674011,-0.2876342833042145,0.056331582081224275,-0.5419145965100605,-0.07789255742544024,0.14668455444251305,-0.07247868897876127,0.0,0.0,-0.6,0.0,0.0020685195922851562,0.003892183303833008,0.009618282318115234,0
0.3940410614013672,-0.10650135576725006,-0.06396964192390442,-0.29703354835510254,0.055023858979059426,-0.5388415369010111,-0.08956716594771903,0.1690363853105594,-0.07136902940228032,0.0,0.0,-0.6,0.0,0.0026187896728515625,0.004917144775390625,0.010801076889038086,0
0.40752363204956055,-0.10650135576725006,-0.06396964192390442,-0.29703354835510254,0.055023858979059426,-0.5363776359178299,-0.09721183112238069,0.18351202758539267,-0.0705922676987436,0.0,0.0,-0.6,0.0,0.0023207664489746094,0.004396200180053711,0.010369539260864258,0
0.42341160774230957,-0.10430865734815598,-0.06230582296848297,-0.3124622106552124,0.05318570509692575,-0.5329167654054254,-0.10629262535537265,0.20619173799526488,-0.06935922680046784,0.0,0.0,-0.6,0.0,0.002459287643432617,0.0051877498626708984,0.013206243515014648,0
0.437222957611084,-0.10430865734815598,-0.06230582296848297,-0.3124622106552124,0.05318570509692575,-0.5301461773434668,-0.11219833124037344,0.2208959586498774,-0.06849609817167476,0.0,0.0,-0.6,0.0,0.0015101432800292969,0.002710580825805664,0.006080150604248047,0
0.44641542434692383,-0.1017359048128128,-0.06049012392759323,-0.329464316368103,0.05128069980330341,-0.5264584266019764,-0.11341136724093479,0.23793187413908345,-0.06717753114641128,0.0,0.0,-0.6,0.0,0.0024285316467285156,0.004256486892700195,0.00872802734375,0
0.45893406867980957,-0.1017359048128128,-0.06049012392759323,-0.329464316368103,0.05128069980330341,-0.5235073526485401,-0.11409449557637005,0.24893179674639002,-0.06625453422872679,0.0,0.0,-0.6,0.0,0.002252817153930664,0.0033152103424072266,0.008486747741699219,0
0.47235918045043945,-0.09980693459510803,-0.059200726449489594,-0.34157320857048035,0.05004562307225558,-0.5206152787702675,-0.11395513924999781,0.2589064984714359,-0.0651452826122009,0.0,0.0,-0.6,0.0,0.0028390884399414062,0.004855632781982422,0.009171485900878906,0
0.4834787845611572,-0.09980693459510803,-0.059200726449489594,-0.34157320857048035,0.05004562307225558,-0.5183002644494789,-0.11381208264705586,0.2653733253190971,-0.06436880648063657,0.0,0.0,-0.6,0.0,0.002795696258544922,0.004783153533935547,0.008853435516357422,0
0.4988408088684082,-0.09655757993459702,-0.056988321244716644,-0.3602607846260071,0.04837648584645079,-0.5156904189104424,-0.11616231313382566,0.27298499891566486,-0.0631993467288648,0.0,0.0,-0.6,0.0,0.0012478828430175781,0.003293752670288086,0.008882999420166016,0
0.5116457939147949,-0.09655757993459702,-0.056988321244716644,-0.3602607846260071,0.04837648584645079,-0.5136005172442839,-0.11777048709150355,0.277990268589321,-0.062380724902624515,0.0,0.0,-0.6,0.0,0.0018961429595947266,0.004067659378051758,0.008038043975830078,0
0.5236525535583496,-0.09428059309720993,-0.05550331622362137,-0.37323451042175293,0.0472397647502926,-0.5110687169058935,-0.11754527072554877,0.28397134921381684,-0.061381419213197015,0.0,0.0,-0.6,0.0,0.002800464630126953,0.004795074462890625,0.009590625762939453,0
0.5387475490570068,-0.09182529896497726,-0.05392848327755928,-0.38651907444000244,0.04591346416129925,-0.5083040206088072,-0.11909437768539713,0.29436535134558045,-0.060184542509726324,0.0,0.0,-0.6,0.0,0.0022361278533935547,0.003274202346801758,0.007155418395996094,0
0.5513937473297119,-0.0904865637421608,-0.05312856286764145,-0.3933231234550476,0.04522207014701227,-0.5056846795573164,-0.11955948432083424,0.30514832935771863,-0.05908745606193817,0.0,0.0,-0.6,0.0,0.0025925636291503906,0.0048236846923828125,0.009811878204345703,0
0.562767744064331,-0.0904865637421608,-0.05312856286764145,-0.3933231234550476,0.04522207014701227,-0.5035857914304954,-0.12004042395709495,0.31260978991754246,-0.05831949554848642,0.0,0.0,-0.6,0.0,0.0012862682342529297,0.0037348270416259766,0.007143497467041016,0
0.5747292041778564,-0.08769094944000244,-0.05142670124769211,-0.40704795718193054,0.04389547756123379,-0.5015434535507487,-0.12210778348465881,0.3189811471282001,-0.0572844509694033,0.0,0.0,-0.6,0.0,0.002214193344116211,0.003971099853515625,0.009680747985839844,0
0.5876162052154541,-0.08482413738965988,-0.04960644990205765,-0.4207826852798462,0.04269404166632385,-0.4995257386315657,-0.12146378549715947,0.31959780885244987,-0.05610938130345493,0.0,0.0,-0.6,0.0,0.0023026466369628906,0.0034890174865722656,0.00873708724975586,0
0.6004412174224854,-0.08482413738965988,-0.04960644990205765,-0.4207826852798462,0.04269404166632385,-0.49789666008106404,-0.12122750437864709,0.3203386275351462,-0.05528683253729,0.0,0.0,-0.6,0.0,0.0018427371978759766,0.004103422164916992,0.009733438491821289,0
0.6138548851013184,-0.08038070797920227,-0.0469866544008255,-0.44185328483581543,0.04060914830748166,-0.4957473150408368,-0.11092820586922729,0.30940743049005326,-0.0539292133914088,0.0,0.0,-0.6,0.0,0.0026841163635253906,0.00523066520690918,0.009384632110595703,0
0.6267831325531006,-0.08038070797920227,-0.0469866544008255,-0.44185328483581543,0.04060914830748166,-0.4939801049660767,-0.10422859218550566,0.3024445049238914,-0.05297887998929273,0.0,0.0,-0.6,0.0,0.0024785995483398438,0.0035448074340820312,0.008960247039794922,0
0.6401984691619873,-0.07723861932754517,-0.04521550238132477,-0.45618027448654175,0.03925375088783866,-0.49224230370351085,-0.09855433101801657,0.293550423839728,-0.05180537257544558,0.0,0.0,-0.6,0.0,0.002061128616333008,0.004296779632568359,0.010218620300292969,0
0.6520540714263916,-0.07723861932754517,-0.04521550238132477,-0.45618027448654175,0.03925375088783866,-0.4908157519425551,-0.09493148310317112,0.2879012250967675,-0.0509839173857508,0.0,0.0,-0.6,0.0,0.0012433528900146484,0.0024840831756591797,0.006123781204223633,0
0.662909746170044,-0.07394198328256607,-0.04338127374649048,-0.4706713557243347,0.03794333262742267,-0.48916577395605265,-0.08972290199230229,0.2770475670769744,-0.049917491905309204,0.0,0.0,-0.6,0.0,0.0019373893737792969,0.004030942916870117,0.0076236724853515625,0
0.6737089157104492,-0.07069382071495056,-0.04150982201099396,-0.4853432774543762,0.03660047848641111,-0.4874463216214291,-0.0831274846103068,0.26306963584969545,-0.048667423766121855,0.0,0.0,-0.6,0.0,0.0026214122772216797,0.004834651947021484,0.00811457633972168,0
0.684781551361084,-0.07069382071495056,-0.04150982201099396,-0.4853432774543762,0.03660047848641111,-0.4860222658488078,-0.07890150665710634,0.2540426497279852,-0.047792376068690336,0.0,0.0,-0.6,0.0,0.002045154571533203,0.003560781478881836,0.00793313980102539,0
0.6953558921813965,-0.06904641538858414,-0.0405852273106575,-0.49271541833877563,0.03589914374905857,-0.4845979370740746,-0.07253536992596406,0.24602854699799218,-0.04691684215398107,0.0,0.0,-0.6,0.0,0.0019481182098388672,0.0037932395935058594,0.007988929748535156,0
0.7067375183105469,-0.06573536247015,-0.03879387676715851,-0.5074689388275146,0.03457815972064202,-0.48311182990656854,-0.062191691819461874,0.23568022512357617,-0.04580859940302766,0.0,0.0,-0.6,0.0,0.002397298812866211,0.003322601318359375,0.007157087326049805,0
0.7175943851470947,-0.06573536247015,-0.03879387676715851,-0.5074689388275146,0.03457815972064202,-0.48188012779983436,-0.05539205578294608,0.22909977293079478,-0.045032829477360224,0.0,0.0,-0.6,0.0,0.0020062923431396484,0.002906322479248047,0.006608486175537109,0
0.7284348011016846,-0.06243481487035751,-0.03697812929749489,-0.5220738649368286,0.033151407743635425,-0.4806142592219568,-0.04677381280110647,0.2189726303125489,-0.04395475853801559,0.0,0.0,-0.6,0.0,0.0016751289367675781,0.003388643264770508,0.00779414176940918,0
0.7384762763977051,-0.06243481487035751,-0.03697812929749489,-0.5220738649368286,0.033151407743635425,-0.4795632130719497,-0.041098776786155214,0.21250669476305523,-0.04320010888047495,0.0,0.0,-0.6,0.0,0.0013129711151123047,0.0029900074005126953,0.007678031921386719,0
0.7511296272277832,-0.059159066528081894,-0.03519663214683533,-0.5365875959396362,0.03176894112575358,-0.4783926380337611,-0.033606869668408444,0.20238819949042414,-0.0421534291384902,0.0,0.0,-0.6,0.0,0.0009691715240478516,0.001775503158569336,0.005364418029785156,0
0.7605609893798828,-0.057529792189598083,-0.034325387328863144,-0.5438217520713806,0.031077522820519832,-0.47730446996784626,-0.026251399605526943,0.1923151243644338,-0.04116147145463907,0.0,0.0,-0.6,0.0,0.0017108917236328125,0.002874135971069336,0.007464408874511719,0
0.7715597152709961,-0.057529792189598083,-0.034325387328863144,-0.5438217520713806,0.031077522820519832,-0.4763991096806097,-0.02139163896240455,0.1858568379355705,-0.04046710107594178,0.0,0.0,-0.6,0.0,0.002155780792236328,0.004002094268798828,0.008925199508666992,0
0.7818348407745361,-0.052709225565195084,-0.03187946975231171,-0.5652934312820435,0.02905664352391528,-0.47537358651991035,-0.010722524024302245,0.17038917169601622,-0.03922321207462764,0.0,0.0,-0.6,0.0,0.0022323131561279297,0.004659891128540039,0.008566617965698242,0
0.7939786911010742,-0.052709225565195084,-0.03187946975231171,-0.5652934312820435,0.02905664352391528,-0.47450738751584365,-0.0036065768392999397,0.1602673346325323,-0.03835248977370845,0.0,0.0,-0.6,0.0,0.0018744468688964844,0.0036127567291259766,0.008010625839233398,0
0.8064398765563965,-0.04956779628992081,-0.030324390158057213,-0.5793088674545288,0.02765369610327987,-0.47381607977644735,0.0029281915066962858,0.1444243777375949,-0.03721687888032503,0.0,0.0,-0.6,0.0,0.0022487640380859375,0.0039055347442626953,0.007982015609741211,0
0.8194265365600586,-0.04956779628992081,-0.030324390158057213,-0.5793088674545288,0.02765369610327987,-0.47322564777637066,0.0072905241621310625,0.13390482337608825,-0.036421951254957924,0.0,0.0,-0.6,0.0,0.0015306472778320312,0.0035347938537597656,0.008846521377563477,0
0.8313407897949219,-0.04500104486942291,-0.0280775036662817,-0.5997793674468994,0.02571490466201861,-0.47275509752536893,0.010573182938336981,0.11286103756886744,-0.035138455126726025,0.0,0.0,-0.6,0.0,0.001100778579711914,0.002847433090209961,0.006310462951660156,0
0.8415019512176514,-0.04500104486942291,-0.0280775036662817,-0.5997793674468994,0.02571490466201861,-0.4723378516924883,0.012747576588417513,0.09870876357107158,-0.0342400078369657,0.0,0.0,-0.6,0.0,0.0023822784423828125,0.0041429996490478516,0.008322715759277344,0
0.8522982597351074,-0.04500104486942291,-0.0280775036662817,-0.5997793674468994,0.02571490466201861,-0.4719783287992121,0.014180069257880186,0.08921933823978864,-0.033611094734133325,0.0,0.0,-0.6,0.0,0.0023288726806640625,0.004431247711181641,0.00846552848815918,0
0.8651256561279297,-0.040621742606163025,-0.025971079245209694,-0.6195632219314575,0.023827305119675252,-0.47169179013682583,0.014070156355625462,0.07022991840226911,-0.0324630057337722,0.0,0.0,-0.6,0.0,0.0019080638885498047,0.0038754940032958984,0.007862329483032227,0
0.8742258548736572,-0.040621742606163025,-0.025971079245209694,-0.6195632219314575,0.023827305119675252,-0.47143293455984303,0.013957331314771447,0.05739357900667069,-0.03165934343351921,0.0,0.0,-0.6,0.0,0.001964569091796875,0.004030704498291016,0.008803129196166992,0
0.8877170085906982,-0.037834856659173965,-0.024643424898386,-0.6323160529136658,0.02248772485780379,-0.47124401658631265,0.011410641021147206,0.04107824573196096,-0.030594437225140474,0.0,0.0,-0.6,0.0,0.0020172595977783203,0.0030324459075927734,0.0067403316497802734,0
0.9004642963409424,-0.037834856659173965,-0.024643424898386,-0.6323160529136658,0.02248772485780379,-0.4710716412002176,0.009648818656605907,0.030024021603166192,-0.029849002879274528,0.0,0.0,-0.6,0.0,0.010011672973632812,0.011632680892944336,0.01701498031616211,0
0.9253771305084229,-0.03382977470755577,-0.022725820541381836,-0.6507177948951721,0.02069029838853839,-0.4710780296314946,0.003801713942431505,0.013490894777231009,-0.028653163911193703,0.0,0.0,-0.6,0.0,0.0025653839111328125,0.004458904266357422,0.008315324783325195,0
0.9379177093505859,-0.031301677227020264,-0.02152199111878872,-0.6624897122383118,0.01953855231483812,-0.47124979022102786,-0.0029458601680191652,-0.002387775129536668,-0.027384171855898955,0.0,0.0,-0.6,0.0,0.002234220504760742,0.003347158432006836,0.007862329483032227,0
0.948580265045166,-0.031301677227020264,-0.02152199111878872,-0.6624897122383118,0.01953855231483812,-0.47137549007795265,-0.007526602078097748,-0.013284605041398763,-0.026495877417193295,0.0,0.0,-0.6,0.0,0.0015463829040527344,0.003890514373779297,0.009074926376342773,0
0.9612424373626709,-0.02891254425048828,-0.020375510677695274,-0.6738823056221008,0.018357854643294962,-0.4715531464716971,-0.011045732482438462,-0.025997258120874354,-0.025431309683271057,0.0,0.0,-0.6,0.0,0.0013229846954345703,0.003046274185180664,0.006929636001586914,0
0.9741015434265137,-0.027775561437010765,-0.019821157678961754,-0.679430365562439,0.017773608274694656,-0.4716785358530392,-0.012798439115238055,-0.03664125365261222,-0.024467019881299946,0.0,0.0,-0.6,0.0,0.0024530887603759766,0.003812551498413086,0.008997440338134766,0
0.9858996868133545,-0.025597449392080307,-0.018760645762085915,-0.6902887225151062,0.016640136645717653,-0.47180698814049193,-0.010134901331012951,-0.047408722887144976,-0.023366965159054228,0.0,0.0,-0.6,0.0,0.0032677650451660156,0.004563331604003906,0.010094404220581055,0
0.99837327003479,-0.025597449392080307,-0.018760645762085915,-0.6902887225151062,0.016640136645717653,-0.47190316233272833,-0.008297480768067569,-0.05479800708425861,-0.02259692685348218,0.0,0.0,-0.6,0.0,0.0014910697937011719,0.002473592758178711,0.006525754928588867,0
1.010777235031128,-0.023552045226097107,-0.017751848325133324,-0.7008107900619507,0.01557398920390097,-0.47214644231146086,-0.00204681218767916,-0.06400772936237832,-0.021658094748900108,0.0,0.0,-0.6,0.0,0.0015115737915039062,0.003147125244140625,0.008593320846557617,0
1.0223140716552734,-0.023552045226097107,-0.017751848325133324,-0.7008107900619507,0.01557398920390097,-0.47233668473125845,0.0022576140254571215,-0.07036767806622754,-0.021000912275693027,0.0,0.0,-0.6,0.0,0.0027396678924560547,0.004727363586425781,0.008528709411621094,0
1.0352635383605957,-0.020765064284205437,-0.016343047842383385,-0.7159864902496338,0.013991727781490099,-0.47264523427015814,0.014974522074982028,-0.08001316239744463,-0.01994753651104359,0.0,0.0,-0.6,0.0,0.0021495819091796875,0.0038542747497558594,0.008304834365844727,0
1.048393726348877,-0.020765064284205437,-0.016343047842383385,-0.7159864902496338,0.013991727781490099,-0.47288654274079944,0.02369439191172699,-0.08668624861754505,-0.019210173475789398,0.0,0.0,-0.6,0.0,0.001605987548828125,0.002786397933959961,0.007497310638427734,0
1.0607471466064453,-0.019098814576864243,-0.015479130670428276,-0.725640058517456,0.012984093461599197,-0.4731879316920917,0.03604326085664836,-0.0941662442506502,-0.018316156481151813,0.0,0.0,-0.6,0.0,0.002599000930786133,0.00472712516784668,0.009493589401245117,0
1.0716273784637451,-0.019098814576864243,-0.015479130670428276,-0.725640058517456,0.012984093461599197,-0.47342741806875077,0.044499863703715205,-0.09934713970520871,-0.01769034458490578,0.0,0.0,-0.6,0.0,0.0011289119720458984,0.003460407257080078,0.006638288497924805,0
1.0828251838684082,-0.01760721579194069,-0.014669813215732574,-0.734889805316925,0.011944462576829573,-0.473791013820822,0.055287508830872314,-0.1051135042775572,-0.016862414675744886,0.0,0.0,-0.6,0.0,0.0027091503143310547,0.0038034915924072266,0.009047269821166992,0
1.0946710109710693,-0.01629170961678028,-0.013964520767331123,-0.7438058257102966,0.01092530403118636,-0.4742183930606553,0.0666327401511522,-0.1102368241268889,-0.01590067928471664,0.0,0.0,-0.6,0.0,0.0029282569885253906,0.0046918392181396484,0.009481191635131836,0
1.1072711944580078,-0.01629170961678028,-0.013964520767331123,-0.7438058257102966,0.01092530403118636,-0.4745646557593435,0.07439858707231514,-0.11382159778199749,-0.015227464510996767,0.0,0.0,-0.6,0.0,0.0012302398681640625,0.003367900848388672,0.00865483283996582,0
1.1222732067108154,-0.015135313384234905,-0.013393300585448742,-0.7524020671844482,0.00995021851947019,-0.47489628437507647,0.08358621688388522,-0.11719129097501468,-0.014390557102499169,0.0,0.0,-0.6,0.0,0.002034425735473633,0.0038318634033203125,0.008246421813964844,0
1.1323647499084473,-0.015135313384234905,-0.013393300585448742,-0.7524020671844482,0.00995021851947019,-0.4751666580308709,0.08986296743772038,-0.11955119984147868,-0.01380472191655069,0.0,0.0,-0.6,0.0,0.002464771270751953,0.004232645034790039,0.008133172988891602,0
1.1450190544128418,-0.013660485856235027,-0.012786501087248325,-0.7646082639694214,0.008618710538888408,-0.47541154027395605,0.09519889893449618,-0.12048383883011085,-0.012895321793668755,0.0,0.0,-0.6,0.0,0.0022912025451660156,0.004186153411865234,0.008542537689208984,0
1.1558547019958496,-0.013660485856235027,-0.012786501087248325,-0.7646082639694214,0.008618710538888408,-0.4756118509604339,0.09884038599707569,-0.12115917452540188,-0.012258741707651228,0.0,0.0,-0.6,0.0,0.002256631851196289,0.0045092105865478516,0.010162353515625,0
1.1720263957977295,-0.012823267839848995,-0.012489641085267067,-0.7722000479698181,0.0077911387710666614,-0.47595795053040313,0.09931749194959362,-0.12084357952500444,-0.01150279623450563,0.0,0.0,-0.6,0.0,0.004694938659667969,0.00616145133972168,0.009740829467773438,0
1.186474084854126,-0.012823267839848995,-0.012489641085267067,-0.7722000479698181,0.0077911387710666614,-0.4762392409900069,0.09964326526031148,-0.12067446775915348,-0.010973634403303779,0.0,0.0,-0.6,0.0,0.002634286880493164,0.004950284957885742,0.01060938835144043,0
1.2009918689727783,-0.011747237294912338,-0.012121730484068394,-0.7830309867858887,0.006500880753178531,-0.4768227541632212,0.09687471698207308,-0.11898525868727827,-0.010119374364754708,0.0,0.0,-0.6,0.0,0.0023665428161621094,0.0038306713104248047,0.00901341438293457,0
1.2139463424682617,-0.011747237294912338,-0.012121730484068394,-0.7830309867858887,0.006500880753178531,-0.4772951585661438,0.09498612140464097,-0.11788858497144186,-0.009521392337770322,0.0,0.0,-0.6,0.0,0.0020613670349121094,0.004328012466430664,0.010351181030273438,0
1.228344440460205,-0.010861395858228207,-0.011895054019987583,-0.7932766079902649,0.00535724564837229,-0.4778680333773295,0.09431478258494724,-0.11628316478136043,-0.00867394175457858,0.0,0.0,-0.6,0.0,0.002393484115600586,0.0041675567626953125,0.010209321975708008,0
1.2418179512023926,-0.010861395858228207,-0.011895054019987583,-0.7932766079902649,0.00535724564837229,-0.47833231740539395,0.09385613857718454,-0.11522029734454305,-0.008080726346344628,0.0,0.0,-0.6,0.0,0.002156972885131836,0.004633188247680664,0.010317087173461914,0
1.257000207901001,-0.010187536478042603,-0.01185348629951477,-0.8030109405517578,0.004292228060074526,-0.47893785592061056,0.09565874200681326,-0.11427957897112795,-0.0072660939649692065,0.0,0.0,-0.6,0.0,0.00164794921875,0.0036058425903320312,0.009335994720458984,0
1.269486904144287,-0.010187536478042603,-0.01185348629951477,-0.8030109405517578,0.004292228060074526,-0.4794294492652591,0.09687753912886203,-0.11364723516205617,-0.006695851298006405,0.0,0.0,-0.6,0.0,0.0026106834411621094,0.004342079162597656,0.009864568710327148,0
1.2817389965057373,-0.009867708198726177,-0.011903096921741962,-0.8092638850212097,0.003567186739385247,-0.479963605488816,0.09916740275617873,-0.11396548833278812,-0.006024790935873894,0.0,0.0,-0.6,0.0,0.0027282238006591797,0.0051114559173583984,0.009844541549682617,0
1.295583963394165,-0.009867708198726177,-0.011903096921741962,-0.8092638850212097,0.003567186739385247,-0.4803979408576411,0.10070839036893087,-0.11417661864961652,-0.005555048682381204,0.0,0.0,-0.6,0.0,0.002029895782470703,0.003461122512817383,0.009447336196899414,0
1.307638168334961,-0.009579252451658249,-0.012060857377946377,-0.8182257413864136,0.0023341048496807477,-0.48086505013138414,0.1054916972687772,-0.11505382541274871,-0.004763823396297056,0.0,0.0,-0.6,0.0,0.0016896724700927734,0.0029311180114746094,0.007178306579589844,0
1.3185222148895264,-0.009579252451658249,-0.012060857377946377,-0.8182257413864136,0.0023341048496807477,-0.48124656047177383,0.10872132267086572,-0.11562808487676944,-0.004209965696038143,0.0,0.0,-0.6,0.0,0.001734018325805664,0.003129720687866211,0.007023811340332031,0
1.3293979167938232,-0.009488172829151154,-0.01220552809536457,-0.8238904476165771,0.0016257309591676144,-0.48171727927348806,0.11093465015158117,-0.11485728294290352,-0.0035566250969145713,0.0,0.0,-0.6,0.0,0.0016868114471435547,0.0035054683685302734,0.007831573486328125,0
1.3411469459533691,-0.009478509426116943,-0.012282933108508587,-0.8266014456748962,0.0012741099775254957,-0.48224170895664764,0.11153042329255956,-0.1137566615874273,-0.002967428809412243,0.0,0.0,-0.6,0.0,0.002110004425048828,0.003720998764038086,0.007843017578125,0
1.3520288467407227,-0.009530375711619854,-0.01248117070645094,-0.8318577408790588,0.0006048380628225468,-0.48287753845549275,0.11015919282811827,-0.11103373592701622,-0.0023040144401470057,0.0,0.0,-0.6,0.0,0.002111673355102539,0.003763914108276367,0.007852554321289062,0
1.3632349967956543,-0.009530375711619854,-0.01248117070645094,-0.8318577408790588,0.0006048380628225468,-0.4833899375094759,0.10913656605174886,-0.10909303213801151,-0.0018396243816613453,0.0,0.0,-0.6,0.0,0.0020596981048583984,0.003626108169555664,0.007916450500488281,0
1.3745319843292236,-0.009657878428697586,-0.012761634774506092,-0.8369084596633911,-0.0001679534159960442,-0.48391272989056877,0.10579537630838343,-0.1046301506783148,-0.0012247545361644234,0.0,0.0,-0.6,0.0,0.0020723342895507812,0.0035114288330078125,0.008146524429321289,0
1.3849759101867676,-0.009657878428697586,-0.012761634774506092,-0.8369084596633911,-0.0001679534159960442,-0.48433044251114554,0.10343739812479927,-0.10150725711814573,-0.0007943456443165669,0.0,0.0,-0.6,0.0,0.0017104148864746094,0.0034074783325195312,0.008086204528808594,0
1.396252155303955,-0.009827343747019768,-0.013106648810207844,-0.8417834043502808,-0.0008222002066033229,-0.48467858558194366,0.0977348569948736,-0.09418356826473719,-0.0002477168735453638,0.0,0.0,-0.6,0.0,0.0016922950744628906,0.003146648406982422,0.007718324661254883,0
1.4074187278747559,-0.009827343747019768,-0.013106648810207844,-0.8417834043502808,-0.0008222002066033229,-0.48495047643825195,0.0937901595541743,-0.08913141062763229,0.0001349232659944822,0.0,0.0,-0.6,0.0,0.002477884292602539,0.003916263580322266,0.008122920989990234,0
1.4197392463684082,-0.010034890845417976,-0.013482790440320969,-0.8465020060539246,-0.0014356932879303922,-0.4851892234493881,0.0864176232661279,-0.07957843686581464,0.0006328312691700227,0.0,0.0,-0.6,0.0,0.0016143321990966797,0.0029904842376708984,0.0073163509368896484,0
1.4295282363891602,-0.010034890845417976,-0.013482790440320969,-0.8465020060539246,-0.0014356932879303922,-0.4853696457817226,0.08135135782714355,-0.07302394168842385,0.0009813668713929092,0.0,0.0,-0.6,0.0,0.0019085407257080078,0.003260374069213867,0.00765228271484375,0
1.4400103092193604,-0.010296232998371124,-0.013872899115085602,-0.8510797619819641,-0.00200147561546475,-0.485595015339615,0.07284066169595517,-0.06305413936852976,0.0014375101657743312,0.0,0.0,-0.6,0.0,0.00153350830078125,0.002847433090209961,0.006829023361206055,0
1.4498305320739746,-0.010296232998371124,-0.013872899115085602,-0.8510797619819641,-0.00200147561546475,-0.48576436036356496,0.06700157479944018,-0.0562192763906695,0.001756810471841314,0.0,0.0,-0.6,0.0,0.0013706684112548828,0.0025093555450439453,0.0063784122467041016,0
1.4593024253845215,-0.010629026219248772,-0.014250627718865871,-0.8555077910423279,-0.002513343141144736,-0.48600776505352894,0.05879672665777065,-0.04695708003444516,0.0021722710082181856,0.0,0.0,-0.6,0.0,0.0014791488647460938,0.0028204917907714844,0.006897926330566406,0
1.4683003425598145,-0.010629026219248772,-0.014250627718865871,-0.8555077910423279,-0.002513343141144736,-0.4861937196924563,0.0531648188403246,-0.04060429536116914,0.002463093383681991,0.0,0.0,-0.6,0.0,0.0014090538024902344,0.0025620460510253906,0.006211280822753906,0
1.4788262844085693,-0.011029953137040138,-0.014659611508250237,-0.859732985496521,-0.0031046887455510623,-0.486499219250189,0.0464643928266483,-0.03204683121794129,0.002888423648159032,0.0,0.0,-0.6,0.0,0.0015819072723388672,0.0029449462890625,0.0070683956146240234,0
1.490166425704956,-0.011255946010351181,-0.0148789556697011,-0.8617367148399353,-0.0034282907260501554,-0.48681431785349094,0.04135787258409006,-0.0245619970586292,0.003307505575980143,0.0,0.0,-0.6,0.0,0.001285552978515625,0.002670764923095703,0.006441593170166016,0
1.5004682540893555,-0.01149589754641056,-0.01510960329324007,-0.8636668920516968,-0.0037186835977574173,-0.48715778689589884,0.03740948877191977,-0.01775390664323324,0.0037097602523451434,0.0,0.0,-0.6,0.0,0.0018472671508789062,0.003370523452758789,0.007871866226196289,0
1.5108184814453125,-0.01149589754641056,-0.01510960329324007,-0.8636668920516968,-0.0037186835977574173,-0.48743071358880696,0.03466854135661806,-0.013066156192024087,0.00399133852580064,0.0,0.0,-0.6,0.0,0.0014090538024902344,0.002709627151489258,0.006173849105834961,0
1.521468162536621,-0.011995573528110981,-0.015581239014863968,-0.8672887682914734,-0.004207686604060662,-0.4878745022002825,0.03160885822041464,-0.007181642704347775,0.004371819444583249,0.0,0.0,-0.6,0.0,0.0018918514251708984,0.0034482479095458984,0.007763385772705078,0
1.531874418258667,-0.011995573528110981,-0.015581239014863968,-0.8672887682914734,-0.004207686604060662,-0.48822972825590016,0.02945778227796627,-0.0031109513318762798,0.004638156087731001,0.0,0.0,-0.6,0.0,0.0018072128295898438,0.003147602081298828,0.0069844722747802734,0
1.543191909790039,-0.012726174667477608,-0.01626831851899624,-0.8722424507141113,-0.004903071205063735,-0.4887679873418427,0.026192338340474283,0.0019396250159037986,0.005085360963310664,0.0,0.0,-0.6,0.0,0.0017681121826171875,0.0032923221588134766,0.007448911666870117,0
1.5539276599884033,-0.012726174667477608,-0.01626831851899624,-0.8722424507141113,-0.004903071205063735,-0.4891998430333723,0.02388084226308796,0.005456110631100632,0.005398404376216357,0.0,0.0,-0.6,0.0,0.0019278526306152344,0.0035185813903808594,0.007822513580322266,0
1.5656912326812744,-0.01314745843410492,-0.01668163761496544,-0.8752794861793518,-0.005521397872511124,-0.48968926872918905,0.021600295978099152,0.008663376858399942,0.005849407265543111,0.0,0.0,-0.6,0.0,0.0018334388732910156,0.0034110546112060547,0.00749659538269043,0
1.5755980014801025,-0.01314745843410492,-0.01668163761496544,-0.8752794861793518,-0.005521397872511124,-0.49008292543468246,0.019968819511905486,0.010912479025802549,0.006165109288071842,0.0,0.0,-0.6,0.0,0.002288818359375,0.0037398338317871094,0.008421182632446289,0
1.5880048274993896,-0.013501487672328949,-0.017051436007022858,-0.8781587481498718,-0.005995394918118551,-0.4904958424623669,0.017898941775359188,0.012313743154050264,0.006563849595944736,0.0,0.0,-0.6,0.0,0.001752614974975586,0.0033512115478515625,0.008162975311279297,0
1.5986220836639404,-0.013501487672328949,-0.017051436007022858,-0.8781587481498718,-0.005995394918118551,-0.4908282857476497,0.016423062856886012,0.013321311073281532,0.006842967811455766,0.0,0.0,-0.6,0.0,0.001650094985961914,0.0031006336212158203,0.007253170013427734,0
1.6107170581817627,-0.0138245839625597,-0.017365647479891777,-0.8809010982513428,-0.0063066156646582995,-0.4911742449664487,0.014047241542406134,0.012340108383728662,0.007155058342265958,0.0,0.0,-0.6,0.0,0.0020287036895751953,0.0037043094635009766,0.00725555419921875,0
1.6207151412963867,-0.0138245839625597,-0.017365647479891777,-0.8809010982513428,-0.0063066156646582995,-0.4914530041287676,0.012372378903251106,0.011716379696554098,0.0073735217138330275,0.0,0.0,-0.6,0.0,0.002165079116821289,0.0037126541137695312,0.007504463195800781,0
1.632216453552246,-0.014336190186440945,-0.01780153252184391,-0.8847042322158813,-0.006748845866257312,-0.49184409411192165,0.009554711734822894,0.006096573643273481,0.007692282399529604,0.0,0.0,-0.6,0.0,0.0017352104187011719,0.0032806396484375,0.007173299789428711,0
1.6416091918945312,-0.014336190186440945,-0.01780153252184391,-0.8847042322158813,-0.006748845866257312,-0.4921601458439191,0.007569963232991434,0.0023188127197641727,0.00791541487951721,0.0,0.0,-0.6,0.0,0.0014524459838867188,0.0028104782104492188,0.006530046463012695,0
1.651871681213379,-0.014714885503053665,-0.01809612289071083,-0.8871164917945862,-0.007002835959384914,-0.4925255831712666,0.00449878811946919,-0.0029445979665383816,0.008166853900431356,0.0,0.0,-0.6,0.0,0.0014870166778564453,0.0028076171875,0.0065419673919677734,0
1.6610074043273926,-0.014714885503053665,-0.01809612289071083,-0.8871164917945862,-0.007002835959384914,-0.49282115739132837,0.002347324746048289,-0.006476314556106706,0.008342861215071344,0.0,0.0,-0.6,0.0,0.001501321792602539,0.002809286117553711,0.00638127326965332,0
1.6709718704223633,-0.014909720979630947,-0.018240418285131454,-0.8882757425308228,-0.0071385355710242475,-0.4931315293759334,-0.00050717468230272,-0.01007336305696167,0.00851695368968403,0.0,0.0,-0.6,0.0,0.0014929771423339844,0.002821207046508789,0.006383657455444336,0
1.6806514263153076,-0.015105580911040306,-0.018385030329227448,-0.8893738389015198,-0.007268002584302689,-0.4934684355352501,-0.0038952826078472416,-0.012978924539439341,0.008687368551892324,0.0,0.0,-0.6,0.0,0.0014812946319580078,0.002804994583129883,0.006516456604003906,0
1.6896471977233887,-0.015503361821174622,-0.0186728835105896,-0.8914425373077393,-0.0074391697217993154,-0.4938396056368477,-0.00888650631731301,-0.014918645747401343,0.008870846631999366,0.0,0.0,-0.6,0.0,0.0013611316680908203,0.0025529861450195312,0.005600452423095703,0
1.6986675262451172,-0.015503361821174622,-0.0186728835105896,-0.8914425373077393,-0.0074391697217993154,-0.49413835502301573,-0.012344872982128049,-0.016170407192385165,0.008999281288074297,0.0,0.0,-0.6,0.0,0.001628875732421875,0.002860546112060547,0.006286144256591797,0
1.7096691131591797,-0.015702005475759506,-0.018815530464053154,-0.8924065828323364,-0.0075024080597168065,-0.49437521499197357,-0.015987665765197126,-0.016533709140043314,0.009112899924045808,0.0,0.0,-0.6,0.0,0.0012123584747314453,0.0023965835571289062,0.005610227584838867,0
1.7187345027923584,-0.015902118757367134,-0.018950996920466423,-0.8933416604995728,-0.007542205653823702,-0.49455586127631246,-0.019928277867299584,-0.016120653868829826,0.009207357067015991,0.0,0.0,-0.6,0.0,0.0013463497161865234,0.002486705780029297,0.0060710906982421875,0
1.7287812232971191,-0.016107428818941116,-0.019077518954873085,-0.8942493200302124,-0.007544601830044708,-0.49470059278442746,-0.02389034246147046,-0.014812766889371732,0.009274375633177958,0.0,0.0,-0.6,0.0,0.0013818740844726562,0.0025217533111572266,0.005963325500488281,0
1.7397844791412354,-0.016316058114171028,-0.019190721213817596,-0.8951296210289001,-0.0075654379079943285,-0.4948318948437378,-0.028147782220224134,-0.012837684124396733,0.009329102158722442,0.0,0.0,-0.6,0.0,0.001735687255859375,0.0032858848571777344,0.007649898529052734,0
1.7495651245117188,-0.016316058114171028,-0.019190721213817596,-0.8951296210289001,-0.0075654379079943285,-0.49493589512480396,-0.031065204575518198,-0.011465511608834663,0.009367410726603582,0.0,0.0,-0.6,0.0,0.0014045238494873047,0.002726316452026367,0.006385087966918945,0
1.7592318058013916,-0.016745904460549355,-0.019363831728696823,-0.8968142867088318,-0.007762303445543462,-0.4950867880079721,-0.035879870650922796,-0.008383131866255927,0.009468051300701304,0.0,0.0,-0.6,0.0,0.0010788440704345703,0.0019524097442626953,0.004297018051147461,0
1.7677927017211914,-0.01696382835507393,-0.019420050084590912,-0.8976154327392578,-0.007857730251772124,-0.495249253878458,-0.04055967456585987,-0.004780282803875154,0.009574284754905456,0.0,0.0,-0.6,0.0,0.001390218734741211,0.00260162353515625,0.005408763885498047,0
1.7793052196502686,-0.017377862706780434,-0.01947563886642456,-0.8991349935531616,-0.007898816343721077,-0.4954424139608584,-0.0461767575204918,0.0017982397566870534,0.00966405545732925,0.0,0.0,-0.6,0.0,0.0012125968933105469,0.0022308826446533203,0.005121946334838867,0
1.7879383563995361,-0.017377862706780434,-0.01947563886642456,-0.8991349935531616,-0.007898816343721077,-0.4955945822951131,-0.05002241018928621,0.006316616066636944,0.009726894949025879,0.0,0.0,-0.6,0.0,0.0018041133880615234,0.0030586719512939453,0.006025075912475586,0
1.7985663414001465,-0.01756218448281288,-0.019474411383271217,-0.8998668789863586,-0.007879002898033163,-0.49575445569409393,-0.05354785848900591,0.011593634310908804,0.009763452551080562,0.0,0.0,-0.6,0.0,0.0013263225555419922,0.0023720264434814453,0.005394458770751953,0
1.8094100952148438,-0.01773853786289692,-0.01946006715297699,-0.9005579352378845,-0.007856918030940581,-0.49594227024392334,-0.05616885266761443,0.01704429573500009,0.009780761047359112,0.0,0.0,-0.6,0.0,0.0014309883117675781,0.0027298927307128906,0.005888223648071289,0
1.8199117183685303,-0.01791314408183098,-0.019440719857811928,-0.9012086987495422,-0.00789053411949628,-0.49613643324037404,-0.057644110624120094,0.022045920855644545,0.00980548302796248,0.0,0.0,-0.6,0.0,0.0012171268463134766,0.0024330615997314453,0.005465984344482422,0
1.8285644054412842,-0.018082639202475548,-0.01941228099167347,-0.901853621006012,-0.007972875714432694,-0.49632309180190815,-0.058215558711787366,0.026665372413121675,0.00985366651248599,0.0,0.0,-0.6,0.0,0.001331329345703125,0.0025794506072998047,0.006025075912475586,0
1.8389453887939453,-0.018245920538902283,-0.019375961273908615,-0.902504026889801,-0.008053634063611587,-0.4964940819425553,-0.058124033904462476,0.030894803138223972,0.009917679332594543,0.0,0.0,-0.6,0.0,0.00124359130859375,0.0024623870849609375,0.005545616149902344,0
1.8479106426239014,-0.0183991938829422,-0.019328583031892776,-0.9031200408935547,-0.008120562806210265,-0.4966527969208273,-0.057656407504926316,0.03480890939955883,0.009987586585145035,0.0,0.0,-0.6,0.0,0.0015599727630615234,0.002808809280395508,0.005959987640380859,0
1.8588287830352783,-0.018543509766459465,-0.01927562616765499,-0.9037443399429321,-0.0081670545203254,-0.4967889393167074,-0.05693990477222422,0.03799842731247404,0.010053956054723569,0.0,0.0,-0.6,0.0,0.0013990402221679688,0.002720355987548828,0.005788564682006836,0
1.8684594631195068,-0.01868416555225849,-0.019215868785977364,-0.9043415784835815,-0.008176992581012078,-0.49690898651403825,-0.05592365560611508,0.040067467711196895,0.010104141456186043,0.0,0.0,-0.6,0.0,0.0016489028930664062,0.0029637813568115234,0.0061359405517578125,0
1.877819538116455,-0.018824661150574684,-0.019156841561198235,-0.90492182970047,-0.008172601990657545,-0.49698439082622825,-0.05465038296501588,0.04079076958924665,0.010137624765826813,0.0,0.0,-0.6,0.0,0.0013141632080078125,0.0023651123046875,0.005297183990478516,0
1.8886661529541016,-0.01896705850958824,-0.019098103046417236,-0.9054919481277466,-0.00818669230218733,-0.4970369324694477,-0.05331841055124642,0.040207060501212644,0.010166346949399014,0.0,0.0,-0.6,0.0,0.0013263225555419922,0.0026314258575439453,0.0055429935455322266,0
1.8984155654907227,-0.019115203991532326,-0.01904362253844738,-0.9060884118080139,-0.008245069956588533,-0.4970441707289033,-0.05146644366102843,0.03833583184739318,0.010208344098300013,0.0,0.0,-0.6,0.0,0.0013620853424072266,0.0025794506072998047,0.005601406097412109,0
1.909130334854126,-0.01926174946129322,-0.018991628661751747,-0.9066900610923767,-0.008316023720220386,-0.4970122730026604,-0.049402906488169154,0.03570901326454453,0.010264349763892646,0.0,0.0,-0.6,0.0,0.0012707710266113281,0.002496480941772461,0.00521540641784668,0
1.9187357425689697,-0.01941167190670967,-0.018941141664981842,-0.9073212742805481,-0.00837460275337186,-0.4969826108021991,-0.04752339038021025,0.0324443708291094,0.010325520867239292,0.0,0.0,-0.6,0.0,0.0013506412506103516,0.0026056766510009766,0.005957603454589844,0
1.928572416305542,-0.019557524472475052,-0.018882863223552704,-0.9079416990280151,-0.008443091191612396,-0.4969581005086785,-0.04581499239097893,0.029009823586094816,0.010394023803922159,0.0,0.0,-0.6,0.0,0.0016684532165527344,0.0029578208923339844,0.005927085876464844,0
1.9384284019470215,-0.01970324106514454,-0.018819447606801987,-0.9085772633552551,-0.008540777781865232,-0.4969630821963654,-0.04464767653555897,0.025527539520864194,0.010478608330944961,0.0,0.0,-0.6,0.0,0.0014142990112304688,0.0024220943450927734,0.0054128170013427734,0
1.9480314254760742,-0.019847309216856956,-0.018747035413980484,-0.9092181324958801,-0.008655325360349948,-0.4969897468976715,-0.043990464303333185,0.022059467953006215,0.01058077284179269,0.0,0.0,-0.6,0.0,0.001409769058227539,0.0025835037231445312,0.0055997371673583984,0
1.9588286876678467,-0.020128920674324036,-0.018562909215688705,-0.9104564785957336,-0.008863205365206399,-0.49705223835890233,-0.044056996888408244,0.017262602294603344,0.010730243001207295,0.0,0.0,-0.6,0.0,0.001081705093383789,0.0019884109497070312,0.005120038986206055,0
1.968156337738037,-0.020128920674324036,-0.018562909215688705,-0.9104564785957336,-0.008863205365206399,-0.497103074626002,-0.04410328633232092,0.01399830734320723,0.010834872112797492,0.0,0.0,-0.6,0.0,0.0014352798461914062,0.002417325973510742,0.005282878875732422,0
1.9779860973358154,-0.02027086168527603,-0.018458813428878784,-0.9110820293426514,-0.008938268633537626,-0.4971553143463512,-0.043697297987226116,0.01086498579393616,0.010936261216534862,0.0,0.0,-0.6,0.0,0.00193023681640625,0.003088712692260742,0.006279945373535156,0
1.9888558387756348,-0.020411143079400063,-0.018350470811128616,-0.9116907715797424,-0.00901263102272628,-0.49719731544436374,-0.04243282703389202,0.007879758768264283,0.011035119485096766,0.0,0.0,-0.6,0.0,0.00223541259765625,0.004372835159301758,0.0092620849609375,0
2.0018715858459473,-0.020688427612185478,-0.018143033608794212,-0.9129369854927063,-0.009164441119278199,-0.49719202014437436,-0.03851912077619867,0.005495335658249796,0.011161249059297045,0.0,0.0,-0.6,0.0,0.0021686553955078125,0.004306316375732422,0.009737014770507812,0
2.0149829387664795,-0.020688427612185478,-0.018143033608794212,-0.9129369854927063,-0.009164441119278199,-0.49718740358357005,-0.03585205589040932,0.0038695631256885164,0.011249539761237244,0.0,0.0,-0.6,0.0,0.0033283233642578125,0.0057027339935302734,0.011093854904174805,0
2.03047776222229,-0.02094348892569542,-0.01791299879550934,-0.9141863584518433,-0.009404636302400255,-0.497150469462459,-0.03097551486915649,0.0024233647658382894,0.01140141644626621,0.0,0.0,-0.6,0.0,0.002946138381958008,0.0052759647369384766,0.010941267013549805,0
2.045305013656616,-0.02118629962205887,-0.017662592232227325,-0.9154219627380371,-0.009627705974968242,-0.497073576375046,-0.02484697753551069,0.0013434393868151052,0.011591381252999454,0.0,0.0,-0.6,0.0,0.002705097198486328,0.005113840103149414,0.011127233505249023,0
2.060901403427124,-0.02118629962205887,-0.017662592232227325,-0.9154219627380371,-0.009627705974968242,-0.4970107854312873,-0.0206707138064796,0.0005999448304898289,0.01172435661771272,0.0,0.0,-0.6,0.0,0.0027511119842529297,0.00530695915222168,0.010842561721801758,0
2.075711727142334,-0.02150646224617958,-0.017310764640569687,-0.9172457456588745,-0.009892248521424828,-0.49690497346423956,-0.013759720488389953,0.0007249786388140993,0.01191664282793323,0.0,0.0,-0.6,0.0,0.0023593902587890625,0.004643917083740234,0.010466575622558594,0
2.090315103530884,-0.02150646224617958,-0.017310764640569687,-0.9172457456588745,-0.009892248521424828,-0.49681879709002985,-0.009049597726528143,0.0007999181692490249,0.012051243175087583,0.0,0.0,-0.6,0.0,0.0026581287384033203,0.005097627639770508,0.010564804077148438,0
2.1044766902923584,-0.021855428814888,-0.01700759492814541,-0.9190744161605835,-0.010307964370323374,-0.4967064141629832,-0.002650754685183396,-0.0006934279769243434,0.012301356861432595,0.0,0.0,-0.6,0.0,0.0024137496948242188,0.004847526550292969,0.010954141616821289,0
2.1199488639831543,-0.021855428814888,-0.01700759492814541,-0.9190744161605835,-0.010307964370323374,-0.49661568963994696,0.0017107069543367114,-0.0017221870985918973,0.012476436441874095,0.0,0.0,-0.6,0.0,0.0027925968170166016,0.005048274993896484,0.010911703109741211,0
2.134600877761841,-0.022192345932126045,-0.016724634915590286,-0.920835018157959,-0.010732820092407119,-0.49647476470571406,0.006198045833121056,-0.0050624213955743,0.01275831304396456,0.0,0.0,-0.6,0.0,0.002537965774536133,0.004871368408203125,0.01094675064086914,0
2.1490845680236816,-0.022192345932126045,-0.016724634915590286,-0.920835018157959,-0.010732820092407119,-0.4963617880818406,0.009257460846378197,-0.007352768145272042,0.012955626665427877,0.0,0.0,-0.6,0.0,0.0027773380279541016,0.005979061126708984,0.012255668640136719,0
2.1655566692352295,-0.02246246673166752,-0.016521234065294266,-0.9225316643714905,-0.011123315784935747,-0.49628585995674757,0.013992238648459207,-0.011248889899340492,0.013240182085150504,0.0,0.0,-0.6,0.0,0.0024423599243164062,0.0046825408935546875,0.010972738265991211,0
2.180546522140503,-0.02246246673166752,-0.016521234065294266,-0.9225316643714905,-0.011123315784935747,-0.49622571570864316,0.017219376650140505,-0.013913114000435144,0.013439370878956232,0.0,0.0,-0.6,0.0,0.0025696754455566406,0.004828691482543945,0.01047515869140625,0
2.1947813034057617,-0.02267983928322792,-0.016445694491267204,-0.9241687059402466,-0.01144637845405284,-0.4960990853700127,0.02422031349846595,-0.016510731565484126,0.0136999515355392,0.0,0.0,-0.6,0.0,0.002759695053100586,0.005058765411376953,0.011462926864624023,0
2.2104249000549316,-0.02267983928322792,-0.016445694491267204,-0.9241687059402466,-0.01144637845405284,-0.49599797364107745,0.028991993968755812,-0.018297833239722512,0.01388235799514731,0.0,0.0,-0.6,0.0,0.002462148666381836,0.0050547122955322266,0.010641813278198242,0
2.2255215644836426,-0.022971265017986298,-0.016430074349045753,-0.9258511662483215,-0.011744417609333115,-0.4958236735662426,0.0367794251189342,-0.01893044014190827,0.014121807200103054,0.0,0.0,-0.6,0.0,0.002432107925415039,0.00467371940612793,0.010919809341430664,0
2.239861488342285,-0.022971265017986298,-0.016430074349045753,-0.9258511662483215,-0.011744417609333115,-0.4956839054948763,0.042088745297492784,-0.01938616860346913,0.014289421643572105,0.0,0.0,-0.6,0.0,0.0025382041931152344,0.00481414794921875,0.010865211486816406,0
2.2541308403015137,-0.023312322795391083,-0.016459910199046135,-0.927480936050415,-0.012201595857679482,-0.495582669665656,0.050895326716005926,-0.015449277062854538,0.014578193597130366,0.0,0.0,-0.6,0.0,0.0021789073944091797,0.003910064697265625,0.009073972702026367,0
2.266752004623413,-0.023312322795391083,-0.016459910199046135,-0.927480936050415,-0.012201595857679482,-0.4955006108296556,0.056900263994860575,-0.012782140154829414,0.014780333964620992,0.0,0.0,-0.6,0.0,0.0021457672119140625,0.004114627838134766,0.009966135025024414,0
2.2796225547790527,-0.023647889494895935,-0.016531363129615784,-0.9290972352027893,-0.012421192545762006,-0.4954505455350553,0.06383406393824521,-0.0076455019222047985,0.015004180979895514,0.0,0.0,-0.6,0.0,0.002161264419555664,0.004128217697143555,0.008991003036499023,0
2.292132616043091,-0.023647889494895935,-0.016531363129615784,-0.9290972352027893,-0.012421192545762006,-0.4954099227168903,0.06856271256695504,-0.004152750586088165,0.01516087389058766,0.0,0.0,-0.6,0.0,0.002326488494873047,0.00419926643371582,0.009296417236328125,0
2.304621696472168,-0.023890087381005287,-0.016626102849841118,-0.9302037954330444,-0.012485518325729465,-0.4953353362899994,0.07323989886922785,-0.0024704451883384776,0.015294681095559865,0.0,0.0,-0.6,0.0,0.0023860931396484375,0.0043735504150390625,0.009656906127929688,0
2.317720890045166,-0.023890087381005287,-0.016626102849841118,-0.9302037954330444,-0.012485518325729465,-0.49527641182194204,0.07643331929014552,-0.0013343175012558892,0.015388346139040483,0.0,0.0,-0.6,0.0,0.0019352436065673828,0.0039768218994140625,0.008892536163330078,0
2.3326168060302734,-0.02412162907421589,-0.016769208014011383,-0.931266725063324,-0.012685936860625201,-0.4951990239056945,0.07886923348070417,-0.0018835274654675454,0.015529068620062831,0.0,0.0,-0.6,0.0,0.0026128292083740234,0.0047037601470947266,0.010922908782958984,0
2.3480873107910156,-0.024311205372214317,-0.01696353778243065,-0.9322845935821533,-0.012773098629724764,-0.49512838473511067,0.08009152788210033,-0.003253775841477048,0.015660260020190806,0.0,0.0,-0.6,0.0,0.002665996551513672,0.005447864532470703,0.01050114631652832,0
2.359813928604126,-0.024457857012748718,-0.017192833125591278,-0.9332017302513123,-0.012777996218274648,-0.4951340710345514,0.07977628512903794,-0.005173786216274732,0.015753930595986586,0.0,0.0,-0.6,0.0,0.0014853477478027344,0.002735137939453125,0.005817890167236328,0
2.3684065341949463,-0.024457857012748718,-0.017192833125591278,-0.9332017302513123,-0.012777996218274648,-0.495139142836597,0.07956080084456826,-0.006481674255900812,0.015819499999043623,0.0,0.0,-0.6,0.0,0.0012929439544677734,0.0026199817657470703,0.005629062652587891,0
2.3787710666656494,-0.02462136186659336,-0.017476987093687057,-0.9340181946754456,-0.01273909554022726,-0.4951784660265688,0.07933450204460851,-0.008619179597852859,0.015850810826915772,0.0,0.0,-0.6,0.0,0.001514434814453125,0.0028374195098876953,0.006186723709106445,0
2.3878893852233887,-0.02462136186659336,-0.017476987093687057,-0.9340181946754456,-0.01273909554022726,-0.4952108940199673,0.07917556864019591,-0.01007014999921176,0.015872728406426267,0.0,0.0,-0.6,0.0,0.0013604164123535156,0.0026123523712158203,0.006033658981323242,0
2.3992111682891846,-0.024847541004419327,-0.017817389219999313,-0.9348325729370117,-0.012718541554154288,-0.4952751544592886,0.0792077971751516,-0.011834379587439641,0.015880362967306248,0.0,0.0,-0.6,0.0,0.0018117427825927734,0.0030405521392822266,0.006119728088378906,0
2.4090936183929443,-0.024847541004419327,-0.017817389219999313,-0.9348325729370117,-0.012718541554154288,-0.4953277922820917,0.0792213540981434,-0.013026567428603534,0.01588570715992223,0.0,0.0,-0.6,0.0,0.0014879703521728516,0.0027053356170654297,0.0058667659759521484,0
2.419485092163086,-0.025144062936306,-0.018200095742940903,-0.9356662034988403,-0.012743787294169997,-0.49544519911783624,0.07898342461561529,-0.01359989040470262,0.015898915247259313,0.0,0.0,-0.6,0.0,0.0014476776123046875,0.0026693344116210938,0.006026268005371094,0
2.428096294403076,-0.025144062936306,-0.018200095742940903,-0.9356662034988403,-0.012743787294169997,-0.49554008554609863,0.07880383083383712,-0.013970499962365627,0.01590816090839527,0.0,0.0,-0.6,0.0,0.0016286373138427734,0.0029027462005615234,0.006418466567993164,0
2.437716245651245,-0.025483401492238045,-0.01862117275595665,-0.9364697933197021,-0.012731206574267483,-0.49569036051171933,0.07763110707354504,-0.01314373381664512,0.015909915101226996,0.0,0.0,-0.6,0.0,0.0014088153839111328,0.0026705265045166016,0.006012439727783203,0
2.4493260383605957,-0.02565842866897583,-0.01884576678276062,-0.9368417263031006,-0.012687915904070226,-0.49583723805735724,0.07618109135488306,-0.011772599087895156,0.015894909034885236,0.0,0.0,-0.6,0.0,0.001636505126953125,0.0028514862060546875,0.006214618682861328,0
2.457756519317627,-0.02565842866897583,-0.01884576678276062,-0.9368417263031006,-0.012687915904070226,-0.4959541143105769,0.0751675163623195,-0.010811402829180623,0.015884404788445997,0.0,0.0,-0.6,0.0,0.0011937618255615234,0.0024118423461914062,0.005731105804443359,0
2.469128131866455,-0.026017161086201668,-0.019320601597428322,-0.9375499486923218,-0.012495284553782599,-0.4961163274496956,0.07338216125600364,-0.008088854752833701,0.0158048150595807,0.0,0.0,-0.6,0.0,0.0016160011291503906,0.0028748512268066406,0.006390094757080078,0
2.4780197143554688,-0.026017161086201668,-0.019320601597428322,-0.9375499486923218,-0.012495284553782599,-0.4962446397298951,0.07213524172167171,-0.006203533470751848,0.01574910224937495,0.0,0.0,-0.6,0.0,0.0011892318725585938,0.0025620460510253906,0.006200075149536133,0
2.4904606342315674,-0.02639009803533554,-0.019829602912068367,-0.9381753206253052,-0.01244675950665801,-0.49638883559654945,0.0694623974891546,-0.0038974527534710503,0.015691906389559238,0.0,0.0,-0.6,0.0,0.002458810806274414,0.004914760589599609,0.010750055313110352,0
2.504114866256714,-0.02639009803533554,-0.019829602912068367,-0.9381753206253052,-0.01244675950665801,-0.49650219657961303,0.06761240288636731,-0.0023000034791714023,0.01565186928768821,0.0,0.0,-0.6,0.0,0.0025331974029541016,0.0047380924224853516,0.010895013809204102,0
2.520545721054077,-0.026777103543281555,-0.02034645900130272,-0.9387547969818115,-0.012509733766465964,-0.4966109362956018,0.06296218737557226,-0.0009597528897897917,0.015647458663806478,0.0,0.0,-0.6,0.0,0.002567768096923828,0.004864692687988281,0.011179208755493164,0
2.5357155799865723,-0.02713809348642826,-0.020845986902713776,-0.9392858147621155,-0.01245221416947146,-0.49672427348885895,0.05494199063096855,0.0002791274339325844,0.015622801378216342,0.0,0.0,-0.6,0.0,0.002516031265258789,0.00492548942565918,0.011225461959838867,0
2.5503034591674805,-0.02713809348642826,-0.020845986902713776,-0.9392858147621155,-0.01245221416947146,-0.4968089772062526,0.049450183313840435,0.0011442964941493117,0.015605541278303235,0.0,0.0,-0.6,0.0,0.0024759769439697266,0.004668474197387695,0.010181427001953125,0
2.5643932819366455,-0.027603812515735626,-0.021594667807221413,-0.939985990524292,-0.012324708895551007,-0.4968531815968745,0.03836346349452519,0.002051046408633222,0.015545644730643914,0.0,0.0,-0.6,0.0,0.0021011829376220703,0.004048824310302734,0.009370803833007812,0
2.57702374458313,-0.027603812515735626,-0.021594667807221413,-0.939985990524292,-0.012324708895551007,-0.49688006363031745,0.030795264594394134,0.0026786256612784075,0.015503717147282383,0.0,0.0,-0.6,0.0,0.0019609928131103516,0.003977298736572266,0.00923776626586914,0
2.589772939682007,-0.02786041423678398,-0.022091304883360863,-0.9404299259185791,-0.012347236026559143,-0.49686750545670655,0.020934194800444863,0.003919361459752672,0.01548281551305734,0.0,0.0,-0.6,0.0,0.0022516250610351562,0.004175901412963867,0.009542226791381836,0
2.6032612323760986,-0.02807006798684597,-0.02255251072347164,-0.9408653974533081,-0.012326452735754594,-0.49683215642892653,0.009515697431294816,0.006729927642018255,0.015460390635048114,0.0,0.0,-0.6,0.0,0.00234222412109375,0.004181385040283203,0.009618759155273438,0
2.6165871620178223,-0.02807006798684597,-0.02255251072347164,-0.9408653974533081,-0.012326452735754594,-0.4967955850437177,0.0017378967018814428,0.008641731837686217,0.015444693220441648,0.0,0.0,-0.6,0.0,0.0020325183868408203,0.004093647003173828,0.009300470352172852,0
