time,x,y,z,yaw,throttle,roll_rate,pitch_rate,yaw_rate,x_ref,y_ref,z_ref,yaw_ref,pred_time,nr_time,metadata
2.384185791015625e-06,-0.09389472007751465,-0.2113053947687149,-0.2372976541519165,0.06632381362892892,-0.5508806763247723,0.09051329297115876,-0.04627657155672684,0.23999999999999996,0.0,0.0,-0.7,-3.85368598971807,0.0023941993713378906,0.003753662109375,Hardware
0.008779287338256836,-0.09389472007751465,-0.2113053947687149,-0.2372976541519165,0.06632381362892892,-0.5617938569873199,0.13598272866487193,-0.11100834503376711,0.40800000000000003,0.0,0.0,-0.7,-3.8500095291227296,0.0019063949584960938,0.0038721561431884766,Nonlinear
0.020545482635498047,-0.09390223026275635,-0.21126866340637207,-0.23729467391967773,0.06628948570691302,-0.5704432817311054,0.14591711149703263,-0.17167978270274853,0.5256,0.0,0.0,-0.7,-3.845080916761861,0.0027561187744140625,0.004521846771240234,0OrderHold
0.03162693977355957,-0.09390223026275635,-0.21126866340637207,-0.23729467391967773,0.06628948570691302,-0.5773663170094272,0.1338886382810403,-0.21726521696584322,0.60792,0.0,0.0,-0.7,-3.8404391268503937,0.0021343231201171875,0.003418445587158203,QuatYawError
0.04169273376464844,-0.09391076117753983,-0.2112227827310562,-0.23729074001312256,0.06627652362882633,-0.5829675259423049,0.11153799304806307,-0.24560388400641567,0.6655439999999999,0.0,0.0,-0.7,-3.8362227769230666,0.0018422603607177734,0.0029821395874023438,NoPyJoules
0.05167245864868164,-0.09391670674085617,-0.21120798587799072,-0.23731426894664764,0.06629572142576912,-0.5874095023576517,0.08711387526613489,-0.25922359015597807,0.7058808,0.0,0.0,-0.7,-3.8320424795389965,0.0023043155670166016,0.003828763961791992,0
0.06095433235168457,-0.09391670674085617,-0.21120798587799072,-0.23731426894664764,0.06629572142576912,-0.5909550347350363,0.06534095921514997,-0.2618879743314119,0.73411656,0.0,0.0,-0.7,-3.828154497374076,0.0018146038055419922,0.003337860107421875,0
0.07045745849609375,-0.09389104694128036,-0.21123720705509186,-0.23739808797836304,0.06791193161159048,-0.5936848099440115,0.050660496682510825,-0.2561934721042908,0.753881592,0.0,0.0,-0.7,-3.824173837203221,0.0014750957489013672,0.002624988555908203,0
0.08045816421508789,-0.09389104694128036,-0.21123720705509186,-0.23739808797836304,0.06791193161159048,-0.5958272268844024,0.040928131527089684,-0.2479499702281554,0.7677171144,0.0,0.0,-0.7,-3.8199847513875533,0.0019307136535644531,0.0032987594604492188,0
0.09020256996154785,-0.09387026727199554,-0.21126309037208557,-0.23745372891426086,0.06848985966496784,-0.5974782813383143,0.03660349173428461,-0.23812484673212103,0.7774019800799999,0.0,0.0,-0.7,-3.81590302425333,0.001977205276489258,0.0035924911499023438,0
0.10093951225280762,-0.09376116096973419,-0.21131980419158936,-0.2375602424144745,0.06846998849452687,-0.5988050221149416,0.031447167195609166,-0.22757821488766686,0.784181386056,0.0,0.0,-0.7,-3.8114055443834314,0.0022535324096679688,0.0037670135498046875,0
0.11230182647705078,-0.09376116096973419,-0.21131980419158936,-0.2375602424144745,0.06846998849452687,-0.5998234203442498,0.029854274736192912,-0.2185533207842426,0.7889269702392,0.0,0.0,-0.7,-3.80664610933081,0.0015749931335449219,0.0026845932006835938,0
0.12236642837524414,-0.09358256310224533,-0.21135590970516205,-0.2376530021429062,0.06783024505857813,-0.6005556213499618,0.03264611983485185,-0.20785621215945124,0.79224887916744,0.0,0.0,-0.7,-3.8024302587461873,0.0017001628875732422,0.0030813217163085938,0
0.1322009563446045,-0.09358256310224533,-0.21135590970516205,-0.2376530021429062,0.06783024505857813,-0.6011006067261395,0.036822041777302264,-0.2007842708550296,0.794574215417208,0.0,0.0,-0.7,-3.798310781303512,0.002577066421508789,0.003945350646972656,0
0.14375925064086914,-0.09327084571123123,-0.21140646934509277,-0.23785680532455444,0.06825513582026327,-0.6013926832832607,0.042229144422669625,-0.192697757045007,0.7962019507920455,0.0,0.0,-0.7,-3.793469254310289,0.002084493637084961,0.003482341766357422,0
0.1535663604736328,-0.09327084571123123,-0.21140646934509277,-0.23785680532455444,0.06825513582026327,-0.6015973437145904,0.04772445214611773,-0.18823526613703984,0.7973413655544319,0.0,0.0,-0.7,-3.7893612617498142,0.0013666152954101562,0.0037696361541748047,0
0.16703295707702637,-0.09282004833221436,-0.21151012182235718,-0.23823139071464539,0.07004085153377625,-0.6015347281191611,0.055242924750833346,-0.17998769776933404,0.7981389558881022,0.0,0.0,-0.7,-3.7837203869554035,0.0028123855590820312,0.004743337631225586,0
0.18426895141601562,-0.09216329455375671,-0.21160420775413513,-0.23896749317646027,0.07309204935956479,-0.6011858072547357,0.05945215868624858,-0.16797301213195914,0.7986972691216715,0.0,0.0,-0.7,-3.7765005905297127,0.002264738082885742,0.004022359848022461,0
0.19817423820495605,-0.09142477065324783,-0.21175114810466766,-0.23989365994930267,0.07819482497788074,-0.6005895076266914,0.06200619205821021,-0.1521707231941982,0.79908808838517,0.0,0.0,-0.7,-3.7706759576200866,0.002499818801879883,0.0055713653564453125,0
0.21653246879577637,-0.09142477065324783,-0.21175114810466766,-0.23989365994930267,0.07819482497788074,-0.600070260018543,0.06742261517405912,-0.14201661210560962,0.799361661869619,0.0,0.0,-0.7,-3.7629860799724826,0.00299835205078125,0.006215095520019531,0
0.23416352272033691,-0.09002823382616043,-0.21202415227890015,-0.24223592877388,0.08873460404499478,-0.5991404174606936,0.06814448776052551,-0.12327396247780541,0.7995531633087333,0.0,0.0,-0.7,-3.7556008013745568,0.003576040267944336,0.006469011306762695,0
0.25252866744995117,-0.08900273591279984,-0.212237149477005,-0.2443770468235016,0.09719790467951031,-0.5978658228860382,0.06722233338078193,-0.09841737925657013,0.7996872143161132,0.0,0.0,-0.7,-3.7479080275392676,0.002315521240234375,0.005223751068115234,0
0.2685966491699219,-0.08900273591279984,-0.212237149477005,-0.2443770468235016,0.09719790467951031,-0.5967798484545144,0.07256313934362764,-0.08142254366836187,0.7997810500212793,0.0,0.0,-0.7,-3.7411774870953374,0.002382516860961914,0.004450559616088867,0
0.2854642868041992,-0.08737515658140182,-0.21251550316810608,-0.24854262173175812,0.11195306350893693,-0.5952884093008237,0.07096851091361127,-0.05449164094410309,0.7998467350148956,0.0,0.0,-0.7,-3.734111987565303,0.002587556838989258,0.0046770572662353516,0
0.3018636703491211,-0.08612506836652756,-0.21266897022724152,-0.25193390250205994,0.12372839738706314,-0.5935474760327164,0.07078794343381842,-0.025574840697563755,0.799892714510427,0.0,0.0,-0.7,-3.7272426298495525,0.0032563209533691406,0.006178855895996094,0
0.3203303813934326,-0.08612506836652756,-0.21266897022724152,-0.25193390250205994,0.12372839738706314,-0.5920836909311351,0.0777335700537675,-0.0061838591313220885,0.7999249001572989,0.0,0.0,-0.7,-3.7195073120158493,0.003002166748046875,0.006313323974609375,0
0.3385040760040283,-0.08314693719148636,-0.21299822628498077,-0.2601736783981323,0.14797258561413087,-0.5899513615993907,0.0790012519192347,0.030423559623633748,0.7999474301101092,0.0,0.0,-0.7,-3.7118947326188847,0.0031175613403320312,0.006148099899291992,0
0.3562462329864502,-0.08314693719148636,-0.21299822628498077,-0.2601736783981323,0.14797258561413087,-0.5881550330517978,0.08888030553659393,0.05461385079643663,0.7999632010770764,0.0,0.0,-0.7,-3.7044629152809097,0.007201671600341797,0.010169029235839844,0
0.3784821033477783,-0.07932224869728088,-0.2133021354675293,-0.2709234356880188,0.17928017216793538,-0.5858426487027194,0.09547104527141656,0.09353786852412983,0.7999742407539535,0.0,0.0,-0.7,-3.6951487756844665,0.0031270980834960938,0.005494356155395508,0
0.3956434726715088,-0.07932224869728088,-0.2133021354675293,-0.2709234356880188,0.17928017216793538,-0.5839080857532987,0.10963671540419229,0.11800922320984196,0.7999819685277675,0.0,0.0,-0.7,-3.6879602381120704,0.002432107925415039,0.004447460174560547,0
0.40967750549316406,-0.07618782669305801,-0.2134447693824768,-0.27958589792251587,0.19980210784931754,-0.5815934631147316,0.11944242365424818,0.14456117515199174,0.7999873779694373,0.0,0.0,-0.7,-3.68208167619037,0.0021827220916748047,0.004282236099243164,0
0.4233064651489258,-0.07618782669305801,-0.2134447693824768,-0.27958589792251587,0.19980210784931754,-0.5797095963532553,0.1330577882559476,0.15977210550658705,0.7999911645786062,0.0,0.0,-0.7,-3.676372790919622,0.003742218017578125,0.0064885616302490234,0
0.44226551055908203,-0.07290466874837875,-0.2135753482580185,-0.2882636487483978,0.22256427939925014,-0.5776580080827881,0.14592232537746602,0.1814450470337249,0.7999938152050244,0.0,0.0,-0.7,-3.6684312445490055,0.003373384475708008,0.005980968475341797,0
0.45940470695495605,-0.07290466874837875,-0.2135753482580185,-0.2882636487483978,0.22256427939925014,-0.5760060254093005,0.1604842645903215,0.1926870008678199,0.7999956706435172,0.0,0.0,-0.7,-3.661251994750911,0.0027790069580078125,0.005955696105957031,0
0.4783191680908203,-0.06772918999195099,-0.21342505514621735,-0.3009292483329773,0.25415784314279016,-0.5740141616208555,0.17892307592587614,0.20682064232901204,0.799996969450462,0.0,0.0,-0.7,-3.653329123797439,0.003143310546875,0.006424665451049805,0
0.4960622787475586,-0.06772918999195099,-0.21342505514621735,-0.3009292483329773,0.25415784314279016,-0.5724380183459266,0.19568571733150686,0.21157754135160822,0.7999978786153233,0.0,0.0,-0.7,-3.6458969069853002,0.002098560333251953,0.005172252655029297,0
0.5139942169189453,-0.06187683716416359,-0.2132580429315567,-0.3142116665840149,0.28725860255867747,-0.5706533202792557,0.2116331096174861,0.21943092541993284,0.7999985150307264,0.0,0.0,-0.7,-3.638385594288786,0.0032334327697753906,0.005502462387084961,0
0.5325837135314941,-0.06187683716416359,-0.2132580429315567,-0.3142116665840149,0.28725860255867747,-0.5692542740564964,0.22524289235859568,0.22048693593705812,0.7999989605215085,0.0,0.0,-0.7,-3.6305988441565304,0.0028030872344970703,0.005781888961791992,0
0.5549523830413818,-0.055279988795518875,-0.21290461719036102,-0.3281363844871521,0.3215606959516594,-0.5674872876333564,0.23335922059971076,0.23276742889960078,0.799999272365056,0.0,0.0,-0.7,-3.6212290777828184,0.002657175064086914,0.005116939544677734,0
0.5722839832305908,-0.055279988795518875,-0.21290461719036102,-0.3281363844871521,0.3215606959516594,-0.5660805813565489,0.24255118545987234,0.23877152796107826,0.7999994906555391,0.0,0.0,-0.7,-3.6139692340722354,0.0033130645751953125,0.006514310836791992,0
0.5905144214630127,-0.04798433929681778,-0.21218520402908325,-0.34259772300720215,0.3585144200809076,-0.5645078182554654,0.25044631387299937,0.2479167601581908,0.7999996434588773,0.0,0.0,-0.7,-3.606332885962542,0.002985715866088867,0.0054891109466552734,0
0.6078870296478271,-0.04798433929681778,-0.21218520402908325,-0.34259772300720215,0.3585144200809076,-0.5632639690918301,0.2587675731577452,0.2519305112358421,0.7999997504212142,0.0,0.0,-0.7,-3.599055864862928,0.003094196319580078,0.005854606628417969,0
0.6250407695770264,-0.04177990183234215,-0.2114330232143402,-0.35434943437576294,0.38778584633968655,-0.5618916606698445,0.2648224760986171,0.25310896435578945,0.7999998252948499,0.0,0.0,-0.7,-3.5918705230838395,0.003537893295288086,0.006615400314331055,0
0.6437349319458008,-0.04177990183234215,-0.2114330232143402,-0.35434943437576294,0.38778584633968655,-0.5608147820923498,0.27010037039626994,0.2520456631103736,0.799999877706395,0.0,0.0,-0.7,-3.5840399306621387,0.003172159194946289,0.005860328674316406,0
0.6618475914001465,-0.03284868225455284,-0.21020139753818512,-0.3702009618282318,0.4267071948830995,-0.5596311788679222,0.26872535442221906,0.24818043656780367,0.7999999143944765,0.0,0.0,-0.7,-3.5764529176116393,0.003183126449584961,0.005959272384643555,0
0.6770784854888916,-0.03284868225455284,-0.21020139753818512,-0.3702009618282318,0.4267071948830995,-0.5586859895916354,0.2677104794418549,0.24535808698100808,0.7999999400761335,0.0,0.0,-0.7,-3.5700730156147316,0.003099203109741211,0.0061533451080322266,0
0.6969404220581055,-0.025718560442328453,-0.2091289460659027,-0.3821369707584381,0.45719962028252387,-0.5577311583461803,0.26405478337878246,0.241402715942281,0.7999999580532935,0.0,0.0,-0.7,-3.5617532670798107,0.002939462661743164,0.005135774612426758,0
0.7142386436462402,-0.02075648494064808,-0.20829802751541138,-0.3901042938232422,0.4787833352515257,-0.5568031930112548,0.2581092731693684,0.23946448921773508,0.7999999706373054,0.0,0.0,-0.7,-3.55450740496495,0.003076791763305664,0.0059549808502197266,0
0.7326147556304932,-0.02075648494064808,-0.20829802751541138,-0.3901042938232422,0.4787833352515257,-0.5560419692991166,0.2542116156990351,0.2389414122875363,0.7999999794461138,0.0,0.0,-0.7,-3.5468100371767806,0.0033850669860839844,0.006372213363647461,0
0.7508032321929932,-0.010503049939870834,-0.20627890527248383,-0.40599510073661804,0.519513408072325,-0.5551451717867687,0.2417757851185786,0.23844094486233586,0.7999999856122797,0.0,0.0,-0.7,-3.539191265930282,0.0030939579010009766,0.006019115447998047,0
0.7665507793426514,-0.010503049939870834,-0.20627890527248383,-0.40599510073661804,0.519513408072325,-0.5543806609479652,0.233655101991321,0.24034987676583547,0.7999999899285958,0.0,0.0,-0.7,-3.5325949488052917,0.003627300262451172,0.006141185760498047,0
0.785818338394165,-0.001845611841417849,-0.20418226718902588,-0.4187762141227722,0.5560145795647803,-0.5535793279608516,0.2226975688661929,0.23775703351799568,0.7999999929500171,0.0,0.0,-0.7,-3.5245241725427796,0.0036468505859375,0.006636619567871094,0
0.8027992248535156,0.00349948788061738,-0.20283611118793488,-0.4264071583747864,0.575244865015906,-0.5529692211400666,0.2128527171904194,0.23439574881214972,0.799999995065012,0.0,0.0,-0.7,-3.517411235455828,0.002751588821411133,0.004922628402709961,0
0.8200578689575195,0.00349948788061738,-0.20283611118793488,-0.4264071583747864,0.575244865015906,-0.5524461550307393,0.20579243091518376,0.23374862689231912,0.7999999965455084,0.0,0.0,-0.7,-3.510181951518753,0.0032379627227783203,0.0062255859375,0
0.8389091491699219,0.012226646766066551,-0.20041891932487488,-0.4383600950241089,0.6106577114083425,-0.5520866323213609,0.2000152101276496,0.22802499635501447,0.7999999975818558,0.0,0.0,-0.7,-3.5022855457286135,0.003345012664794922,0.0056650638580322266,0
0.8563482761383057,0.012226646766066551,-0.20041891932487488,-0.4383600950241089,0.6106577114083425,-0.5517803111774888,0.19516709912095057,0.22489231884719527,0.7999999983072991,0.0,0.0,-0.7,-3.4949806613060943,0.0028946399688720703,0.006028413772583008,0
0.8745248317718506,0.02227988839149475,-0.19752663373947144,-0.451468288898468,0.6513766145073754,-0.5516597885830142,0.18132780725485306,0.2127061479628157,0.7999999988151094,0.0,0.0,-0.7,-3.4873668834866396,0.003137350082397461,0.006300687789916992,0
0.8925747871398926,0.02227988839149475,-0.19752663373947144,-0.451468288898468,0.6513766145073754,-0.5515139086309212,0.1694105135144865,0.2066643575027647,0.7999999991705766,0.0,0.0,-0.7,-3.479806135862391,0.00293731689453125,0.006040811538696289,0
0.909808874130249,0.03231210261583328,-0.19386067986488342,-0.46405163407325745,0.692155637047896,-0.5513376245480487,0.16162869735070745,0.20059343399098772,0.7999999994194037,0.0,0.0,-0.7,-3.472587138385027,0.003364086151123047,0.006348133087158203,0
0.9274730682373047,0.03231210261583328,-0.19386067986488342,-0.46405163407325745,0.692155637047896,-0.5511697578157716,0.15522314589990113,0.19757807934691884,0.7999999995935826,0.0,0.0,-0.7,-3.465187978059919,0.0025763511657714844,0.0062618255615234375,0
0.9468083381652832,0.042185891419649124,-0.18950381875038147,-0.4761670231819153,0.7333490973056233,-0.5510734796827429,0.13939848485242734,0.1885275023784696,0.7999999997155078,0.0,0.0,-0.7,-3.457088839131797,0.0030736923217773438,0.00596928596496582,0
0.9646701812744141,0.042185891419649124,-0.18950381875038147,-0.4761670231819153,0.7333490973056233,-0.5509376239980553,0.1267606351761357,0.18496085378069163,0.7999999998008555,0.0,0.0,-0.7,-3.449606887786301,0.0026581287384033203,0.005445003509521484,0
0.9823987483978271,0.05048239603638649,-0.18481965363025665,-0.4863327741622925,0.7698396589878745,-0.5507054720213717,0.10731358276184169,0.186720253752409,0.7999999998605989,0.0,0.0,-0.7,-3.4421807629551564,0.0028383731842041016,0.005731105804443359,0
1.0003595352172852,0.05048239603638649,-0.18481965363025665,-0.4863327741622925,0.7698396589878745,-0.550446640719594,0.09431803046097634,0.19131969760527812,0.7999999999024192,0.0,0.0,-0.7,-3.434657366165196,0.0032317638397216797,0.005679607391357422,0
1.0180726051330566,0.05737894028425217,-0.18083934485912323,-0.4946352243423462,0.8013335451718178,-0.5503328311822749,0.07538041450347813,0.19344512377415612,0.7999999999316935,0.0,0.0,-0.7,-3.427237732789208,0.0036263465881347656,0.006455898284912109,0
1.0375099182128906,0.06468451768159866,-0.17605435848236084,-0.5033978819847107,0.8344350497369382,-0.5502640153559116,0.0521186798916274,0.19580651750965009,0.7999999999521855,0.0,0.0,-0.7,-3.4190958501255904,0.003051280975341797,0.005634307861328125,0
1.0540275573730469,0.06468451768159866,-0.17605435848236084,-0.5033978819847107,0.8344350497369382,-0.5501255318100372,0.036447335352443586,0.201440272835598,0.7999999999665298,0.0,0.0,-0.7,-3.4121769576135645,0.003588438034057617,0.0060577392578125,0
1.0712804794311523,0.07165542244911194,-0.17079511284828186,-0.5118759870529175,0.8674569338398099,-0.5499841726817477,0.019322024536072412,0.20631454526492476,0.7999999999765709,0.0,0.0,-0.7,-3.4049500705214713,0.002663850784301758,0.005394935607910156,0
1.0887551307678223,0.07165542244911194,-0.17079511284828186,-0.5118759870529175,0.8674569338398099,-0.5498159919677384,0.008469499732711432,0.21254395842918378,0.7999999999835997,0.0,0.0,-0.7,-3.397630305686361,0.002806425094604492,0.005799055099487305,0
1.1070780754089355,0.08031721413135529,-0.1633838564157486,-0.5225957036018372,0.912218959493739,-0.5498659760006028,-0.005822513457892697,0.21870881122308874,0.7999999999885198,0.0,0.0,-0.7,-3.389955208582807,0.0025496482849121094,0.005188465118408203,0
1.1231560707092285,0.08031721413135529,-0.1633838564157486,-0.5225957036018372,0.912218959493739,-0.5498634502951798,-0.014625778027743778,0.22526526227697227,0.7999999999919639,0.0,0.0,-0.7,-3.3832204736601605,0.0035941600799560547,0.006501674652099609,0
1.1418843269348145,0.08634120225906372,-0.1576472520828247,-0.5301939249038696,0.9455479388329159,-0.5499881167644696,-0.02625533192675782,0.23108038908062936,0.7999999999943748,0.0,0.0,-0.7,-3.375375600037114,0.0034139156341552734,0.006449222564697266,0
1.15983247756958,0.08634120225906372,-0.1576472520828247,-0.5301939249038696,0.9455479388329159,-0.550056361078104,-0.03329221203403424,0.23686839671904095,0.7999999999960623,0.0,0.0,-0.7,-3.3678574962798202,0.0028839111328125,0.005777120590209961,0
1.1766538619995117,0.09194961935281754,-0.15178926289081573,-0.5372853875160217,0.9789044182496495,-0.5501984464359763,-0.04174334928179361,0.2427747905739875,0.7999999999972436,0.0,0.0,-0.7,-3.360811371246716,0.0035071372985839844,0.00626063346862793,0
1.1964507102966309,0.09194961935281754,-0.15178926289081573,-0.5372853875160217,0.9789044182496495,-0.5502929264429111,-0.04652742232161993,0.24803935923052048,0.7999999999980705,0.0,0.0,-0.7,-3.3525188868234546,0.0033729076385498047,0.006384611129760742,0
1.213857889175415,0.09861557930707932,-0.1434985250234604,-0.5457752346992493,1.022245631386658,-0.5505446077192775,-0.05229937635190047,0.25169860357521895,0.7999999999986493,0.0,0.0,-0.7,-3.3452273847854133,0.0028810501098632812,0.006023883819580078,0
1.2302000522613525,0.09861557930707932,-0.1434985250234604,-0.5457752346992493,1.022245631386658,-0.5507339147876505,-0.05569492985247881,0.25494597108480127,0.7999999999990546,0.0,0.0,-0.7,-3.3383819955194736,0.003378629684448242,0.005809783935546875,0
1.249049186706543,0.10328665375709534,-0.13618774712085724,-0.5519840717315674,1.0589672756363422,-0.5512495570477564,-0.05681616094888177,0.25429704049916085,0.7999999999993382,0.0,0.0,-0.7,-3.3304864885462018,0.002864837646484375,0.0054378509521484375,0
1.2668185234069824,0.10698643326759338,-0.1302604079246521,-0.5567910075187683,1.0907300484022,-0.5517979500178293,-0.061069154871352616,0.25022464820113033,0.7999999999995367,0.0,0.0,-0.7,-3.323043286194567,0.0033524036407470703,0.005967140197753906,0
1.2848398685455322,0.10698643326759338,-0.1302604079246521,-0.5567910075187683,1.0907300484022,-0.5522184261134379,-0.06481317764923361,0.24771606676299046,0.7999999999996757,0.0,0.0,-0.7,-3.3154945227952237,0.00307464599609375,0.006500720977783203,0
1.3024389743804932,0.111495241522789,-0.12191136181354523,-0.5627437233924866,1.1322161660094365,-0.5528213376916221,-0.06468207084230378,0.24100396907025243,0.799999999999773,0.0,0.0,-0.7,-3.3081226265817754,0.0032858848571777344,0.005879878997802734,0
1.3180761337280273,0.111495241522789,-0.12191136181354523,-0.5627437233924866,1.1322161660094365,-0.5532911923062815,-0.06581049588610782,0.23595832982973186,0.7999999999998411,0.0,0.0,-0.7,-3.3015725485912117,0.0035104751586914062,0.006718635559082031,0
1.3382833003997803,0.11439632624387741,-0.11580309271812439,-0.5667378902435303,1.1637118637664912,-0.5537326916694175,-0.06852622263596675,0.2249668889963802,0.7999999999998888,0.0,0.0,-0.7,-3.2931081904090993,0.002729654312133789,0.006045818328857422,0
1.354604959487915,0.11439632624387741,-0.11580309271812439,-0.5667378902435303,1.1637118637664912,-0.5540588830239392,-0.07219175642237602,0.2174445000996843,0.7999999999999222,0.0,0.0,-0.7,-3.286271389837675,0.0032873153686523438,0.0070552825927734375,0
1.3743162155151367,0.11773650348186493,-0.10746241360902786,-0.5717759132385254,1.2050811466728948,-0.5544289190459623,-0.07054108755567585,0.20152313865410493,0.7999999999999455,0.0,0.0,-0.7,-3.2780147582205887,0.0023679733276367188,0.004992246627807617,0
1.3918724060058594,0.11773650348186493,-0.10746241360902786,-0.5717759132385254,1.2050811466728948,-0.5546972626734054,-0.07183217823246173,0.1899303096644667,0.7999999999999619,0.0,0.0,-0.7,-3.2706608383444986,0.0031621456146240234,0.00607609748840332,0
1.4133884906768799,0.12024106085300446,-0.09928722679615021,-0.5763401389122009,1.2464539343749903,-0.5550681736882505,-0.07794549865416057,0.1690371902027181,0.7999999999999733,0.0,0.0,-0.7,-3.261648201872966,0.002416849136352539,0.004797458648681641,0
1.429490089416504,0.12024106085300446,-0.09928722679615021,-0.5763401389122009,1.2464539343749903,-0.5553116011454645,-0.08535257259234103,0.1551793428976856,0.7999999999999813,0.0,0.0,-0.7,-3.2549035799647723,0.003397226333618164,0.006162166595458984,0
1.4489824771881104,0.12213661521673203,-0.0912899449467659,-0.5805701613426208,1.2879237156033783,-0.5555301152310623,-0.0890242139722049,0.13586663361205784,0.7999999999999868,0.0,0.0,-0.7,-3.2467386276682118,0.0032215118408203125,0.006020545959472656,0
1.4660158157348633,0.12213661521673203,-0.0912899449467659,-0.5805701613426208,1.2879237156033783,-0.555662884641431,-0.09434707152646243,0.12280742041005263,0.7999999999999908,0.0,0.0,-0.7,-3.239603719502267,0.002862215042114258,0.005947589874267578,0
1.4854745864868164,0.12306622415781021,-0.08427037298679352,-0.5839192867279053,1.3225821271835143,-0.5559320280768035,-0.10189468731768231,0.10978055588224131,0.7999999999999936,0.0,0.0,-0.7,-3.2314528486699703,0.0031728744506835938,0.006262302398681641,0
1.5028026103973389,0.12306622415781021,-0.08427037298679352,-0.5839192867279053,1.3225821271835143,-0.5561131343493907,-0.10896708095156385,0.10162556978390651,0.7999999999999955,0.0,0.0,-0.7,-3.2241945029875003,0.0031189918518066406,0.00646519660949707,0
1.5205433368682861,0.12394826114177704,-0.0762723982334137,-0.5875157117843628,1.367195296187408,-0.5563786179506366,-0.112355184399076,0.08706978487667769,0.7999999999999968,0.0,0.0,-0.7,-3.2167632848607703,0.002864837646484375,0.006204843521118164,0
1.5390818119049072,0.12394826114177704,-0.0762723982334137,-0.5875157117843628,1.367195296187408,-0.5565618029195747,-0.11668891817755009,0.07726508437201834,0.7999999999999977,0.0,0.0,-0.7,-3.208997906596263,0.0032744407653808594,0.0062253475189208984,0
1.557556390762329,0.12431537359952927,-0.07066407799720764,-0.5899771451950073,1.4000449028249113,-0.5568292594900047,-0.12098931039764034,0.061425793520902085,0.7999999999999984,0.0,0.0,-0.7,-3.2012592931007107,0.0025162696838378906,0.005096435546875,0
1.574953317642212,0.12433971464633942,-0.0670362040400505,-0.5914698839187622,1.4213176257986473,-0.5571823745674301,-0.12491668402438258,0.04709388170716055,0.7999999999999988,0.0,0.0,-0.7,-3.1939720854099267,0.0032002925872802734,0.005822658538818359,0
1.5930585861206055,0.12405683100223541,-0.062998928129673,-0.5929936170578003,1.447655529359185,-0.5574670552916691,-0.12926216370929483,0.036993071857066906,0.7999999999999992,0.0,0.0,-0.7,-3.1863881682841946,0.003327608108520508,0.006329536437988281,0
1.6103765964508057,0.12405683100223541,-0.062998928129673,-0.5929936170578003,1.447655529359185,-0.5576764613321062,-0.13359194305187647,0.030435645386815702,0.7999999999999994,0.0,0.0,-0.7,-3.1791340170804414,0.0034224987030029297,0.006266355514526367,0
1.6272175312042236,0.12354999780654907,-0.05776283144950867,-0.5948903560638428,1.4836562606451125,-0.55797664814102,-0.1289575880484118,0.015962238684490704,0.7999999999999996,0.0,0.0,-0.7,-3.172079702826985,0.002733469009399414,0.005269527435302734,0
1.643843412399292,0.12354999780654907,-0.05776283144950867,-0.5948903560638428,1.4836562606451125,-0.5581996166743396,-0.12762296352725566,0.005222703802397522,0.7999999999999997,0.0,0.0,-0.7,-3.1651154699974007,0.0029878616333007812,0.006056785583496094,0
1.6634454727172852,0.12299608439207077,-0.053400661796331406,-0.5964183807373047,1.5128459221983879,-0.5585232582676821,-0.1304814605810304,-0.005281724982936003,0.7999999999999998,0.0,0.0,-0.7,-3.1569045781720364,0.0033338069915771484,0.006151437759399414,0
1.681553602218628,0.12285588681697845,-0.05114390701055527,-0.5972040295600891,1.5338884197845295,-0.5588591198411909,-0.13403224357422153,-0.015988036678006134,0.7999999999999999,0.0,0.0,-0.7,-3.1493194626238137,0.002749204635620117,0.005323171615600586,0
1.699474573135376,0.12285588681697845,-0.05114390701055527,-0.5972040295600891,1.5338884197845295,-0.5591147454352953,-0.13784931738558215,-0.023039847851248893,0.7999999999999999,0.0,0.0,-0.7,-3.14181274388018,0.0037996768951416016,0.006697177886962891,0
1.7191860675811768,0.12161938101053238,-0.045129790902137756,-0.5990126132965088,1.5838350989289423,-0.5594126906985947,-0.1306816577313859,-0.027967753236443134,0.8,0.0,0.0,-0.7,-3.1335560123945525,0.0026760101318359375,0.005092620849609375,0
1.7366325855255127,0.12161938101053238,-0.045129790902137756,-0.5990126132965088,1.5838350989289423,-0.5596455961329557,-0.12632102791725616,-0.032297853278141886,0.8,0.0,0.0,-0.7,-3.126248032047266,0.002882719039916992,0.005393028259277344,0
1.7559399604797363,0.12062659859657288,-0.042488064616918564,-0.5997265577316284,1.6093747132074274,-0.5597641463882042,-0.12149540515232174,-0.036440192666117435,0.8,0.0,0.0,-0.7,-3.1181605777384274,0.002580404281616211,0.004909038543701172,0
1.77020263671875,0.11980067938566208,-0.03959134221076965,-0.6005094647407532,1.6395962384846492,-0.5599516041971381,-0.11348931287011167,-0.03979498298414107,0.8,0.0,0.0,-0.7,-3.1121862418860253,0.0024747848510742188,0.004850149154663086,0
1.7844302654266357,0.11980067938566208,-0.03959134221076965,-0.6005094647407532,1.6395962384846492,-0.5600976004859403,-0.10834594895643586,-0.043070009742998724,0.8,0.0,0.0,-0.7,-3.1062265867091323,0.0022313594818115234,0.0043947696685791016,0
1.7992677688598633,0.11904372274875641,-0.03767628222703934,-0.6010614633560181,1.6585518561185701,-0.5601498068639926,-0.1045265011966065,-0.04775693380304151,0.8,0.0,0.0,-0.7,-3.1000114678046735,0.0025086402893066406,0.004889965057373047,0
1.8136680126190186,0.11797469854354858,-0.03562072291970253,-0.6017003059387207,1.6823483750003212,-0.5602152587009234,-0.09891335034624522,-0.05290354390348513,0.8,0.0,0.0,-0.7,-3.093979507804185,0.0023965835571289062,0.0047223567962646484,0
1.8283307552337646,0.11797469854354858,-0.03562072291970253,-0.6017003059387207,1.6823483750003212,-0.5602647687062189,-0.09561752667722065,-0.05709878033161558,0.8,0.0,0.0,-0.7,-3.0878375925401897,0.0029327869415283203,0.006481647491455078,0
1.849694013595581,0.11667289584875107,-0.03323841840028763,-0.6025927066802979,1.7138728424218903,-0.5602075953064183,-0.09261544325162158,-0.05757750699694724,0.8,0.0,0.0,-0.7,-3.07888897180336,0.0028107166290283203,0.0050966739654541016,0
1.8644044399261475,0.11582450568675995,-0.03182513639330864,-0.6032050251960754,1.7357793658704441,-0.5601574930658545,-0.08921317286797611,-0.05829404262880301,0.8,0.0,0.0,-0.7,-3.072727082831189,0.002838134765625,0.005231618881225586,0
1.8781919479370117,0.11582450568675995,-0.03182513639330864,-0.6032050251960754,1.7357793658704441,-0.5601169948217272,-0.08694149685459596,-0.059150702099942803,0.8,0.0,0.0,-0.7,-3.066951784980757,0.003000974655151367,0.00535893440246582,0
1.8938441276550293,0.11453447490930557,-0.02996194362640381,-0.6041347980499268,1.767306660388782,-0.5601459816239143,-0.08569528161240911,-0.06474903741080959,0.8,0.0,0.0,-0.7,-3.0603954152721182,0.0026390552520751953,0.0048313140869140625,0
1.907238245010376,0.11453447490930557,-0.02996194362640381,-0.6041347980499268,1.767306660388782,-0.5601686711889864,-0.08544879901001241,-0.06873903259575992,0.8,0.0,0.0,-0.7,-3.0547849005141345,0.0026941299438476562,0.004970073699951172,0
1.921957015991211,0.11334431171417236,-0.028177130967378616,-0.6051653027534485,1.7986798327880436,-0.5600215400582602,-0.0810922800175717,-0.06832735125342508,0.8,0.0,0.0,-0.7,-3.0486195161430327,0.002418041229248047,0.004466056823730469,0
1.936030387878418,0.11334431171417236,-0.028177130967378616,-0.6051653027534485,1.7986798327880436,-0.5599033208810408,-0.07805468297182144,-0.06848814989010424,0.8,0.0,0.0,-0.7,-3.042724475912088,0.002460002899169922,0.004862308502197266,0
1.9515354633331299,0.11261843889951706,-0.027082476764917374,-0.605869710445404,1.81885786502451,-0.5598196676802123,-0.07283267337228623,-0.06454201292646769,0.8,0.0,0.0,-0.7,-3.036229725093171,0.002874612808227539,0.0052983760833740234,0
1.965686559677124,0.11192942410707474,-0.026112914085388184,-0.6065394282341003,1.8406738783310659,-0.5597545931511209,-0.06472747436050717,-0.06332092498193545,0.8,0.0,0.0,-0.7,-3.0303021277178996,0.002404451370239258,0.0047380924224853516,0
1.9800097942352295,0.11192942410707474,-0.026112914085388184,-0.6065394282341003,1.8406738783310659,-0.5597001607042904,-0.05903313167140395,-0.06329674306626938,0.8,0.0,0.0,-0.7,-3.024302425256115,0.0026285648345947266,0.0049326419830322266,0
1.9945478439331055,0.11105690896511078,-0.024746228009462357,-0.6075862646102905,1.871994607296868,-0.5596729648459053,-0.052290597219312174,-0.06827182658454249,0.8,0.0,0.0,-0.7,-3.0182127412389987,0.0027189254760742188,0.0053005218505859375,0
2.009683132171631,0.11105690896511078,-0.024746228009462357,-0.6075862646102905,1.871994607296868,-0.5596513357382839,-0.04816556251409429,-0.0723722106531905,0.8,0.0,0.0,-0.7,-3.0118728865269833,0.0021479129791259766,0.00455474853515625,0
2.0238265991210938,0.11056254804134369,-0.023912372067570686,-0.6082794666290283,1.892109198592194,-0.5596285035010801,-0.04313475635807194,-0.07626599495347353,0.8,0.0,0.0,-0.7,-3.00594848494502,0.002586841583251953,0.004900455474853516,0
2.0387377738952637,0.10999857634305954,-0.023128056898713112,-0.6090333461761475,1.9153414194324279,-0.5595608239443758,-0.03683572822823317,-0.07497516842600994,0.8,0.0,0.0,-0.7,-2.9997025066614302,0.0025298595428466797,0.005018472671508789,0
2.053511142730713,0.10999857634305954,-0.023128056898713112,-0.6090333461761475,1.9153414194324279,-0.5595051095298291,-0.032412005746628655,-0.07469738121178052,0.8,0.0,0.0,-0.7,-2.993514252394468,0.002525806427001953,0.004805803298950195,0
2.0676379203796387,0.10936889797449112,-0.022046277299523354,-0.6100428700447083,1.9497892517742164,-0.5596369887074344,-0.024410574966365665,-0.07500435785458491,0.8,0.0,0.0,-0.7,-2.987596841610366,0.0028133392333984375,0.0049893856048583984,0
2.0830559730529785,0.10936889797449112,-0.022046277299523354,-0.6100428700447083,1.9497892517742164,-0.5597402031057671,-0.01898402586548955,-0.07594945973930879,0.8,0.0,0.0,-0.7,-2.9811385428088695,0.002501964569091797,0.004974365234375,0
2.097435235977173,0.10933254659175873,-0.02098926529288292,-0.6108781695365906,1.979397342766762,-0.5597991747954196,-0.010933734431712909,-0.07748504783464194,0.8,0.0,0.0,-0.7,-2.975115371239978,0.002480030059814453,0.0048274993896484375,0
2.1111702919006348,0.10933254659175873,-0.02098926529288292,-0.6108781695365906,1.979397342766762,-0.5598456854997288,-0.005581399004673386,-0.07927439967864025,0.8,0.0,0.0,-0.7,-2.969362044468539,0.0026237964630126953,0.004903554916381836,0
2.1264102458953857,0.10929415374994278,-0.02026659995317459,-0.611433207988739,1.9978953199166645,-0.5599123353076395,0.0017161444353984848,-0.07815198443606974,0.8,0.0,0.0,-0.7,-2.9629783474670783,0.0025010108947753906,0.004580259323120117,0
2.140338659286499,0.10917437821626663,-0.01952880434691906,-0.6119230389595032,2.0225796142618235,-0.5599470348467838,0.01527769084136877,-0.0767263702949153,0.8,0.0,0.0,-0.7,-2.957144027308987,0.0022830963134765625,0.004492044448852539,0
2.153503894805908,0.10917437821626663,-0.01952880434691906,-0.6119230389595032,2.0225796142618235,-0.5599707737708647,0.024686299225142098,-0.0769369297012306,0.8,0.0,0.0,-0.7,-2.9516293863502465,0.0026636123657226562,0.005120992660522461,0
2.1686630249023438,0.10937507450580597,-0.018527718260884285,-0.6124477386474609,2.05186678791878,-0.5601050540755141,0.03257410892857907,-0.07597328548539709,0.8,0.0,0.0,-0.7,-2.9452795447841433,0.0024826526641845703,0.004548788070678711,0
2.1829957962036133,0.10937507450580597,-0.018527718260884285,-0.6124477386474609,2.05186678791878,-0.5602108017136718,0.03801147695797328,-0.07598009043463391,0.8,0.0,0.0,-0.7,-2.9392758475807232,0.0025262832641601562,0.004956483840942383,0
2.1976613998413086,0.10964560508728027,-0.017525004222989082,-0.6128653287887573,2.0793877247091803,-0.5603960891247909,0.04795937692071204,-0.07655935917406824,0.8,0.0,0.0,-0.7,-2.9331327338942375,0.002565145492553711,0.005332231521606445,0
2.2120258808135986,0.10964560508728027,-0.017525004222989082,-0.6128653287887573,2.0793877247091803,-0.5605443302535517,0.05467874642392428,-0.07778027626079549,0.8,0.0,0.0,-0.7,-2.9271157541748805,0.0025491714477539062,0.004922151565551758,0
2.2263567447662354,0.1101536825299263,-0.01645737700164318,-0.6131889820098877,2.108334523535928,-0.5607866203408685,0.06807115945869285,-0.07429794912715121,0.8,0.0,0.0,-0.7,-2.9211128559197874,0.0025305747985839844,0.0048563480377197266,0
2.239619255065918,0.1101536825299263,-0.01645737700164318,-0.6131889820098877,2.108334523535928,-0.5609765558500709,0.07749029750988018,-0.0729656539843812,0.8,0.0,0.0,-0.7,-2.9155574685963686,0.002338886260986328,0.004652261734008789,0
2.254452705383301,0.11047878861427307,-0.01567617617547512,-0.6133894324302673,2.1295305148199692,-0.561044233822116,0.08467997852620517,-0.07277486402035384,0.8,0.0,0.0,-0.7,-2.9093440474571044,0.002669811248779297,0.005118846893310547,0
2.2702314853668213,0.11087813973426819,-0.014895321801304817,-0.6135560870170593,2.149155318585814,-0.5611056498862045,0.09047278832217501,-0.07222404862990241,0.8,0.0,0.0,-0.7,-2.9027346475532596,0.0022177696228027344,0.004549503326416016,0
2.2846758365631104,0.11109720915555954,-0.014501557685434818,-0.6136313080787659,2.1596183565824165,-0.561153326402935,0.09502548450594508,-0.07110273572657536,0.8,0.0,0.0,-0.7,-2.8966842118727083,0.002676248550415039,0.005024433135986328,0
2.2999749183654785,0.11159078031778336,-0.013639691285789013,-0.6138067841529846,2.1793135453672323,-0.5612241657659358,0.09901597621466438,-0.0712076326842101,0.8,0.0,0.0,-0.7,-2.89027574747311,0.0027053356170654297,0.00506138801574707,0
2.3134524822235107,0.11159078031778336,-0.013639691285789013,-0.6138067841529846,2.1793135453672323,-0.561282972076742,0.10166253828665524,-0.0716307689526501,0.8,0.0,0.0,-0.7,-2.884630278725819,0.0025970935821533203,0.00502324104309082,0
2.3277597427368164,0.11251362413167953,-0.012162909843027592,-0.6140531301498413,2.209528580068592,-0.5614141220688003,0.10103680876540086,-0.07183480921602482,0.8,0.0,0.0,-0.7,-2.878637267456273,0.0024781227111816406,0.004786968231201172,0
2.3417704105377197,0.11251362413167953,-0.012162909843027592,-0.6140531301498413,2.209528580068592,-0.561518115527032,0.10047640607765737,-0.07196600980325536,0.8,0.0,0.0,-0.7,-2.872768492651579,0.0020875930786132812,0.004476070404052734,0
2.3553996086120605,0.1132349893450737,-0.01100954320281744,-0.614274799823761,2.2304840310900613,-0.5614848415414035,0.10136753681020481,-0.07061597743522557,0.8,0.0,0.0,-0.7,-2.8670595075122898,0.0027878284454345703,0.005135536193847656,0
2.370004653930664,0.11400186270475388,-0.009835808537900448,-0.6144593954086304,2.2498893924729892,-0.5614591882521413,0.10358045371585421,-0.06586296624576536,0.8,0.0,0.0,-0.7,-2.8609417604351868,0.0022640228271484375,0.004509925842285156,0
2.3849945068359375,0.11400186270475388,-0.009835808537900448,-0.6144593954086304,2.2498893924729892,-0.5614334116017771,0.10533370961235503,-0.06283307186613134,0.8,0.0,0.0,-0.7,-2.854662825533107,0.0025713443756103516,0.004727363586425781,0
2.3988699913024902,0.11518586426973343,-0.007961017079651356,-0.6148364543914795,2.27986278470181,-0.561407174495286,0.1069224816143932,-0.0594631749910751,0.8,0.0,0.0,-0.7,-2.848850676191091,0.0024652481079101562,0.004746913909912109,0
2.4131133556365967,0.11518586426973343,-0.007961017079651356,-0.6148364543914795,2.27986278470181,-0.5613827094052384,0.10814655790815868,-0.05734381911651787,0.8,0.0,0.0,-0.7,-2.8428844296905,0.002691030502319336,0.0051326751708984375,0
2.4276955127716064,0.11637178808450699,-0.0059350477531552315,-0.6152383089065552,2.3097996270383074,-0.5613442406206116,0.10820823385918099,-0.05395728443582131,0.8,0.0,0.0,-0.7,-2.8367762699933214,0.0024344921112060547,0.004570722579956055,0
2.441620111465454,0.11637178808450699,-0.0059350477531552315,-0.6152383089065552,2.3097996270383074,-0.5613086192055229,0.10837736717700129,-0.051731710969889474,0.8,0.0,0.0,-0.7,-2.8309435477318843,0.0025255680084228516,0.005200862884521484,0
2.456130266189575,0.1176651269197464,-0.003635730594396591,-0.6155043244361877,2.342609616204725,-0.5614283899762472,0.10436182616752551,-0.04461620187082048,0.8,0.0,0.0,-0.7,-2.824865548334051,0.0026907920837402344,0.005007028579711914,0
2.470656633377075,0.1176651269197464,-0.003635730594396591,-0.6155043244361877,2.342609616204725,-0.5615077153618953,0.10190024236055821,-0.03951794252758698,0.8,0.0,0.0,-0.7,-2.8187807578754382,0.0024623870849609375,0.004668474197387695,0
2.485734462738037,0.11851855367422104,-0.0020730977412313223,-0.6155018210411072,2.366757462224306,-0.5617062181070608,0.09509188176140765,-0.03610283404861117,0.8,0.0,0.0,-0.7,-2.8124649714817744,0.002485036849975586,0.004762411117553711,0
2.4999372959136963,0.1189543753862381,-0.0012370719341561198,-0.6154975891113281,2.3757020869949237,-0.5619189928149616,0.09063733430459685,-0.03015727360161149,0.8,0.0,0.0,-0.7,-2.8065157026331327,0.0030596256256103516,0.00530552864074707,0
2.516054153442383,0.12027059495449066,0.0014359073247760534,-0.6154162287712097,2.404431219002455,-0.5621501493589759,0.09113185684297674,-0.02249531955675864,0.8,0.0,0.0,-0.7,-2.7997646891383225,0.00269317626953125,0.005021095275878906,0
2.5300841331481934,0.12027059495449066,0.0014359073247760534,-0.6154162287712097,2.404431219002455,-0.5623228914636894,0.09175416247381307,-0.017262290007432006,0.8,0.0,0.0,-0.7,-2.7938878249818178,0.0027687549591064453,0.005120038986206055,0
2.545132875442505,0.12121259421110153,0.003392255399376154,-0.6152553558349609,2.4223527939894245,-0.5625134251463485,0.09069446986608909,-0.011228405944972493,0.8,0.0,0.0,-0.7,-2.787584222550141,0.002500772476196289,0.00490117073059082,0
2.559969425201416,0.12121259421110153,0.003392255399376154,-0.6152553558349609,2.4223527939894245,-0.5626551024408003,0.090158960416497,-0.007051865542370117,0.8,0.0,0.0,-0.7,-2.7813695031198455,0.002585887908935547,0.004881381988525391,0
2.5741240978240967,0.12233120948076248,0.006296180654317141,-0.6149566769599915,2.450881003993312,-0.5628707807373151,0.0908316423372888,0.0021541039244878327,0.8,0.0,0.0,-0.7,-2.775440407716461,0.0028777122497558594,0.005114316940307617,0
2.5905842781066895,0.12301583588123322,0.008434755727648735,-0.6146908402442932,2.4689844488623742,-0.5629735996183629,0.0942124135102705,0.009488051201333704,0.8,0.0,0.0,-0.7,-2.768545583522787,0.0024216175079345703,0.0075070858001708984,0
2.604607343673706,0.12358339130878448,0.010474512353539467,-0.6145051717758179,2.488496778224023,-0.5630643594244139,0.10243454787451584,0.01959486590042915,0.8,0.0,0.0,-0.7,-2.7626716155539675,0.001626729965209961,0.002862215042114258,0
2.612375020980835,0.12358339130878448,0.010474512353539467,-0.6145051717758179,2.488496778224023,-0.563132523101597,0.10854176342189484,0.02609681277421647,0.8,0.0,0.0,-0.7,-2.759417898492163,0.0015597343444824219,0.0027227401733398438,0
2.6207449436187744,0.12386109679937363,0.011595027521252632,-0.6143907308578491,2.4974417058059752,-0.5630951056579337,0.11603809723807212,0.029904495957284286,0.8,0.0,0.0,-0.7,-2.755911913496101,0.0018489360809326172,0.0031719207763671875,0
2.6292564868927,0.12436260282993317,0.013707348145544529,-0.6142193078994751,2.5167997599007115,-0.5631327615075731,0.11406270220855858,0.03402476824050676,0.8,0.0,0.0,-0.7,-2.7523466065867574,0.0015773773193359375,0.002808094024658203,0
2.6392505168914795,0.12460453063249588,0.014898378401994705,-0.6141335368156433,2.5257023749118264,-0.5631493458996458,0.11444441789854963,0.0358165306122379,0.8,0.0,0.0,-0.7,-2.7481603170902345,0.001809835433959961,0.0031404495239257812,0
2.649010419845581,0.12483414262533188,0.016071494668722153,-0.6140576601028442,2.5361001622331787,-0.5631503763023007,0.11489991672086179,0.035786943389702515,0.8,0.0,0.0,-0.7,-2.744072098500854,0.001194000244140625,0.0024361610412597656,0
2.6593856811523438,0.12504099309444427,0.01724618673324585,-0.6139693856239319,2.5449377053378583,-0.5631512604212597,0.11609195969447854,0.03825658575856255,0.8,0.0,0.0,-0.7,-2.739726119207467,0.0015437602996826172,0.0027341842651367188,0
2.670135974884033,0.12522825598716736,0.018444880843162537,-0.6139076948165894,2.55536202584179,-0.5631734841909212,0.11697297535273113,0.04262426629836541,0.8,0.0,0.0,-0.7,-2.7352230466992795,0.0016627311706542969,0.0027358531951904297,0
2.6795430183410645,0.12539568543434143,0.019645677879452705,-0.6138558387756348,2.5656755684141728,-0.5631604863514329,0.11881220881355156,0.047900405638234875,0.8,0.0,0.0,-0.7,-2.7312826335503986,0.0012252330780029297,0.002415180206298828,0
2.6906843185424805,0.12556123733520508,0.020834866911172867,-0.6137844324111938,2.5746086797719276,-0.563172571278585,0.12024481086352737,0.05172608741708548,0.8,0.0,0.0,-0.7,-2.7266157766351706,0.0015680789947509766,0.0027878284454345703,0
2.6991140842437744,0.12556123733520508,0.020834866911172867,-0.6137844324111938,2.5746086797719276,-0.5631804329997029,0.12135986003158694,0.05422137491920731,0.8,0.0,0.0,-0.7,-2.7230847246353482,0.002321004867553711,0.0037984848022460938,0
2.7098302841186523,0.1258283108472824,0.023219268769025803,-0.6136342287063599,2.5953158612868874,-0.5631180383933748,0.12244002081469772,0.05516772739345171,0.8,0.0,0.0,-0.7,-2.718595933328506,0.0013501644134521484,0.002674102783203125,0
2.720457077026367,0.1259179711341858,0.024444833397865295,-0.6135761737823486,2.6042265954831727,-0.5630582701641486,0.1243405269598719,0.05337193671982284,0.8,0.0,0.0,-0.7,-2.714144592724493,0.0014891624450683594,0.002808094024658203,0
2.729617118835449,0.12599268555641174,0.025666743516921997,-0.6134952902793884,2.6146229388653257,-0.5630404509366808,0.12616534301434718,0.049769394921376796,0.8,0.0,0.0,-0.7,-2.7103076433839615,0.0017914772033691406,0.0030677318572998047,0
2.7394700050354004,0.1260535717010498,0.026878414675593376,-0.6133912205696106,2.6249565345616244,-0.563103137797454,0.12602857964636005,0.046640065285312116,0.8,0.0,0.0,-0.7,-2.7061804760636385,0.0016207695007324219,0.002909421920776367,0
2.7501204013824463,0.1260857880115509,0.028126901015639305,-0.6132919788360596,2.633814086475085,-0.5631860883276555,0.12551208548185128,0.04637020291226763,0.8,0.0,0.0,-0.7,-2.7017192484740784,0.0013887882232666016,0.0025548934936523438,0
2.7597053050994873,0.1260799616575241,0.029377875849604607,-0.6132072806358337,2.644228755002321,-0.5631793253705814,0.12476266610975281,0.04681284270884441,0.8,0.0,0.0,-0.7,-2.6977043333937023,0.0014138221740722656,0.0027141571044921875,0
2.769350528717041,0.12606848776340485,0.030638711526989937,-0.6131203174591064,2.654603758799712,-0.5632780758818637,0.12075374779680188,0.04796847446192772,0.8,0.0,0.0,-0.7,-2.693664151572484,0.0014307498931884766,0.0026559829711914062,0
2.7797024250030518,0.12606848776340485,0.030638711526989937,-0.6131203174591064,2.654603758799712,-0.5633482847116386,0.11796038264055281,0.04885073953965401,0.8,0.0,0.0,-0.7,-2.6893279593961035,0.0015244483947753906,0.0027952194213867188,0
2.7890491485595703,0.12599842250347137,0.03312896937131882,-0.6128818392753601,2.6737525171846466,-0.563395321985853,0.11189954415274667,0.04893624058155926,0.8,0.0,0.0,-0.7,-2.6854128129880643,0.0013914108276367188,0.0026273727416992188,0
2.7995941638946533,0.12591733038425446,0.03439685329794884,-0.6127544641494751,2.684097018040067,-0.5634132376949755,0.10516530053612687,0.04728388793693401,0.8,0.0,0.0,-0.7,-2.6809957272935727,0.0012984275817871094,0.0026094913482666016,0
2.8101937770843506,0.125810444355011,0.03588084876537323,-0.6125699281692505,2.6975323116523295,-0.5635076761258812,0.10225539848753395,0.042858607948136514,0.8,0.0,0.0,-0.7,-2.6765557717032196,0.0016050338745117188,0.0027937889099121094,0
2.8223462104797363,0.12569798529148102,0.037177953869104385,-0.6124233603477478,2.706461232601242,-0.5636104554447483,0.09727189027994478,0.04125654657285355,0.8,0.0,0.0,-0.7,-2.6714653723061286,0.002442598342895508,0.0047760009765625,0
2.834932565689087,0.12569798529148102,0.037177953869104385,-0.6124233603477478,2.706461232601242,-0.5636846446241119,0.09369898528815246,0.0402444373315593,0.8,0.0,0.0,-0.7,-2.6661932121646394,0.002640247344970703,0.005128622055053711,0
2.8496055603027344,0.12539197504520416,0.040018655359745026,-0.6120426058769226,2.7301710274306736,-0.5636974771354697,0.08992950521303583,0.039020372430649375,0.8,0.0,0.0,-0.7,-2.6600470025533864,0.0020971298217773438,0.004206180572509766,0
2.862910270690918,0.12539197504520416,0.040018655359745026,-0.6120426058769226,2.7301710274306736,-0.5637021408734412,0.08723820021229013,0.03818693474960521,0.8,0.0,0.0,-0.7,-2.6544739384982323,0.0024061203002929688,0.004767417907714844,0
2.87691593170166,0.12496953457593918,0.04266999289393425,-0.6116772294044495,2.747825783630319,-0.5637915923107887,0.08354620849440017,0.035098423424683674,0.8,0.0,0.0,-0.7,-2.648607260932897,0.0026519298553466797,0.004826784133911133,0
2.892669439315796,0.12448582798242569,0.04511401429772377,-0.6113390922546387,2.76703229411824,-0.5639773165704556,0.0728336021500934,0.03413911099824197,0.8,0.0,0.0,-0.7,-2.6420084470943848,0.0024933815002441406,0.004747867584228516,0
2.906017780303955,0.12448582798242569,0.04511401429772377,-0.6113390922546387,2.76703229411824,-0.5641061871063057,0.06530518296601966,0.033752112428916285,0.8,0.0,0.0,-0.7,-2.63641710709625,0.0024509429931640625,0.004836320877075195,0
2.920060396194458,0.12344298511743546,0.049045220017433167,-0.6106955409049988,2.7934916967654218,-0.5642922767615902,0.05369512586740953,0.03487266249215008,0.8,0.0,0.0,-0.7,-2.6305349499070783,0.002531290054321289,0.004799842834472656,0
2.934720516204834,0.12269486486911774,0.051363274455070496,-0.6102882027626038,2.81289398856608,-0.5643366801512946,0.05123944457675147,0.03902077089035783,0.8,0.0,0.0,-0.7,-2.6243941331970326,0.002360820770263672,0.004632234573364258,0
2.948136806488037,0.12269486486911774,0.051363274455070496,-0.6102882027626038,2.81289398856608,-0.5643645710969226,0.049591422061711174,0.04183650029570174,0.8,0.0,0.0,-0.7,-2.6187743306647473,0.002736806869506836,0.006788015365600586,0
2.9644412994384766,0.12137696146965027,0.05485820025205612,-0.6096112728118896,2.840850658864425,-0.5645609481066379,0.038906081247415084,0.04451119184505151,0.8,0.0,0.0,-0.7,-2.611944720628266,0.0024461746215820312,0.0047457218170166016,0
2.9787824153900146,0.12137696146965027,0.05485820025205612,-0.6096112728118896,2.840850658864425,-0.5646968040439395,0.03149215982262531,0.046562276043311555,0.8,0.0,0.0,-0.7,-2.6059375280259154,0.0022666454315185547,0.004531383514404297,0
2.9936864376068115,0.11967148631811142,0.05852675437927246,-0.6088106632232666,2.8672375762990616,-0.5647579190751989,0.023164255000577345,0.052306842592244274,0.8,0.0,0.0,-0.7,-2.5996945457985516,0.0025484561920166016,0.004706621170043945,0
3.007692813873291,0.11852601915597916,0.06067551299929619,-0.6083335280418396,2.8864612058763703,-0.5648158149176389,0.017058285943109965,0.05906098607066869,0.8,0.0,0.0,-0.7,-2.5938275686275936,0.0025987625122070312,0.004830121994018555,0
3.022020101547241,0.11852601915597916,0.06067551299929619,-0.6083335280418396,2.8864612058763703,-0.5648479557484342,0.012936207985880382,0.06374316875023461,0.8,0.0,0.0,-0.7,-2.5878261684006136,0.0027801990509033203,0.0052242279052734375,0
3.0365352630615234,0.11643684655427933,0.0641479343175888,-0.6074855327606201,2.9159412838614367,-0.5648167686388202,0.01120404373271051,0.07239521886983039,0.8,0.0,0.0,-0.7,-2.5817460717634217,0.002270936965942383,0.004575014114379883,0
3.050013303756714,0.11643684655427933,0.0641479343175888,-0.6074855327606201,2.9159412838614367,-0.564784072573039,0.010151895188806374,0.07826321172605856,0.8,0.0,0.0,-0.7,-2.576100403279049,0.0024101734161376953,0.0047054290771484375,0
3.065030097961426,0.1149219274520874,0.06641771644353867,-0.6069925427436829,2.934898802135491,-0.5647273064267136,0.012521655769989596,0.08517691720737738,0.8,0.0,0.0,-0.7,-2.56981018323185,0.00217437744140625,0.004063844680786133,0
3.0778918266296387,0.11326704919338226,0.0686216726899147,-0.6064814925193787,2.9553706131788284,-0.5647505180832609,0.013196945644610289,0.08899148334064669,0.8,0.0,0.0,-0.7,-2.5644226749256473,0.002476215362548828,0.004883527755737305,0
3.091820240020752,0.11326704919338226,0.0686216726899147,-0.6064814925193787,2.9553706131788284,-0.5647682748711894,0.013690676804203572,0.09150372452991515,0.8,0.0,0.0,-0.7,-2.558588354767556,0.002653837203979492,0.004866838455200195,0
3.1065616607666016,0.11059928685426712,0.07176371663808823,-0.6058055758476257,2.9846213438561278,-0.5648122269731334,0.007782271780147869,0.09659540646486642,0.8,0.0,0.0,-0.7,-2.552413482885071,0.002514362335205078,0.004973173141479492,0
3.120166063308716,0.11059928685426712,0.07176371663808823,-0.6058055758476257,2.9846213438561278,-0.5648372374125479,0.003759730687151518,0.10009457889490526,0.8,0.0,0.0,-0.7,-2.5467148840740332,0.002533435821533203,0.004868268966674805,0
3.134608745574951,0.10775840282440186,0.07478377223014832,-0.6051630973815918,3.0136861888212314,-0.5647486444064658,0.005647645859007484,0.10676727631304415,0.8,0.0,0.0,-0.7,-2.5406651474732684,0.0022008419036865234,0.00451350212097168,0
3.147578716278076,0.10775840282440186,0.07478377223014832,-0.6051630973815918,3.0136861888212314,-0.5646785081041027,0.007036545380264693,0.11121925447313782,0.8,0.0,0.0,-0.7,-2.5352322988495066,0.0022830963134765625,0.004537343978881836,0
3.161860466003418,0.10574162751436234,0.07667012512683868,-0.6047579646110535,3.032658440403673,-0.5645426723225501,0.012997166502437827,0.1118623176991254,0.8,0.0,0.0,-0.7,-2.5292499735138345,0.0023031234741210938,0.004495382308959961,0
3.176015853881836,0.10574162751436234,0.07667012512683868,-0.6047579646110535,3.032658440403673,-0.5644414691347133,0.01713195476534498,0.11211555376058617,0.8,0.0,0.0,-0.7,-2.5233205785048276,0.002594470977783203,0.004859209060668945,0
3.19113826751709,0.10231177508831024,0.07947462052106857,-0.604177713394165,3.0656984948946637,-0.5643704688894382,0.01697124550765896,0.11648452437779047,0.8,0.0,0.0,-0.7,-2.5169861166940195,0.002584218978881836,0.004553794860839844,0
3.2060208320617676,0.10231177508831024,0.07947462052106857,-0.604177713394165,3.0656984948946637,-0.564313441345746,0.016917039861383484,0.11937021781889744,0.8,0.0,0.0,-0.7,-2.510752122635335,0.0029799938201904297,0.005605220794677734,0
3.2211430072784424,0.09889689087867737,0.08194749057292938,-0.6036741137504578,3.0915264179469046,-0.5641519333388373,0.02198954818674436,0.11784462015270562,0.8,0.0,0.0,-0.7,-2.5044177606930678,0.002804279327392578,0.005160808563232422,0
3.2353034019470215,0.09889689087867737,0.08194749057292938,-0.6036741137504578,3.0915264179469046,-0.5640294708718997,0.02551440908802912,0.11664389215915999,0.8,0.0,0.0,-0.7,-2.4984862684447022,0.0027112960815429688,0.0049746036529541016,0
3.2496159076690674,0.09550351649522781,0.08411430567502975,-0.6032238602638245,3.1187632007211064,-0.5640910265476047,0.022593684386222564,0.11135478936144892,0.8,0.0,0.0,-0.7,-2.4924910600672567,0.002552509307861328,0.004942417144775391,0
3.264163017272949,0.09550351649522781,0.08411430567502975,-0.6032238602638245,3.1187632007211064,-0.5641352726288363,0.02055258341531417,0.10765549542227283,0.8,0.0,0.0,-0.7,-2.4863975810455874,0.0026063919067382812,0.004841327667236328,0
3.2784676551818848,0.09213300794363022,0.08587589114904404,-0.6027331948280334,3.145840486135432,-0.5640861458464105,0.016488435336043834,0.10268732407762815,0.8,0.0,0.0,-0.7,-2.480405668329991,0.0026824474334716797,0.0050373077392578125,0
3.2938077449798584,0.09213300794363022,0.08587589114904404,-0.6027331948280334,3.145840486135432,-0.5640413468256708,0.013707990380034472,0.0991908492349987,0.8,0.0,0.0,-0.7,-2.473980026541361,0.0023365020751953125,0.0045604705810546875,0
3.308359384536743,0.0885307714343071,0.08750137686729431,-0.6022825241088867,3.1729274396252527,-0.5640271225007267,0.012074095708026927,0.09624602150651554,0.8,0.0,0.0,-0.7,-2.467884650017415,0.002262592315673828,0.004567384719848633,0
3.3222274780273438,0.0872180312871933,0.08801370859146118,-0.6021329164505005,3.18142147875935,-0.5639898961616341,0.00787245129214925,0.09494084848660045,0.7998830869325232,0.0,0.0,-0.7,-2.462075596600166,0.002583026885986328,0.005002260208129883,0
3.3374736309051514,0.08452962338924408,0.08898250758647919,-0.6018794178962708,3.1984147627977997,-0.5639157327354548,0.002165933367031021,0.09623403570742867,0.7958236263645867,0.0,0.0,-0.7,-2.4556893030166425,0.002452850341796875,0.0048065185546875,0
3.351228952407837,0.08452962338924408,0.08898250758647919,-0.6018794178962708,3.1984147627977997,-0.5638502010483641,-0.0017186337283848765,0.09702183124554506,0.7951426848161516,0.0,0.0,-0.7,-2.449927487419229,0.002706766128540039,0.004860401153564453,0
3.366288661956787,0.08068133145570755,0.09019825607538223,-0.6015633940696716,3.2254270164495464,-0.5638037510731843,-0.007884310244153845,0.09683326883086561,0.7869020042573062,0.0,0.0,-0.7,-2.443619291034672,0.002537965774536133,0.004901409149169922,0
3.379887819290161,0.08068133145570755,0.09019825607538223,-0.6015633940696716,3.2254270164495464,-0.5637598758488377,-0.012083246428364015,0.09660240980524887,0.7832696785046589,0.0,0.0,-0.7,-2.4379228893315332,0.002189159393310547,0.004728078842163086,0
3.3960142135620117,0.07677880674600601,0.09129128605127335,-0.6013160943984985,3.2523091667630966,-0.5636545652883915,-0.013359835307001262,0.09477741469265726,0.7731793721990771,0.0,0.0,-0.7,-2.4311678810950883,0.002454519271850586,0.004706859588623047,0
3.4110517501831055,0.07407180964946747,0.09209980070590973,-0.6012144088745117,3.2705773125243054,-0.5634105450103559,-0.012232944382455712,0.090394738590277,0.761627693852963,0.0,0.0,-0.7,-2.4248689724848327,0.00257110595703125,0.004839897155761719,0
3.424654006958008,0.07407180964946747,0.09209980070590973,-0.6012144088745117,3.2705773125243054,-0.563216610825444,-0.011344525843599695,0.08731403194754228,0.7556781565086467,0.0,0.0,-0.7,-2.419171272490663,0.0020940303802490234,0.004140615463256836,0
3.4387755393981934,0.07131822407245636,0.09281595796346664,-0.6011004447937012,3.29045602471582,-0.5632319967403968,-0.015267621270149162,0.08235119216546762,0.7462771684242909,0.0,0.0,-0.7,-2.4132560588144605,0.0024504661560058594,0.004826784133911133,0
3.4530420303344727,0.06854567676782608,0.09346166253089905,-0.6009581685066223,3.30893586226877,-0.5633106068877518,-0.023940454153783,0.0779849143351339,0.7350075128393573,0.0,0.0,-0.7,-2.4072801250654043,0.0022962093353271484,0.004663944244384766,0
3.467841625213623,0.06854567676782608,0.09346166253089905,-0.6009581685066223,3.30893586226877,-0.5633624915397583,-0.029870405549266777,0.07487865829456493,0.7294434688568529,0.0,0.0,-0.7,-2.401080885258945,0.0023665428161621094,0.0047473907470703125,0
3.4831786155700684,0.06431589275598526,0.0943736657500267,-0.6006855964660645,3.336944238050124,-0.5633101135664246,-0.031542815257741746,0.07167453407168715,0.7174546259625194,0.0,0.0,-0.7,-2.3946565417613472,0.0021467208862304688,0.0044782161712646484,0
3.4967868328094482,0.062929168343544,0.09465482831001282,-0.6005802154541016,3.3466540186009057,-0.5632818414087176,-0.030817771193496022,0.0690382457517527,0.7075588419959328,0.0,0.0,-0.7,-2.3889563450536553,0.0026068687438964844,0.005109548568725586,0
3.512155771255493,0.06010051071643829,0.09514126926660538,-0.6003174185752869,3.364612639521415,-0.5632873474926084,-0.02726368862631334,0.06591294929050304,0.696311457579324,0.0,0.0,-0.7,-2.3825186191715795,0.0022411346435546875,0.0042877197265625,0
3.525698184967041,0.058683186769485474,0.09538376331329346,-0.6001803874969482,3.3741924700065424,-0.5633842967921784,-0.023410137105799894,0.06195319810893535,0.6869730894277483,0.0,0.0,-0.7,-2.3768459861811695,0.002488374710083008,0.004797458648681641,0
3.5391225814819336,0.058683186769485474,0.09538376331329346,-0.6001803874969482,3.3741924700065424,-0.5634635343874074,-0.020765386840922818,0.05921041117508101,0.6825449309950072,0.0,0.0,-0.7,-2.3712227881184944,0.002556324005126953,0.004859447479248047,0
3.554722547531128,0.05449992045760155,0.0960036888718605,-0.5996788740158081,3.4013221994743237,-0.5635200752016797,-0.01583495057181014,0.05334355380480683,0.6717220084786744,0.0,0.0,-0.7,-2.364688289620308,0.0022916793823242188,0.004600048065185547,0
3.5680058002471924,0.05449992045760155,0.0960036888718605,-0.5996788740158081,3.4013221994743237,-0.5635676095509549,-0.012427205244023985,0.04930174240383427,0.6662324911742113,0.0,0.0,-0.7,-2.359124213733833,0.002518892288208008,0.0046460628509521484,0
3.5830750465393066,0.05006574094295502,0.09652888029813766,-0.5992345213890076,3.4305754220467146,-0.5635805106315908,-0.005898322935908459,0.0461870080326458,0.6537869422692675,0.0,0.0,-0.7,-2.3528120226076408,0.0025022029876708984,0.0049283504486083984,0
3.5973012447357178,0.05006574094295502,0.09652888029813766,-0.5992345213890076,3.4305754220467146,-0.5635953911598952,-0.0013989510466401699,0.044038125554946884,0.6473097040223935,0.0,0.0,-0.7,-2.346852966641993,0.0025191307067871094,0.0045969486236572266,0
