time,x,y,z,yaw,throttle,roll_rate,pitch_rate,yaw_rate,x_ref,y_ref,z_ref,yaw_ref,pred_time,nr_time,metadata
3.0994415283203125e-06,-0.0712297111749649,-0.066803939640522,-0.24116086959838867,0.03017562664022998,-0.5346310915428447,0.020763726849045434,-0.028433965658550796,0.2400000000000001,0.0,0.0,-0.7,-3.8536856901124477,0.0015606880187988281,0.002567768096923828,Hardware
0.01052093505859375,-0.0712297111749649,-0.066803939640522,-0.24116086959838867,0.03017562664022998,-0.5452655136829229,0.02412861244544136,-0.05537005282599549,0.40800000000000014,0.0,0.0,-0.7,-3.849279989431616,0.0015680789947509766,0.0026826858520507812,Nonlinear
0.023241519927978516,-0.0712297111749649,-0.066803939640522,-0.24116086959838867,0.03017562664022998,-0.5536907035236,0.016996858655462105,-0.07496288168958402,0.5256000000000001,0.0,0.0,-0.7,-3.843951603301613,0.0017883777618408203,0.003530740737915039,0OrderHold
0.03393292427062988,-0.07123547047376633,-0.06681633740663528,-0.24115793406963348,0.030264836432062448,-0.5603830230038703,0.00512949280164585,-0.08654034921346052,0.60792,0.0,0.0,-0.7,-3.839473198323022,0.0017311573028564453,0.002867460250854492,QuatYawError
0.042611122131347656,-0.07123547047376633,-0.06681633740663528,-0.24115793406963348,0.030264836432062448,-0.5656880734149643,-0.007058072924271928,-0.09081971435722319,0.6655440000000001,0.0,0.0,-0.7,-3.8358380833036043,0.0015382766723632812,0.0025703907012939453,NoPyJoules
0.05174827575683594,-0.07125113159418106,-0.0668133795261383,-0.24116064608097076,0.03017904149805313,-0.5699461839339103,-0.01740153092838266,-0.08988807803914084,0.7058808000000002,0.0,0.0,-0.7,-3.8320107213429973,0.0019822120666503906,0.003069639205932617,0
0.06039071083068848,-0.07125113159418106,-0.0668133795261383,-0.24116064608097076,0.03017904149805313,-0.573315659690847,-0.024825271984812537,-0.08601959665189016,0.7341165600000001,0.0,0.0,-0.7,-3.8283905866047117,0.002009153366088867,0.0030469894409179688,0
0.07036375999450684,-0.07127969712018967,-0.066818006336689,-0.24117723107337952,0.030118064755883956,-0.5759217137242633,-0.02914084817161669,-0.08249376872969079,0.7538815920000002,0.0,0.0,-0.7,-3.824213085539786,0.0019555091857910156,0.003155946731567383,0
0.08037042617797852,-0.0712992325425148,-0.06683167070150375,-0.24119500815868378,0.030584995033260173,-0.5779482288078989,-0.03072382283413789,-0.07844606235874528,0.7677171144000001,0.0,0.0,-0.7,-3.820021503010597,0.0021038055419921875,0.0032279491424560547,0
0.08972024917602539,-0.07132750749588013,-0.06685052812099457,-0.24122148752212524,0.03154204356302225,-0.5795236979025419,-0.029945159562396302,-0.07488978599880627,0.77740198008,0.0,0.0,-0.7,-3.816105058311526,0.0013308525085449219,0.002460479736328125,0
0.09951448440551758,-0.07134997844696045,-0.06688036024570465,-0.24126045405864716,0.03269780823222385,-0.5807300986579188,-0.029985558493331357,-0.07194641605169073,0.784181386056,0.0,0.0,-0.7,-3.812002458652259,0.0015027523040771484,0.0027289390563964844,0
0.11041474342346191,-0.07135885208845139,-0.06691613793373108,-0.24130967259407043,0.03304400128496889,-0.5816734437394996,-0.028945983138894314,-0.06934216160076113,0.7889269702392,0.0,0.0,-0.7,-3.807436568831859,0.0019211769104003906,0.0031702518463134766,0
0.11965680122375488,-0.07135885208845139,-0.06691613793373108,-0.24130967259407043,0.03304400128496889,-0.5824162186093711,-0.027696327258556582,-0.06760032481717355,0.79224887916744,0.0,0.0,-0.7,-3.8035652647132654,0.001703500747680664,0.0027806758880615234,0
0.1300349235534668,-0.07135002315044403,-0.06696617603302002,-0.24137380719184875,0.032719211972086264,-0.5829596920552039,-0.024238757419684315,-0.06554832468013261,0.7945742154172081,0.0,0.0,-0.7,-3.799218086997388,0.0015883445739746094,0.0027947425842285156,0
0.13940095901489258,-0.0712675005197525,-0.06707631051540375,-0.24151785671710968,0.031850280366175716,-0.5833592792084471,-0.020078291557052444,-0.05993488502995277,0.7962019507920456,0.0,0.0,-0.7,-3.795294851237538,0.002084493637084961,0.003304719924926758,0
0.14967560768127441,-0.0712675005197525,-0.06707631051540375,-0.24151785671710968,0.031850280366175716,-0.5836671647593968,-0.01589940646490505,-0.056926963664184455,0.7973413655544319,0.0,0.0,-0.7,-3.7909910164684018,0.0017199516296386719,0.002822399139404297,0
0.158888578414917,-0.07122170180082321,-0.06713351607322693,-0.2416047900915146,0.032030683742268265,-0.5838529736256194,-0.011431076474821623,-0.0553135687799871,0.7981389558881025,0.0,0.0,-0.7,-3.787131896311795,0.0015952587127685547,0.0025720596313476562,0
0.16925597190856934,-0.07112013548612595,-0.06730662286281586,-0.24190329015254974,0.03391311186333961,-0.5838162699098798,-0.008676894312484106,-0.05381696531230008,0.7986972691216717,0.0,0.0,-0.7,-3.7827892126802576,0.0017528533935546875,0.0026917457580566406,0
0.17885112762451172,-0.07103614509105682,-0.06747518479824066,-0.2421555370092392,0.03572954572490108,-0.583655055706554,-0.006033570431006406,-0.05332022743055686,0.7990880883851702,0.0,0.0,-0.7,-3.7787700032526237,0.001857757568359375,0.003221273422241211,0
0.1894824504852295,-0.07103614509105682,-0.06747518479824066,-0.2421555370092392,0.03572954572490108,-0.5835258808920017,-0.004114054311998628,-0.053648706238023314,0.7993616618696191,0.0,0.0,-0.7,-3.774316765146334,0.0015270709991455078,0.002570629119873047,0
0.1988847255706787,-0.07089918851852417,-0.06773172318935394,-0.24263392388820648,0.03896688357926449,-0.583188561161781,0.00243786007052744,-0.04927798912292407,0.7995531633087334,0.0,0.0,-0.7,-3.7703783493682703,0.0016794204711914062,0.002713918685913086,0
0.2098538875579834,-0.0707966536283493,-0.06796468049287796,-0.243123859167099,0.041523657111326905,-0.5827400658395993,0.008863905482474177,-0.04412844046600293,0.7996872143161133,0.0,0.0,-0.7,-3.7657835975395564,0.0016086101531982422,0.0029306411743164062,0
0.21985507011413574,-0.07068385928869247,-0.06821541488170624,-0.24372784793376923,0.044344136464262,-0.582110738848797,0.014422914675208589,-0.04040536681922134,0.7997810500212793,0.0,0.0,-0.7,-3.761594311986807,0.0016231536865234375,0.002996683120727539,0
0.2304086685180664,-0.07050001621246338,-0.0687493160367012,-0.24513640999794006,0.0513614790643095,-0.5811846041185323,0.025420694005390532,-0.03277565346955198,0.7998467350148956,0.0,0.0,-0.7,-3.757173631024844,0.0019729137420654297,0.0030901432037353516,0
0.23897862434387207,-0.07050001621246338,-0.0687493160367012,-0.24513640999794006,0.0513614790643095,-0.5804366362301422,0.034937133866654785,-0.030335403803081206,0.799892714510427,0.0,0.0,-0.7,-3.7535838563229853,0.0015423297882080078,0.0025501251220703125,0
0.2491745948791504,-0.07038624584674835,-0.06910278648138046,-0.24614426493644714,0.05502142072169893,-0.5795781233143994,0.04389516544008136,-0.028430575899954767,0.7999249001572989,0.0,0.0,-0.7,-3.749312978172339,0.0018301010131835938,0.0031473636627197266,0
0.2601277828216553,-0.07014956325292587,-0.06980741769075394,-0.24859930574893951,0.06303308968671048,-0.5782796150270076,0.05585211891886476,-0.024270883184268063,0.7999474301101092,0.0,0.0,-0.7,-3.744724917535864,0.0019843578338623047,0.0033235549926757812,0
0.2701268196105957,-0.07009079307317734,-0.07013556361198425,-0.24969233572483063,0.0681034996112916,-0.576941018302123,0.0651385028464244,-0.0201978559519883,0.7999632010770764,0.0,0.0,-0.7,-3.7405365307999827,0.002096414566040039,0.003307819366455078,0
0.2805511951446533,-0.06997892260551453,-0.0705886036157608,-0.25135090947151184,0.07269893049184088,-0.5754612760030664,0.07472979950803671,-0.014820737770242915,0.7999742407539535,0.0,0.0,-0.7,-3.736169978587175,0.0018215179443359375,0.002978086471557617,0
0.29006409645080566,-0.06985221058130264,-0.07105604559183121,-0.2531901001930237,0.07742779879804938,-0.5739745845063304,0.08249106484013798,-0.009117653095817569,0.7999819685277675,0.0,0.0,-0.7,-3.732185223806144,0.0013861656188964844,0.0022733211517333984,0
0.3003077507019043,-0.06974182277917862,-0.07154650241136551,-0.2551887035369873,0.08231494256827009,-0.5724603215005276,0.09199395109942601,-0.0045422834580480555,0.7999873779694373,0.0,0.0,-0.7,-3.727894371947322,0.001798391342163086,0.003125429153442383,0
0.3110067844390869,-0.06961550563573837,-0.07190899550914764,-0.25679561495780945,0.08819818091118466,-0.5710201737646202,0.1025927568930864,-0.0022132473556650436,0.7999911645786061,0.0,0.0,-0.7,-3.7234127711754232,0.0044519901275634766,0.005588054656982422,0
0.3218851089477539,-0.06961550563573837,-0.07190899550914764,-0.25679561495780945,0.08819818091118466,-0.5698744494391434,0.11062603059293696,-0.0035733830080566928,0.7999938152050243,0.0,0.0,-0.7,-3.718856069260784,0.002535104751586914,0.0037882328033447266,0
0.3319568634033203,-0.06930729746818542,-0.07305725663900375,-0.26163235306739807,0.09883656906764526,-0.568294194736619,0.1185094788903406,-0.0050083737714826,0.7999956706435171,0.0,0.0,-0.7,-3.7146372226199347,0.0020885467529296875,0.003167867660522461,0
0.3404080867767334,-0.06930729746818542,-0.07305725663900375,-0.26163235306739807,0.09883656906764526,-0.5670427527672163,0.12380428205665837,-0.008396335528355149,0.799996969450462,0.0,0.0,-0.7,-3.711097182451433,0.0015871524810791016,0.002582550048828125,0
0.3498859405517578,-0.06877018511295319,-0.07439973205327988,-0.267782598733902,0.114192195271033,-0.5652797774086628,0.12880871306515715,0.00023248534444815679,0.7999978786153233,0.0,0.0,-0.7,-3.707127108345911,0.0017337799072265625,0.0028159618377685547,0
0.35904788970947266,-0.06853635609149933,-0.07500815391540527,-0.27073225378990173,0.12015859768996057,-0.5635886623445724,0.1348112543316582,0.005851374474258368,0.7999985150307264,0.0,0.0,-0.7,-3.703289360057053,0.0017194747924804688,0.0025856494903564453,0
0.3690199851989746,-0.06816982477903366,-0.07580506056547165,-0.27461007237434387,0.12941450207742178,-0.5618758238165494,0.13625386933024625,0.015077293298193416,0.7999989605215085,0.0,0.0,-0.7,-3.6991122584662905,0.0017132759094238281,0.0026657581329345703,0
0.3790740966796875,-0.06816982477903366,-0.07580506056547165,-0.27461007237434387,0.12941450207742178,-0.5604978861178959,0.1396679381112998,0.020561869000513596,0.7999992723650561,0.0,0.0,-0.7,-3.6949008020974667,0.0014417171478271484,0.0024039745330810547,0
0.3891623020172119,-0.06788064539432526,-0.07650446891784668,-0.27784085273742676,0.13579561889779773,-0.559110654170717,0.14495015060937697,0.025598672426281978,0.7999994906555392,0.0,0.0,-0.7,-3.690675064527297,0.001628875732421875,0.002705812454223633,0
0.39899516105651855,-0.067195363342762,-0.0780416876077652,-0.2847159504890442,0.15107980915320535,-0.5574347549734273,0.1501911121276286,0.03432170781592339,0.7999996434588774,0.0,0.0,-0.7,-3.6865562861644077,0.002055644989013672,0.0033135414123535156,0
0.41062140464782715,-0.067195363342762,-0.0780416876077652,-0.2847159504890442,0.15107980915320535,-0.5560884906966599,0.15614939370115152,0.03854302274443182,0.7999997504212142,0.0,0.0,-0.7,-3.6816862966370345,0.0018603801727294922,0.0029549598693847656,0
0.41908979415893555,-0.067195363342762,-0.0780416876077652,-0.2847159504890442,0.15107980915320535,-0.55501371077536,0.16151163938526708,0.03959866098783332,0.7999998252948499,0.0,0.0,-0.7,-3.6781390659335895,0.0018541812896728516,0.00275421142578125,0
0.4292924404144287,-0.0658704861998558,-0.08045351505279541,-0.29575005173683167,0.1741889571696112,-0.5534085951399993,0.1643848974005712,0.04834673092500497,0.799999877706395,0.0,0.0,-0.7,-3.6738653914637984,0.006200075149536133,0.007315635681152344,0
0.4423520565032959,-0.0658704861998558,-0.08045351505279541,-0.29575005173683167,0.1741889571696112,-0.5521160128036315,0.16874111981697498,0.05313165044141414,0.7999999143944765,0.0,0.0,-0.7,-3.668394992268667,0.0018923282623291016,0.0029113292694091797,0
0.45055246353149414,-0.06481977552175522,-0.0822228193283081,-0.3035896122455597,0.18966843727907087,-0.5505919961146584,0.1690685781573235,0.05898426434805116,0.7999999400761335,0.0,0.0,-0.7,-3.6649600138051692,0.0015306472778320312,0.0026848316192626953,0
0.459932804107666,-0.06481977552175522,-0.0822228193283081,-0.3035896122455597,0.18966843727907087,-0.5493667875118927,0.17100433169366622,0.06240729085293653,0.7999999580532934,0.0,0.0,-0.7,-3.661030785932866,0.0016448497772216797,0.0026886463165283203,0
0.46959519386291504,-0.06423403322696686,-0.08311272412538528,-0.3076457679271698,0.1981940162370129,-0.5481358962229411,0.1708930320350107,0.0657200608644575,0.7999999706373053,0.0,0.0,-0.7,-3.6569834135767048,0.0017600059509277344,0.002698659896850586,0
0.4802734851837158,-0.06360725313425064,-0.08399520069360733,-0.31178945302963257,0.20559072418721153,-0.5469294506851041,0.17057499754804867,0.06891258453657237,0.7999999794461137,0.0,0.0,-0.7,-3.652510501367862,0.0019805431365966797,0.003049612045288086,0
0.4900631904602051,-0.06225079298019409,-0.08586278557777405,-0.32030996680259705,0.22334629431434813,-0.5455679352056304,0.17046308716560044,0.07611718876111556,0.7999999856122795,0.0,0.0,-0.7,-3.6484097992108717,0.00418543815612793,0.005306243896484375,0
0.4998655319213867,-0.06225079298019409,-0.08586278557777405,-0.32030996680259705,0.22334629431434813,-0.5444677073713083,0.1724060593310968,0.08059336487649858,0.7999999899285956,0.0,0.0,-0.7,-3.644303804021215,0.002475261688232422,0.00391387939453125,0
0.5111055374145508,-0.06076155975461006,-0.08790822327136993,-0.3291986882686615,0.24012636583804167,-0.54311395336705,0.17912999012007041,0.08792029020110417,0.7999999929500169,0.0,0.0,-0.7,-3.6395956015300635,0.004405021667480469,0.005484580993652344,0
0.5218920707702637,-0.06076155975461006,-0.08790822327136993,-0.3291986882686615,0.24012636583804167,-0.5420270931654178,0.18586713814392625,0.09087933574126726,0.7999999950650118,0.0,0.0,-0.7,-3.6350773490036623,0.0021209716796875,0.0032427310943603516,0
0.5317535400390625,-0.05922970920801163,-0.09009446948766708,-0.3383699357509613,0.2583785266713162,-0.5407074925937201,0.1935252384789009,0.09401019151018063,0.7999999965455082,0.0,0.0,-0.7,-3.6309465864158676,0.0020978450775146484,0.0030672550201416016,0
0.5406415462493896,-0.05922970920801163,-0.09009446948766708,-0.3383699357509613,0.2583785266713162,-0.5396571527292278,0.19998221214975767,0.09387697184391071,0.7999999975818558,0.0,0.0,-0.7,-3.627223587080478,0.0019354820251464844,0.002965211868286133,0
0.5500562191009521,-0.05845062807202339,-0.09123191982507706,-0.3429713547229767,0.2663519997838769,-0.5386377213678188,0.2050317717745389,0.09344236361562244,0.7999999983072991,0.0,0.0,-0.7,-3.6232799781382887,0.0018007755279541016,0.0029184818267822266,0
0.5593347549438477,-0.05675693601369858,-0.09354810416698456,-0.3522986173629761,0.2851896056401562,-0.53747729179857,0.20904314018459474,0.09506793781911654,0.7999999988151094,0.0,0.0,-0.7,-3.6193933941329406,0.001642465591430664,0.0026493072509765625,0
0.5691893100738525,-0.05675693601369858,-0.09354810416698456,-0.3522986173629761,0.2851896056401562,-0.5365519953798276,0.21260738322210823,0.09477540492503135,0.7999999991705765,0.0,0.0,-0.7,-3.615265527732831,0.0017824172973632812,0.003148317337036133,0
0.5793862342834473,-0.05583921819925308,-0.09471684694290161,-0.3570307195186615,0.2934046848356653,-0.5355807092029022,0.21559117664273328,0.09355273073392084,0.7999999994194036,0.0,0.0,-0.7,-3.610994250108021,0.0015380382537841797,0.0027315616607666016,0
0.589949369430542,-0.0538993738591671,-0.09711599349975586,-0.3666064441204071,0.31282903127654405,-0.5344249109855542,0.21753105895609373,0.09094203123490992,0.7999999995935825,0.0,0.0,-0.7,-3.606569574404423,0.0017428398132324219,0.0027565956115722656,0
0.5990095138549805,-0.0538993738591671,-0.09711599349975586,-0.3666064441204071,0.31282903127654405,-0.5335071257308918,0.21874167918182022,0.08818553442009162,0.7999999997155077,0.0,0.0,-0.7,-3.602774469982519,0.0015480518341064453,0.0025870800018310547,0
0.6097235679626465,-0.05286828801035881,-0.09832949191331863,-0.37145474553108215,0.3213068338252638,-0.5326340201099586,0.21994429690875938,0.08491760379117719,0.7999999998008555,0.0,0.0,-0.7,-3.5982865774925448,0.002629995346069336,0.0038709640502929688,0
0.6200988292694092,-0.05070933699607849,-0.10071499645709991,-0.38123035430908203,0.3412797145707927,-0.5316559294302206,0.2205271998976435,0.08111445511586696,0.7999999998605989,0.0,0.0,-0.7,-3.593940598199158,0.0014262199401855469,0.002439737319946289,0
0.6290531158447266,-0.05070933699607849,-0.10071499645709991,-0.38123035430908203,0.3412797145707927,-0.530879991201913,0.22049017205214144,0.07788712566749006,0.7999999999024193,0.0,0.0,-0.7,-3.590189835409404,0.0023314952850341797,0.0035042762756347656,0
0.6396820545196533,-0.048130448907613754,-0.10335081815719604,-0.3924352526664734,0.36289535094353986,-0.5299831765439504,0.21731119430173887,0.0697573118529423,0.7999999999316935,0.0,0.0,-0.7,-3.5857375959885234,0.0016131401062011719,0.0025305747985839844,0
0.6490509510040283,-0.048130448907613754,-0.10335081815719604,-0.3924352526664734,0.36289535094353986,-0.5292732366183986,0.21369209306395842,0.06438788807496125,0.7999999999521855,0.0,0.0,-0.7,-3.5818131618061826,0.001935720443725586,0.0033333301544189453,0
0.659174919128418,-0.046905238181352615,-0.1045171245932579,-0.39747920632362366,0.37172218883588093,-0.5285541943717746,0.20996267419018189,0.06188743846576777,0.7999999999665299,0.0,0.0,-0.7,-3.5775724439548813,0.002031564712524414,0.0031516551971435547,0
0.6696503162384033,-0.04563423618674278,-0.10568191856145859,-0.4025571346282959,0.38052899250428096,-0.527810576357908,0.2073626304912142,0.06107908494093319,0.799999999976571,0.0,0.0,-0.7,-3.5731845198743257,0.0015060901641845703,0.0026082992553710938,0
0.6789069175720215,-0.043343689292669296,-0.10775744915008545,-0.4114541709423065,0.3999489656323202,-0.5268414552875327,0.21176025756957756,0.0627117390012398,0.7999999999835998,0.0,0.0,-0.7,-3.5693071237747387,0.0016620159149169922,0.0025222301483154297,0
0.6889245510101318,-0.043343689292669296,-0.10775744915008545,-0.4114541709423065,0.3999489656323202,-0.5260674975538352,0.21561783194442669,0.06237709220297758,0.7999999999885199,0.0,0.0,-0.7,-3.565110947292669,0.0014896392822265625,0.0025925636291503906,0
0.6993463039398193,-0.041940122842788696,-0.10892555862665176,-0.416626513004303,0.40906661647337933,-0.525259471390411,0.21940797429840422,0.06042183710108452,0.7999999999919639,0.0,0.0,-0.7,-3.560745493633811,0.0014653205871582031,0.002512693405151367,0
0.711148738861084,-0.03935202956199646,-0.11101748049259186,-0.4257729649543762,0.4286937183350823,-0.5242691584453698,0.21894467619473226,0.06003332444198903,0.7999999999943748,0.0,0.0,-0.7,-3.5558017012547287,0.0017707347869873047,0.003056049346923828,0
0.7191648483276367,-0.03935202956199646,-0.11101748049259186,-0.4257729649543762,0.4286937183350823,-0.5234729325919855,0.21906558236220003,0.05939987032026198,0.7999999999960623,0.0,0.0,-0.7,-3.5524439211733294,0.0027692317962646484,0.004557371139526367,0
0.7295808792114258,-0.03631008416414261,-0.11322347074747086,-0.4363531768321991,0.4469964005634976,-0.5226567905499052,0.21588072957570154,0.05883309368623801,0.7999999999972436,0.0,0.0,-0.7,-3.5480808643594526,0.0012633800506591797,0.00229644775390625,0
0.7389085292816162,-0.03631008416414261,-0.11322347074747086,-0.4363531768321991,0.4469964005634976,-0.5219949226717637,0.21398170452764,0.058711911220330495,0.7999999999980705,0.0,0.0,-0.7,-3.544173707434684,0.0016536712646484375,0.0028581619262695312,0
0.749295711517334,-0.032734133303165436,-0.11568991094827652,-0.44816911220550537,0.47156907112460344,-0.5211841832454452,0.21254141381780808,0.05761498457054144,0.7999999999986493,0.0,0.0,-0.7,-3.5398227347142535,0.0017726421356201172,0.002803802490234375,0
0.7593202590942383,-0.032734133303165436,-0.11568991094827652,-0.44816911220550537,0.47156907112460344,-0.5205310017518697,0.211753849451899,0.05672803134448003,0.7999999999990545,0.0,0.0,-0.7,-3.535623662044498,0.0018305778503417969,0.0028634071350097656,0
0.7699770927429199,-0.031095555052161217,-0.11677863448858261,-0.4533882141113281,0.48088394138471463,-0.5199059966943079,0.20935324369635117,0.05663002156079653,0.7999999999993381,0.0,0.0,-0.7,-3.5311597380043347,0.0016472339630126953,0.0027370452880859375,0
0.7795403003692627,-0.02817792259156704,-0.11885518580675125,-0.462371826171875,0.5011484617216948,-0.5194059334737984,0.20161107105658901,0.05502105721848295,0.7999999999995367,0.0,0.0,-0.7,-3.5271539109611783,0.0015971660614013672,0.002765178680419922,0
0.7898159027099609,-0.026488307863473892,-0.12004166841506958,-0.46747270226478577,0.5104255063214866,-0.5189551640297029,0.1950670279520477,0.05513295369590924,0.7999999999996757,0.0,0.0,-0.7,-3.5228496767178785,0.001220703125,0.0021631717681884766,0
0.7990939617156982,-0.026488307863473892,-0.12004166841506958,-0.46747270226478577,0.5104255063214866,-0.5185778483707306,0.19077008247849578,0.056307541930211286,0.799999999999773,0.0,0.0,-0.7,-3.5189632924496124,0.0013554096221923828,0.002480745315551758,0
0.8100464344024658,-0.022530414164066315,-0.12266910076141357,-0.4788834750652313,0.5340498146357681,-0.518021222476938,0.18657433640160478,0.05724062403287452,0.7999999999998411,0.0,0.0,-0.7,-3.51437553141876,0.0018684864044189453,0.003017902374267578,0
0.8190102577209473,-0.022530414164066315,-0.12266910076141357,-0.4788834750652313,0.5340498146357681,-0.5175621590418326,0.18415909719397616,0.05844270423094943,0.7999999999998888,0.0,0.0,-0.7,-3.510620773887371,0.0015659332275390625,0.0027043819427490234,0
0.8297314643859863,-0.020261250436306,-0.12404869496822357,-0.4851209819316864,0.5481898716107033,-0.5171959637577005,0.1812530124601902,0.062401668825848265,0.7999999999999222,0.0,0.0,-0.7,-3.50612988534117,0.0014462471008300781,0.0023927688598632812,0
0.8388123512268066,-0.018421996384859085,-0.12522703409194946,-0.49005892872810364,0.5575908515801297,-0.5168793877385169,0.1811454654585569,0.0656469442570929,0.7999999999999456,0.0,0.0,-0.7,-3.5023260923562103,0.0030388832092285156,0.004687070846557617,0
0.8506908416748047,-0.018421996384859085,-0.12522703409194946,-0.49005892872810364,0.5575908515801297,-0.5166178132568354,0.18187391843127895,0.06763101875720087,0.799999999999962,0.0,0.0,-0.7,-3.497350441912588,0.004265785217285156,0.007752180099487305,0
0.8719909191131592,-0.012788159772753716,-0.12882517278194427,-0.5044229030609131,0.589260246085218,-0.5164677294996489,0.17929482898455348,0.06378404092339827,0.7999999999999734,0.0,0.0,-0.7,-3.4884282863390905,0.003915071487426758,0.007769107818603516,0
0.8920154571533203,-0.012788159772753716,-0.12882517278194427,-0.5044229030609131,0.589260246085218,-0.5163483070848223,0.1767011049509763,0.061289441530050226,0.7999999999999814,0.0,0.0,-0.7,-3.480040427459291,0.002721071243286133,0.005833625793457031,0
0.9137358665466309,-0.003696188796311617,-0.1342744678258896,-0.5262628793716431,0.6382821121037466,-0.5161467683822681,0.17593940977933273,0.06386177308142534,0.7999999999999869,0.0,0.0,-0.7,-3.470942203648226,0.0037610530853271484,0.006779670715332031,0
0.931058406829834,-0.003696188796311617,-0.1342744678258896,-0.5262628793716431,0.6382821121037466,-0.5159775955771628,0.17595818500043636,0.0654531488373471,0.7999999999999908,0.0,0.0,-0.7,-3.463686154942196,0.003658294677734375,0.007521390914916992,0
0.9537761211395264,0.003066068282350898,-0.13762037456035614,-0.5416603684425354,0.6766590972343572,-0.5158363542198461,0.16302195440159808,0.07050292654158297,0.7999999999999936,0.0,0.0,-0.7,-3.4541701810246384,0.0029883384704589844,0.006673574447631836,0
0.9734435081481934,0.003066068282350898,-0.13762037456035614,-0.5416603684425354,0.6766590972343572,-0.5156802781267419,0.15498533905546752,0.07623913146193227,0.7999999999999955,0.0,0.0,-0.7,-3.4459319252190737,0.004449129104614258,0.008135795593261719,0
0.9930243492126465,0.011023017577826977,-0.14112509787082672,-0.5583436489105225,0.7202603512689661,-0.5156834786355243,0.1416598175165918,0.08294046947398563,0.7999999999999969,0.0,0.0,-0.7,-3.4377299216938475,0.004331350326538086,0.007904052734375,0
1.0156667232513428,0.011023017577826977,-0.14112509787082672,-0.5583436489105225,0.7202603512689661,-0.5156402659684507,0.13353517415298166,0.08985733089730519,0.7999999999999978,0.0,0.0,-0.7,-3.4282455062352075,0.0022735595703125,0.006759166717529297,0
1.0374138355255127,0.017149869352579117,-0.14334872364997864,-0.5702594518661499,0.7528467469012364,-0.5157173680636477,0.12495416795499559,0.0921140436223833,0.7999999999999985,0.0,0.0,-0.7,-3.419136097147564,0.002263307571411133,0.00487828254699707,0
1.050696849822998,0.023281579837203026,-0.14523476362228394,-0.5816110372543335,0.785442892045397,-0.5159182934759843,0.12040155073007917,0.09396726302009636,0.7999999999999989,0.0,0.0,-0.7,-3.4135721211296297,0.0023338794708251953,0.004113674163818359,0
1.0634396076202393,0.023281579837203026,-0.14523476362228394,-0.5816110372543335,0.785442892045397,-0.516066426651998,0.11735779047785702,0.09599387569093688,0.7999999999999993,0.0,0.0,-0.7,-3.408234447225325,0.0014955997467041016,0.004026174545288086,0
1.0756878852844238,0.02943524718284607,-0.14671939611434937,-0.5924076437950134,0.8181313494297894,-0.516313281770574,0.11682051253851762,0.10183328727076574,0.7999999999999995,0.0,0.0,-0.7,-3.4031039006748007,0.0013699531555175781,0.002431631088256836,0
1.086103916168213,0.02943524718284607,-0.14671939611434937,-0.5924076437950134,0.8181313494297894,-0.5165011898436555,0.11727853554140533,0.10590192961548663,0.7999999999999996,0.0,0.0,-0.7,-3.398740843860924,0.002856731414794922,0.005019187927246094,0
1.0981512069702148,0.02943524718284607,-0.14671939611434937,-0.5924076437950134,0.8181313494297894,-0.5166470929608796,0.1181500295292088,0.10850560984907251,0.7999999999999997,0.0,0.0,-0.7,-3.3936944864903604,0.002660989761352539,0.003737211227416992,0
1.1115162372589111,0.03556520491838455,-0.14783930778503418,-0.602624773979187,0.8510152791339716,-0.5169589733924496,0.10932656899615273,0.11405162218551307,0.7999999999999998,0.0,0.0,-0.7,-3.3880961556943636,0.0022935867309570312,0.003902435302734375,0
1.123671054840088,0.03556520491838455,-0.14783930778503418,-0.602624773979187,0.8510152791339716,-0.5171796176214993,0.1038919080108267,0.11945280131224462,0.7999999999999999,0.0,0.0,-0.7,-3.383004757611864,0.0013284683227539062,0.002805948257446289,0
1.1354072093963623,0.040189217776060104,-0.14820702373981476,-0.6100430488586426,0.8754150641177583,-0.5172249019055083,0.09860521952670794,0.1350826383508033,0.8,0.0,0.0,-0.7,-3.3780887286871457,0.0020067691802978516,0.004026889801025391,0
1.148329257965088,0.040189217776060104,-0.14820702373981476,-0.6100430488586426,0.8754150641177583,-0.5172244173143233,0.09765574376501197,0.146702989418728,0.8,0.0,0.0,-0.7,-3.3726759536401008,0.0014231204986572266,0.0037491321563720703,0
1.1628806591033936,0.0442776158452034,-0.1483747512102127,-0.6163727045059204,0.8950268779427356,-0.5172516575282401,0.09788314027920866,0.15456327740182316,0.8,0.0,0.0,-0.7,-3.3665806769846953,0.0020389556884765625,0.0046045780181884766,0
1.1765315532684326,0.04786248877644539,-0.1485808938741684,-0.6216983199119568,0.9161749315713882,-0.517273511219097,0.09633762950480124,0.16353736008596242,0.8,0.0,0.0,-0.7,-3.360862603808186,0.0014727115631103516,0.0032291412353515625,0
1.1879534721374512,0.04989197477698326,-0.14856921136379242,-0.6246897578239441,0.9276760622803784,-0.5173671934659437,0.09510832766354481,0.16963494266825713,0.8,0.0,0.0,-0.7,-3.3560782016203454,0.002298116683959961,0.0040853023529052734,0
1.2013440132141113,0.05393487587571144,-0.14840294420719147,-0.630568265914917,0.9488862036613411,-0.5174665794409627,0.0932016805844431,0.17210164835611327,0.8,0.0,0.0,-0.7,-3.3504691848904753,0.0015115737915039062,0.003675699234008789,0
1.21327543258667,0.05393487587571144,-0.14840294420719147,-0.630568265914917,0.9488862036613411,-0.5175394090863721,0.09221963781024775,0.17398982464940824,0.8,0.0,0.0,-0.7,-3.3454713636307782,0.0019142627716064453,0.0041272640228271484,0
1.229057788848877,0.057933129370212555,-0.14807787537574768,-0.6362909078598022,0.9700931495398979,-0.5177639150457465,0.08972314986232183,0.1744274692862085,0.8,0.0,0.0,-0.7,-3.33886046569882,0.002051115036010742,0.003764629364013672,0
1.2395055294036865,0.06189011037349701,-0.14763538539409637,-0.6418545842170715,0.992939730202626,-0.5179752198496209,0.08850379457767746,0.17535713389056753,0.8,0.0,0.0,-0.7,-3.334484126369006,0.001825094223022461,0.0034563541412353516,0
1.2511711120605469,0.06189011037349701,-0.14763538539409637,-0.6418545842170715,0.992939730202626,-0.5181414070612671,0.08765151005842478,0.1760820372609719,0.8,0.0,0.0,-0.7,-3.329597658532388,0.0021851062774658203,0.0040645599365234375,0
1.2649767398834229,0.06574388593435287,-0.14704787731170654,-0.6472676992416382,1.0140990298023265,-0.5183106316601334,0.08686036713751127,0.1797723841061684,0.8,0.0,0.0,-0.7,-3.323814770672849,0.0019876956939697266,0.003091573715209961,0
1.2747149467468262,0.06574388593435287,-0.14704787731170654,-0.6472676992416382,1.0140990298023265,-0.5184417159758107,0.08680991537087561,0.18234903591674378,0.8,0.0,0.0,-0.7,-3.319735640120688,0.002260923385620117,0.0033774375915527344,0
1.2870311737060547,0.06951455026865005,-0.14627428352832794,-0.652538537979126,1.0355099584522227,-0.5185821723235942,0.08365833643194778,0.18309389972211537,0.8,0.0,0.0,-0.7,-3.314576631036014,0.00191497802734375,0.0036525726318359375,0
1.2957735061645508,0.06951455026865005,-0.14627428352832794,-0.652538537979126,1.0355099584522227,-0.5186865693071631,0.08149079473369783,0.18404138377078275,0.8,0.0,0.0,-0.7,-3.310914651379101,0.0020532608032226562,0.0029294490814208984,0
1.30415678024292,0.07322520762681961,-0.14535805583000183,-0.6576352715492249,1.0585981552130412,-0.518761928695303,0.07590797474469195,0.18157732302883187,0.8,0.0,0.0,-0.7,-3.3074030737447493,0.0014743804931640625,0.003853321075439453,0
1.3150100708007812,0.07322520762681961,-0.14535805583000183,-0.6576352715492249,1.0585981552130412,-0.5188095960965217,0.07156659118852722,0.18067007653680692,0.8,0.0,0.0,-0.7,-3.302856858026902,0.0010180473327636719,0.0018811225891113281,0
1.3240869045257568,0.07585269957780838,-0.14431877434253693,-0.6613253951072693,1.075198063693789,-0.5190205012700724,0.07051267052817443,0.17750333601232193,0.8,0.0,0.0,-0.7,-3.299054762807137,0.002855062484741211,0.00457310676574707,0
1.3339347839355469,0.07585269957780838,-0.14431877434253693,-0.6613253951072693,1.075198063693789,-0.5191892529821723,0.0691105793170945,0.17537843308556142,0.8,0.0,0.0,-0.7,-3.2949296927261726,0.002321004867553711,0.004141330718994141,0
1.346215009689331,0.08108203858137131,-0.14202137291431427,-0.6683669090270996,1.108490161137234,-0.5193855814107992,0.06568858665499475,0.17138313520660187,0.8,0.0,0.0,-0.7,-3.289785763791171,0.0011758804321289062,0.0024449825286865234,0
1.3559224605560303,0.08108203858137131,-0.14202137291431427,-0.6683669090270996,1.108490161137234,-0.5195367434882753,0.06252966537405408,0.16906981102684074,0.8,0.0,0.0,-0.7,-3.2857195162807833,0.002215862274169922,0.003404855728149414,0
1.3655436038970947,0.08108203858137131,-0.14202137291431427,-0.6683669090270996,1.108490161137234,-0.5196516921104823,0.05985782470000265,0.16787578898463587,0.8,0.0,0.0,-0.7,-3.2816894211821936,0.002587556838989258,0.00397491455078125,0
1.377204418182373,0.08609578013420105,-0.13953986763954163,-0.6748642921447754,1.1418602909004023,-0.5198470812248953,0.055887005697837874,0.16329744191669843,0.8,0.0,0.0,-0.7,-3.276804950716393,0.0023534297943115234,0.004252195358276367,0
1.3864772319793701,0.08609578013420105,-0.13953986763954163,-0.6748642921447754,1.1418602909004023,-0.519996354048944,0.052269091232819524,0.16067062048206365,0.8,0.0,0.0,-0.7,-3.272920763556026,0.002091646194458008,0.003918647766113281,0
1.3987724781036377,0.08984757959842682,-0.13806654512882233,-0.6793487071990967,1.1669639806559184,-0.5203649503539441,0.05114130935556296,0.1514382460575984,0.8,0.0,0.0,-0.7,-3.267770542902949,0.0024666786193847656,0.004433155059814453,0
1.412642240524292,0.08984757959842682,-0.13806654512882233,-0.6793487071990967,1.1669639806559184,-0.5206613862133462,0.0486595191263901,0.14508700004570196,0.8,0.0,0.0,-0.7,-3.261960790405914,0.0021712779998779297,0.003656625747680664,0
1.4242284297943115,0.09384150058031082,-0.13736926019191742,-0.6835078001022339,1.191953821618702,-0.5209410875856311,0.04437232981687184,0.13721276491421575,0.8,0.0,0.0,-0.7,-3.257107578793408,0.0025327205657958984,0.004206418991088867,0
1.4350643157958984,0.09384150058031082,-0.13736926019191742,-0.6835078001022339,1.191953821618702,-0.5211588384191094,0.03998482353013479,0.13233800206259064,0.8,0.0,0.0,-0.7,-3.2525686534790452,0.0025641918182373047,0.0038824081420898438,0
1.4470257759094238,0.09763817489147186,-0.13620038330554962,-0.68739253282547,1.2168408069740535,-0.5214884536071382,0.0351876127045572,0.12852334780464322,0.8,0.0,0.0,-0.7,-3.2475582487831973,0.0014011859893798828,0.0031385421752929688,0
1.4570627212524414,0.09763817489147186,-0.13620038330554962,-0.68739253282547,1.2168408069740535,-0.521744288647044,0.031058336306372024,0.12654762995925586,0.8,0.0,0.0,-0.7,-3.2433539829493165,0.0020647048950195312,0.004359006881713867,0
1.4695897102355957,0.10114368796348572,-0.13447324931621552,-0.6911488771438599,1.2417953723543935,-0.5221310327717764,0.02829991400744238,0.11640674214143257,0.8,0.0,0.0,-0.7,-3.238106690074506,0.0016353130340576172,0.003366708755493164,0
1.479660987854004,0.10114368796348572,-0.13447324931621552,-0.6911488771438599,1.2417953723543935,-0.5224390074992558,0.024599589342636296,0.10974631364595731,0.8,0.0,0.0,-0.7,-3.233888043170739,0.0019354820251464844,0.003748178482055664,0
1.4909498691558838,0.1044217199087143,-0.13243402540683746,-0.6946462988853455,1.2665009911275207,-0.5226966768611818,0.01922644925658709,0.10772167633712838,0.8,0.0,0.0,-0.7,-3.2291593676287076,0.002110004425048828,0.003666400909423828,0
1.502169132232666,0.1044217199087143,-0.13243402540683746,-0.6946462988853455,1.2665009911275207,-0.5228936741924548,0.015038224754082044,0.10704075868530595,0.8,0.0,0.0,-0.7,-3.224459853700613,0.0019085407257080078,0.004086494445800781,0
1.5145976543426514,0.10740187019109726,-0.13022953271865845,-0.6979154944419861,1.2911494548311615,-0.5232019926466615,0.015249201740272729,0.10148076400488924,0.8,0.0,0.0,-0.7,-3.2192538065331853,0.002693653106689453,0.004323244094848633,0
1.5251224040985107,0.10740187019109726,-0.13022953271865845,-0.6979154944419861,1.2911494548311615,-0.5234516245456114,0.014389560501152565,0.0975262133002465,0.8,0.0,0.0,-0.7,-3.2148452096646682,0.002391815185546875,0.004626274108886719,0
1.5381159782409668,0.11007419973611832,-0.1276765912771225,-0.7010031342506409,1.315784588472632,-0.5236770925145326,0.01154998151914816,0.09688919826297182,0.8,0.0,0.0,-0.7,-3.2094024740553597,0.0016753673553466797,0.0034859180450439453,0
1.549114465713501,0.11007419973611832,-0.1276765912771225,-0.7010031342506409,1.315784588472632,-0.5238529781263669,0.00935973317181804,0.09677379996110037,0.8,0.0,0.0,-0.7,-3.204795438396118,0.0017352104187011719,0.003355264663696289,0
1.5593795776367188,0.1116790771484375,-0.12602666020393372,-0.702893078327179,1.3321451620601668,-0.524185709983128,0.005534603739744478,0.08917914365858076,0.8,0.0,0.0,-0.7,-3.200495598368617,0.0023088455200195312,0.003282785415649414,0
1.5705046653747559,0.11397343128919601,-0.12341569364070892,-0.7055788040161133,1.3567820248316442,-0.5245007572436179,-0.0038427834640082908,0.08723429335706084,0.8,0.0,0.0,-0.7,-3.195835532514169,0.0025267601013183594,0.003736734390258789,0
1.581202745437622,0.11397343128919601,-0.12341569364070892,-0.7055788040161133,1.3567820248316442,-0.5247371176758141,-0.010789602171490217,0.08716585895080052,0.8,0.0,0.0,-0.7,-3.1913543312164334,0.001977682113647461,0.003463268280029297,0
1.5919468402862549,0.11612817645072937,-0.12082906067371368,-0.7081016302108765,1.3812518117418024,-0.5249571541056308,-0.014182046421475435,0.08003084214051784,0.8,0.0,0.0,-0.7,-3.1868538552903085,0.002197742462158203,0.004009246826171875,0
1.6025221347808838,0.11612817645072937,-0.12082906067371368,-0.7081016302108765,1.3812518117418024,-0.5251296463908394,-0.01765064032618277,0.07551127826176422,0.8,0.0,0.0,-0.7,-3.182424086291125,0.0018274784088134766,0.0038042068481445312,0
1.6149754524230957,0.11806715279817581,-0.11808404326438904,-0.7105315327644348,1.4057148330969587,-0.5253353378757678,-0.024238976062237506,0.07492523665152957,0.8,0.0,0.0,-0.7,-3.1772076527954463,0.002611875534057617,0.004479646682739258,0
1.6258018016815186,0.11806715279817581,-0.11808404326438904,-0.7105315327644348,1.4057148330969587,-0.5254902012401668,-0.028984189108053265,0.07536930419820678,0.8,0.0,0.0,-0.7,-3.1726727222227185,0.0019659996032714844,0.0037920475006103516,0
1.6377053260803223,0.12023528665304184,-0.11528312414884567,-0.7130253314971924,1.4333980403487194,-0.5256710044510515,-0.02879571706444461,0.07094607345697586,0.8,0.0,0.0,-0.7,-3.1676865855823038,0.0023555755615234375,0.003301382064819336,0
1.647618055343628,0.12023528665304184,-0.11528312414884567,-0.7130253314971924,1.4333980403487194,-0.5258171131891022,-0.029359616690799027,0.0678041452000495,0.8,0.0,0.0,-0.7,-3.1635343512582206,0.0014209747314453125,0.003257274627685547,0
1.6593101024627686,0.12171381711959839,-0.1133287101984024,-0.7147133350372314,1.4529141736562023,-0.525923633471009,-0.032318746719363176,0.06447351933613896,0.8,0.0,0.0,-0.7,-3.1586367980135646,0.00182342529296875,0.003524303436279297,0
1.6713027954101562,0.12271770089864731,-0.11144540458917618,-0.7161060571670532,1.4677122946872991,-0.5260362635086969,-0.03737187720534175,0.06649000485322994,0.8,0.0,0.0,-0.7,-3.1536133105388617,0.001127481460571289,0.0021538734436035156,0
1.6811516284942627,0.12271770089864731,-0.11144540458917618,-0.7161060571670532,1.4677122946872991,-0.5261189361616072,-0.04065055306818833,0.06849709544006011,0.8,0.0,0.0,-0.7,-3.149487840983734,0.002219676971435547,0.0036475658416748047,0
1.6910326480865479,0.12271770089864731,-0.11144540458917618,-0.7161060571670532,1.4677122946872991,-0.5261802694429287,-0.042686120897890485,0.07025897370114352,0.8,0.0,0.0,-0.7,-3.145348889175587,0.0018112659454345703,0.0034644603729248047,0
1.7029430866241455,0.12431742250919342,-0.1070740669965744,-0.7188810110092163,1.503536074072612,-0.5263794875640503,-0.04334674997452125,0.06552790006247428,0.8,0.0,0.0,-0.7,-3.1403598563474873,0.0017197132110595703,0.0030126571655273438,0
1.7115352153778076,0.12431742250919342,-0.1070740669965744,-0.7188810110092163,1.503536074072612,-0.5265389259099705,-0.04451361606694898,0.06230854778173259,0.8,0.0,0.0,-0.7,-3.1367607938713267,0.0020589828491210938,0.003583192825317383,0
1.721524715423584,0.12431742250919342,-0.1070740669965744,-0.7188810110092163,1.503536074072612,-0.5266658502676054,-0.04581723521232866,0.060187400100953165,0.8,0.0,0.0,-0.7,-3.1325764018770808,0.0010418891906738281,0.0019271373748779297,0
1.7304999828338623,0.12495609372854233,-0.1050160825252533,-0.7201328277587891,1.5198862449397534,-0.526660534113902,-0.05192357690891798,0.05993971499104539,0.8,0.0,0.0,-0.7,-3.1288168506557295,0.0022056102752685547,0.0032002925872802734,0
1.739126205444336,0.12495609372854233,-0.1050160825252533,-0.7201328277587891,1.5198862449397534,-0.5266489383864178,-0.05617314092008571,0.060511304815505707,0.8,0.0,0.0,-0.7,-3.1252035069782234,0.0024929046630859375,0.004063844680786133,0
1.7501771450042725,0.12598662078380585,-0.10107215493917465,-0.7224183082580566,1.5523297987772693,-0.5267834974729483,-0.05854276508209204,0.05884412533318172,0.8,0.0,0.0,-0.7,-3.1205745002399885,0.001857757568359375,0.002733945846557617,0
1.7597453594207764,0.12598662078380585,-0.10107215493917465,-0.7224183082580566,1.5523297987772693,-0.5268890551674884,-0.060448574919200186,0.057954370040904445,0.8,0.0,0.0,-0.7,-3.116566575957474,0.0016665458679199219,0.003311634063720703,0
1.7703237533569336,0.12598662078380585,-0.10107215493917465,-0.7224183082580566,1.5523297987772693,-0.5269717995065882,-0.061924073500345886,0.057534808268593425,0.8,0.0,0.0,-0.7,-3.1121355086672593,0.0021750926971435547,0.003690481185913086,0
1.7811033725738525,0.12744297087192535,-0.09759227186441422,-0.7245792746543884,1.5845120888015418,-0.5271262599850728,-0.06015874910641053,0.059948683880727965,0.8,0.0,0.0,-0.7,-3.1076201523285434,0.001953125,0.0030875205993652344,0
1.7920053005218506,0.12744297087192535,-0.09759227186441422,-0.7245792746543884,1.5845120888015418,-0.5272508644074625,-0.0587010790595363,0.06134904432312236,0.8,0.0,0.0,-0.7,-3.1030535634283574,0.0022373199462890625,0.003633260726928711,0
1.8027870655059814,0.129108726978302,-0.09543382376432419,-0.7260300517082214,1.6084768025841072,-0.5273202663103976,-0.06133067526716922,0.06290173783999119,0.8,0.0,0.0,-0.7,-3.098537308272774,0.0022258758544921875,0.003165721893310547,0
1.8150207996368408,0.129108726978302,-0.09543382376432419,-0.7260300517082214,1.6084768025841072,-0.5273730555875404,-0.06298082982210192,0.06423900523187154,0.8,0.0,0.0,-0.7,-3.0934128537032435,0.0024471282958984375,0.004211902618408203,0
1.8258211612701416,0.13029593229293823,-0.09333678334951401,-0.7273094058036804,1.6306540666577654,-0.5273656052925119,-0.06363830682381674,0.06526009677188316,0.8,0.0,0.0,-0.7,-3.0888888088014714,0.0018439292907714844,0.003484964370727539,0
1.837332010269165,0.13029593229293823,-0.09333678334951401,-0.7273094058036804,1.6306540666577654,-0.5273589532599009,-0.06396358741930504,0.06598668621815922,0.8,0.0,0.0,-0.7,-3.0840671556478827,0.0010111331939697266,0.002616405487060547,0
1.8468482494354248,0.13111937046051025,-0.09139969944953918,-0.7285100817680359,1.6496241970475694,-0.5273105220553048,-0.06273800156370815,0.06765250024751468,0.8,0.0,0.0,-0.7,-3.0800810027072796,0.002031087875366211,0.0036585330963134766,0
1.858452558517456,0.13147039711475372,-0.08958686888217926,-0.7295376658439636,1.6654914792214697,-0.527325074813731,-0.06606846137949879,0.06376805092106293,0.8,0.0,0.0,-0.7,-3.0752202010856666,0.0024118423461914062,0.003927946090698242,0
1.8680994510650635,0.13147039711475372,-0.08958686888217926,-0.7295376658439636,1.6654914792214697,-0.5273341349423772,-0.06882830342572878,0.061447389042981186,0.8,0.0,0.0,-0.7,-3.071179320184662,0.001703023910522461,0.003296375274658203,0
1.87937331199646,0.1315215677022934,-0.08834178000688553,-0.7302054166793823,1.6764797271867238,-0.5273078285720697,-0.0707153784685115,0.06276059305856876,0.8,0.0,0.0,-0.7,-3.0664569363607064,0.0024106502532958984,0.0034415721893310547,0
1.8906793594360352,0.1314087063074112,-0.08587488532066345,-0.731502115726471,1.6968697608634817,-0.527240978833034,-0.07071491442863308,0.06717941027815102,0.8,0.0,0.0,-0.7,-3.061721070283732,0.0018742084503173828,0.00273895263671875,0
1.9017634391784668,0.13134199380874634,-0.08468585461378098,-0.7321547269821167,1.7079336654481612,-0.5271224352896124,-0.06796467915876134,0.0698630902982357,0.8,0.0,0.0,-0.7,-3.0570781818183153,0.0022912025451660156,0.003263235092163086,0
1.9133377075195312,0.13134199380874634,-0.08468585461378098,-0.7321547269821167,1.7079336654481612,-0.5270291747674547,-0.06571959872605448,0.07133799402089172,0.8,0.0,0.0,-0.7,-3.052229963632853,0.0011744499206542969,0.0029876232147216797,0
1.9232959747314453,0.13116669654846191,-0.08237039297819138,-0.7334544062614441,1.7285329125918072,-0.5270110244741268,-0.06557726731751812,0.06810635061879323,0.8,0.0,0.0,-0.7,-3.048058654417462,0.0010764598846435547,0.0019800662994384766,0
1.9316823482513428,0.13107039034366608,-0.08125511556863785,-0.7340961694717407,1.7395324592410948,-0.5270075491811371,-0.06687351427600993,0.06331696910087192,0.8,0.0,0.0,-0.7,-3.0445457784920795,0.002253293991088867,0.0032126903533935547,0
1.942659854888916,0.13107039034366608,-0.08125511556863785,-0.7340961694717407,1.7395324592410948,-0.5270038029049282,-0.06830397799301774,0.0601238242505997,0.8,0.0,0.0,-0.7,-3.0399475312644353,0.002092599868774414,0.003545045852661133,0
1.953819990158081,0.13066723942756653,-0.07797957956790924,-0.7359585762023926,1.7711031427832642,-0.5270185185255004,-0.07469286513247361,0.05757332053427832,0.8,0.0,0.0,-0.7,-3.0352727847344783,0.0010936260223388672,0.002348184585571289,0
1.963634967803955,0.13066723942756653,-0.07797957956790924,-0.7359585762023926,1.7711031427832642,-0.5270260461823473,-0.07937759159096244,0.056490689132804854,0.8,0.0,0.0,-0.7,-3.031161496512155,0.0013282299041748047,0.0034863948822021484,0
1.9740715026855469,0.13066723942756653,-0.07797957956790924,-0.7359585762023926,1.7711031427832642,-0.527029317437638,-0.08272629557096708,0.0562332979982733,0.8,0.0,0.0,-0.7,-3.0267898510037625,0.0021827220916748047,0.004081249237060547,0
1.9842545986175537,0.13002856075763702,-0.07474753260612488,-0.7377747893333435,1.8025006568882636,-0.5270040543861929,-0.08731787768448036,0.059808755612537415,0.8,0.0,0.0,-0.7,-3.0225243657543235,0.0010075569152832031,0.001821279525756836,0
1.992652177810669,0.13002856075763702,-0.07474753260612488,-0.7377747893333435,1.8025006568882636,-0.526981218551657,-0.09008799056156118,0.06274048028240609,0.8,0.0,0.0,-0.7,-3.0190067960075195,0.0018625259399414062,0.0038297176361083984,0
2.002960205078125,0.13002856075763702,-0.07474753260612488,-0.7377747893333435,1.8025006568882636,-0.5269615753564486,-0.09167059466905092,0.06503199215701684,0.8,0.0,0.0,-0.7,-3.0146889796426604,0.0022051334381103516,0.0040435791015625,0
2.0155861377716064,0.12918463349342346,-0.07170984894037247,-0.739437997341156,1.83405501937601,-0.5268598322381731,-0.09314213564825508,0.0631828398404049,0.8,0.0,0.0,-0.7,-3.0094002413233856,0.00103759765625,0.001871347427368164,0
2.023608446121216,0.12918463349342346,-0.07170984894037247,-0.739437997341156,1.83405501937601,-0.5267777375091992,-0.09432291554511749,0.06204177218552001,0.8,0.0,0.0,-0.7,-3.0060398646599236,0.0020062923431396484,0.0036325454711914062,0
2.0347414016723633,0.12918463349342346,-0.07170984894037247,-0.739437997341156,1.83405501937601,-0.5267115730233072,-0.09523381033738196,0.06135393528554051,0.8,0.0,0.0,-0.7,-3.001376503143627,0.0019335746765136719,0.0038323402404785156,0
2.046311616897583,0.12845392525196075,-0.06971023976802826,-0.7405097484588623,1.8545129565255953,-0.526786215783439,-0.09490871903170127,0.06010301945270289,0.8,0.0,0.0,-0.7,-2.99652998272336,0.0020465850830078125,0.0035037994384765625,0
2.0586178302764893,0.1276693195104599,-0.06779730319976807,-0.7414913177490234,1.8763925153182777,-0.5268834279083668,-0.09055779508657831,0.05870221277964339,0.8,0.0,0.0,-0.7,-2.9913751681174023,0.0011737346649169922,0.002620697021484375,0
2.0678887367248535,0.1276693195104599,-0.06779730319976807,-0.7414913177490234,1.8763925153182777,-0.5269620042458948,-0.08772281592691962,0.057290237097110244,0.8,0.0,0.0,-0.7,-2.9874917799053624,0.0022249221801757812,0.003870725631713867,0
2.078051805496216,0.1276693195104599,-0.06779730319976807,-0.7414913177490234,1.8763925153182777,-0.5270255249981749,-0.08593035069091513,0.05601890002685777,0.8,0.0,0.0,-0.7,-2.983234683613357,0.0012924671173095703,0.002958536148071289,0
2.088205575942993,0.1267198622226715,-0.0655720978975296,-0.7425699234008789,1.8998757321266335,-0.5270036428621155,-0.08548049805877442,0.05701624846103083,0.8,0.0,0.0,-0.7,-2.9789814821944463,0.001062154769897461,0.0019371509552001953,0
2.096961259841919,0.1267198622226715,-0.0655720978975296,-0.7425699234008789,1.8998757321266335,-0.5269862689513541,-0.08506538178413872,0.057642269293713654,0.8,0.0,0.0,-0.7,-2.9753139098992434,0.001123189926147461,0.0020351409912109375,0
2.1069657802581787,0.1260293424129486,-0.06346651911735535,-0.7434768080711365,1.9185766075002377,-0.5269956274624658,-0.08053065864691954,0.06133931056279045,0.8,0.0,0.0,-0.7,-2.971123226186922,0.0012769699096679688,0.003075122833251953,0
2.117886543273926,0.1260293424129486,-0.06346651911735535,-0.7434768080711365,1.9185766075002377,-0.5270040305946218,-0.07704224359657391,0.06341901487745548,0.8,0.0,0.0,-0.7,-2.9665487476720065,0.0016734600067138672,0.003293752670288086,0
2.12947678565979,0.12522262334823608,-0.06113903596997261,-0.7444073557853699,1.9432267121551043,-0.5271273744949226,-0.0700680506711617,0.0622927398859007,0.8,0.0,0.0,-0.7,-2.961693838294306,0.001173257827758789,0.0020368099212646484,0
2.139590263366699,0.12490374594926834,-0.06004120036959648,-0.7448157668113708,1.9540509154885717,-0.5272479486354629,-0.06275877247457988,0.059383240793486974,0.8,0.0,0.0,-0.7,-2.957457514658803,0.002404451370239258,0.003842592239379883,0
2.1502277851104736,0.12490374594926834,-0.06004120036959648,-0.7448157668113708,1.9540509154885717,-0.5273456264185653,-0.05802699843901751,0.05667073380020141,0.8,0.0,0.0,-0.7,-2.9530016799704506,0.0020689964294433594,0.0037131309509277344,0
2.1619300842285156,0.12393324077129364,-0.056751549243927,-0.7460401654243469,1.9848346763548155,-0.527467051205705,-0.05741464327360769,0.05515232074023839,0.8,0.0,0.0,-0.7,-2.9480998323785372,0.0010161399841308594,0.0018711090087890625,0
2.169901132583618,0.12393324077129364,-0.056751549243927,-0.7460401654243469,1.9848346763548155,-0.5275642683907412,-0.05715305274545486,0.054048656127258406,0.8,0.0,0.0,-0.7,-2.9447609274513638,0.0018749237060546875,0.0028710365295410156,0
2.1796813011169434,0.12393324077129364,-0.056751549243927,-0.7460401654243469,1.9848346763548155,-0.5276420648016454,-0.05709126171531032,0.05325804314824685,0.8,0.0,0.0,-0.7,-2.9406642200360085,0.0013866424560546875,0.0031638145446777344,0
2.1921584606170654,0.12309514731168747,-0.05432644486427307,-0.7469016313552856,2.0091630193569254,-0.5276319588767113,-0.05369107148645479,0.05571729283635977,0.8,0.0,0.0,-0.7,-2.935437799686242,0.0010578632354736328,0.0019249916076660156,0
2.201104164123535,0.12273478507995605,-0.053251221776008606,-0.7472875118255615,2.0183594360610346,-0.5276119766826115,-0.04887229575654015,0.05378882055979183,0.8,0.0,0.0,-0.7,-2.9316906321639595,0.0011491775512695312,0.002700328826904297,0
2.212066650390625,0.12273478507995605,-0.053251221776008606,-0.7472875118255615,2.0183594360610346,-0.5275968849215252,-0.045731448289858374,0.05200642178865398,0.8,0.0,0.0,-0.7,-2.9270986766543903,0.0020508766174316406,0.0034742355346679688,0
2.2229647636413574,0.12205128371715546,-0.05111640319228172,-0.7480334639549255,2.0365852493358823,-0.5276277839998362,-0.04192816517973916,0.04795201944348833,0.8,0.0,0.0,-0.7,-2.9225336856508584,0.0028183460235595703,0.00459599494934082,0
2.2345328330993652,0.12205128371715546,-0.05111640319228172,-0.7480334639549255,2.0365852493358823,-0.5276532758335457,-0.039683649568788164,0.04480690025665624,0.8,0.0,0.0,-0.7,-2.917688064047459,0.002087116241455078,0.003412961959838867,0
2.2440686225891113,0.1213577389717102,-0.0481128953397274,-0.7490872144699097,2.0655308304309457,-0.5276846567225352,-0.03760608329992822,0.04039427681114799,0.8,0.0,0.0,-0.7,-2.9136937218865038,0.0023610591888427734,0.004044294357299805,0
2.2551164627075195,0.1213577389717102,-0.0481128953397274,-0.7490872144699097,2.0655308304309457,-0.5277103157077799,-0.03657185471989268,0.037166637271152096,0.8,0.0,0.0,-0.7,-2.9090660134393,0.002896547317504883,0.0047969818115234375,0
2.267375946044922,0.12087024748325348,-0.0462101511657238,-0.749741792678833,2.0853616438925067,-0.5276432016494875,-0.030271837338072382,0.035463690527554693,0.8,0.0,0.0,-0.7,-2.903930773067355,0.0020012855529785156,0.0032112598419189453,0
2.2783055305480957,0.12087024748325348,-0.0462101511657238,-0.749741792678833,2.0853616438925067,-0.5275907704814734,-0.02608762564274599,0.03372790412932923,0.8,0.0,0.0,-0.7,-2.899352599416427,0.0017843246459960938,0.003407716751098633,0
2.2895965576171875,0.12011265754699707,-0.04415092617273331,-0.7504674196243286,2.1036567896712888,-0.5275386429763116,-0.019226859010884556,0.031229213881933653,0.8,0.0,0.0,-0.7,-2.894623025057528,0.0018053054809570312,0.0031807422637939453,0
2.300928831100464,0.11954662203788757,-0.04233293607831001,-0.7510742545127869,2.123588309938524,-0.5275996128955851,-0.02077180177827044,0.026070444390583196,0.8,0.0,0.0,-0.7,-2.889876173441057,0.0018966197967529297,0.0034322738647460938,0
2.312171459197998,0.11954662203788757,-0.04233293607831001,-0.7510742545127869,2.123588309938524,-0.5276483393799434,-0.022277693009485514,0.022638190996089373,0.8,0.0,0.0,-0.7,-2.8851668723959563,0.0023088455200195312,0.004000663757324219,0
2.3234047889709473,0.11876347661018372,-0.04035288468003273,-0.7517886161804199,2.141814338641405,-0.5276152710873352,-0.01966279948628398,0.019782199250823175,0.8,0.0,0.0,-0.7,-2.88046146622395,0.001857757568359375,0.0033943653106689453,0
2.3344664573669434,0.11876347661018372,-0.04035288468003273,-0.7517886161804199,2.141814338641405,-0.5275899310390773,-0.01810837720882303,0.01758419173965007,0.8,0.0,0.0,-0.7,-2.8758279654013754,0.0023784637451171875,0.00391697883605957,0
2.3453619480133057,0.11777498573064804,-0.037562888115644455,-0.752709686756134,2.1708169853931283,-0.5276256485351566,-0.011885809285924065,0.01519522201313595,0.8,0.0,0.0,-0.7,-2.871264072951793,0.0010030269622802734,0.002251863479614258,0
2.3543262481689453,0.11777498573064804,-0.037562888115644455,-0.752709686756134,2.1708169853931283,-0.5276559359814009,-0.007814854459563774,0.013048470199469663,0.8,0.0,0.0,-0.7,-2.867509115683322,0.0010530948638916016,0.0019469261169433594,0
2.3622114658355713,0.11777498573064804,-0.037562888115644455,-0.752709686756134,2.1708169853931283,-0.5276817547618567,-0.0052028858373648545,0.011235757569029262,0.8,0.0,0.0,-0.7,-2.864206163430865,0.0021910667419433594,0.00405573844909668,0
2.3740365505218506,0.11693485081195831,-0.03563492000102997,-0.753355860710144,2.1890572632279572,-0.527679627241582,-0.0049717712479412255,0.008625814191512579,0.8,0.0,0.0,-0.7,-2.8592528835403996,0.0025849342346191406,0.004237651824951172,0
2.3850655555725098,0.11693485081195831,-0.03563492000102997,-0.753355860710144,2.1890572632279572,-0.5276786819700373,-0.005033427805576272,0.006789347505786385,0.8,0.0,0.0,-0.7,-2.8546330647079254,0.002363920211791992,0.003996610641479492,0
2.395953893661499,0.11599812656641006,-0.033098988234996796,-0.7540692090988159,2.2179057248826535,-0.5277953162506017,-0.0037951685678145946,0.0010385385164941386,0.8,0.0,0.0,-0.7,-2.8500721683145693,0.0011172294616699219,0.002285480499267578,0
2.4071149826049805,0.11599812656641006,-0.033098988234996796,-0.7540692090988159,2.2179057248826535,-0.5278903760704335,-0.00341352032339777,-0.0030175865722312286,0.8,0.0,0.0,-0.7,-2.8453970223104488,0.0011823177337646484,0.003326416015625,0
2.41745662689209,0.11542987823486328,-0.03150813281536102,-0.7544544339179993,2.2376466100227237,-0.5280233826435101,-0.0003442526409631933,-0.007662924260628974,0.8,0.0,0.0,-0.7,-2.841065124481326,0.001004934310913086,0.0018303394317626953,0
2.4269368648529053,0.11506827175617218,-0.030651256442070007,-0.7546560764312744,2.2466755884295737,-0.5280615025706495,0.002429714063540334,-0.010596751532898992,0.8,0.0,0.0,-0.7,-2.837094051690395,0.0017497539520263672,0.002691507339477539,0
2.4344875812530518,0.11506827175617218,-0.030651256442070007,-0.7546560764312744,2.2466755884295737,-0.5280939910165168,0.0040964135467535506,-0.012829235715665592,0.8,0.0,0.0,-0.7,-2.83393121500079,0.0025196075439453125,0.0038356781005859375,0
2.445582389831543,0.113986536860466,-0.028022773563861847,-0.7551762461662292,2.2767242466311464,-0.5281198224401248,0.0057453344202649855,-0.010422603234307397,0.8,0.0,0.0,-0.7,-2.8292838324510337,0.0014674663543701172,0.0024175643920898438,0
2.454193115234375,0.113986536860466,-0.028022773563861847,-0.7551762461662292,2.2767242466311464,-0.528139827186188,0.007021432949802432,-0.008905679490170444,0.8,0.0,0.0,-0.7,-2.8256769802286845,0.0023734569549560547,0.003689289093017578,0
2.464338779449463,0.113986536860466,-0.028022773563861847,-0.7551762461662292,2.2767242466311464,-0.5281555627100927,0.007977513131874597,-0.007979530308609368,0.8,0.0,0.0,-0.7,-2.8214271743401635,0.0022068023681640625,0.003765583038330078,0
2.476980686187744,0.11331765353679657,-0.026278765872120857,-0.7554794549942017,2.296160287453479,-0.5282116413057307,0.005362475318112509,-0.00658933202371226,0.8,0.0,0.0,-0.7,-2.81613174482865,0.0020477771759033203,0.003513336181640625,0
2.48616623878479,0.11331765353679657,-0.026278765872120857,-0.7554794549942017,2.296160287453479,-0.5282547249804367,0.0036340634083292067,-0.005468397461509004,0.8,0.0,0.0,-0.7,-2.8122841095542443,0.0010995864868164062,0.001995086669921875,0
2.494267225265503,0.11262441426515579,-0.024459609761834145,-0.7557862401008606,2.316913111550374,-0.5282683209025977,0.002777745160737108,-0.007861515124210376,0.8,0.0,0.0,-0.7,-2.8088907762722926,0.002425670623779297,0.004034757614135742,0
2.5045132637023926,0.11262441426515579,-0.024459609761834145,-0.7557862401008606,2.316913111550374,-0.5282799062982073,0.0019997069251414088,-0.00946886687687287,0.8,0.0,0.0,-0.7,-2.8045989257280617,0.0013873577117919922,0.002233743667602539,0
2.515846014022827,0.1119609996676445,-0.022633466869592667,-0.7560982704162598,2.3361986334453975,-0.5283052926474872,0.0035927115839092852,-0.011881348658558118,0.8,0.0,0.0,-0.7,-2.799851874374509,0.0011920928955078125,0.0030395984649658203,0
2.52402663230896,0.1119609996676445,-0.022633466869592667,-0.7560982704162598,2.3361986334453975,-0.5283272739651407,0.004498632514116569,-0.01365966099369388,0.8,0.0,0.0,-0.7,-2.796425184999904,0.0025224685668945312,0.004456520080566406,0
2.5362138748168945,0.1113613173365593,-0.020850341767072678,-0.7564206719398499,2.3555357186877437,-0.5284289566630862,0.005174214992886074,-0.01306773394527553,0.8,0.0,0.0,-0.7,-2.791320204795845,0.0020020008087158203,0.003131389617919922,0
2.5470659732818604,0.1113613173365593,-0.020850341767072678,-0.7564206719398499,2.3555357186877437,-0.528510151012405,0.005628953404138492,-0.012715594350718168,0.8,0.0,0.0,-0.7,-2.7867744884207024,0.0016789436340332031,0.002843618392944336,0
2.557689905166626,0.11077183485031128,-0.01903507485985756,-0.7567366361618042,2.3762169233989257,-0.5285454816203995,0.006723838813266144,-0.010312660225870119,0.8,0.0,0.0,-0.7,-2.78232434623918,0.0017740726470947266,0.0037081241607666016,0
2.5682389736175537,0.11077183485031128,-0.01903507485985756,-0.7567366361618042,2.3762169233989257,-0.5285726696341918,0.007590096640613107,-0.008754667331004376,0.8,0.0,0.0,-0.7,-2.7779055627794933,0.002025127410888672,0.003504037857055664,0
2.579744577407837,0.10994850844144821,-0.01633533649146557,-0.757205605506897,2.405708634779766,-0.528452289125924,0.008701840520537421,-0.008216068458191115,0.8,0.0,0.0,-0.7,-2.773086106733804,0.0016324520111083984,0.003302335739135742,0
2.5897457599639893,0.10994850844144821,-0.01633533649146557,-0.757205605506897,2.405708634779766,-0.5283561263825499,0.00948181546381179,-0.00796420068173656,0.8,0.0,0.0,-0.7,-2.768896821181055,0.0010895729064941406,0.0029900074005126953,0
2.599449396133423,0.10994850844144821,-0.01633533649146557,-0.757205605506897,2.405708634779766,-0.528279383358825,0.010014932038078156,-0.00788424218464279,0.8,0.0,0.0,-0.7,-2.7648321715673214,0.0010619163513183594,0.0026502609252929688,0
2.611220121383667,0.1092749536037445,-0.014447066932916641,-0.7575669884681702,2.427892373466974,-0.5283884586736479,0.011437845953028056,-0.008652892355528904,0.8,0.0,0.0,-0.7,-2.759901661704176,0.0018067359924316406,0.002738475799560547,0
