time,x,y,z,yaw,throttle,roll_rate,pitch_rate,yaw_rate,x_ref,y_ref,z_ref,yaw_ref,mpc_time,ctrl_callback_time_history,metadata
3.0994415283203125e-06,-0.14208079874515533,0.09105543792247772,-0.23841114342212677,0.010878986768233139,-0.625288737322691,-0.7168395931900835,-0.7999999958156295,-0.05644821165889184,0.0,0.0,-0.6,0.0,0.023070812225341797,0.027443885803222656,Hardware
0.02854299545288086,-0.14208079874515533,0.09105543792247772,-0.23841114342212677,0.010878986768233139,-0.625288737322691,-0.7168395931900835,-0.7999999958156295,-0.05644821165889184,0.0,0.0,-0.6,0.0,0.0009951591491699219,0.0046694278717041016,1x Speed
0.03862953186035156,-0.1420510709285736,0.09113045781850815,-0.23827266693115234,0.010905749029158895,-0.6252298238565868,-0.7173299074403872,-0.7999999951423403,-0.05671448616639048,0.0,0.0,-0.6,0.0,0.0074770450592041016,0.011686325073242188,Horizon:3.0
0.05147743225097656,-0.1420510709285736,0.09113045781850815,-0.23827266693115234,0.010905749029158895,-0.6252298238565868,-0.7173299074403872,-0.7999999951423403,-0.05671448616639048,0.0,0.0,-0.6,0.0,0.0010361671447753906,0.004899501800537109,Num Steps:20
0.05880236625671387,-0.14204265177249908,0.09114581346511841,-0.23823823034763336,0.01093459626057134,-0.625415773832904,-0.7176773961996559,-0.7999999950915369,-0.056653967244723054,0.0,0.0,-0.6,0.0,0.006953239440917969,0.010852575302124023,No Pyjoules
0.07108116149902344,-0.14204265177249908,0.09114581346511841,-0.23823823034763336,0.01093459626057134,-0.625415773832904,-0.7176773961996559,-0.7999999950915369,-0.056653967244723054,0.0,0.0,-0.6,0.0,0.0010516643524169922,0.004912614822387695,0
0.07874560356140137,-0.14202117919921875,0.09120563417673111,-0.2382168471813202,0.010908129425096301,-0.6245772841663432,-0.7313256766579839,-0.7999999742694033,-0.057371922997501386,0.0,0.0,-0.6,0.0,0.008819103240966797,0.012923240661621094,0
0.09311056137084961,-0.14202117919921875,0.09120563417673111,-0.2382168471813202,0.010908129425096301,-0.6245772841663432,-0.7313256766579839,-0.7999999742694033,-0.057371922997501386,0.0,0.0,-0.6,0.0,0.0010113716125488281,0.004828929901123047,0
0.10046768188476562,-0.14202843606472015,0.09125643968582153,-0.23826438188552856,0.011155288969337847,-0.6240558319512564,-0.7338496729144078,-0.7999999748177522,-0.05840586784485188,0.0,0.0,-0.6,0.0,0.00832986831665039,0.012349367141723633,0
0.11415815353393555,-0.14202843606472015,0.09125643968582153,-0.23826438188552856,0.011155288969337847,-0.6240558319512564,-0.7338496729144078,-0.7999999748177522,-0.05840586784485188,0.0,0.0,-0.6,0.0,0.0010607242584228516,0.004779815673828125,0
0.12134528160095215,-0.1419408619403839,0.0912661999464035,-0.23838484287261963,0.01102355538547802,-0.6235748975255904,-0.6937473904397274,-0.7999999907276475,-0.06045809618141449,0.0,0.0,-0.6,0.0,0.008442163467407227,0.012553691864013672,0
0.13615155220031738,-0.14158223569393158,0.09116628766059875,-0.23862324655056,0.01103487372686221,-0.6221323103962569,-0.6361155559683411,-0.7999979658602404,-0.06586582588892735,0.0,0.0,-0.6,0.0,0.008536338806152344,0.01266789436340332,0
0.1505599021911621,-0.14158223569393158,0.09116628766059875,-0.23862324655056,0.01103487372686221,-0.6221323103962569,-0.6361155559683411,-0.7999979658602404,-0.06586582588892735,0.0,0.0,-0.6,0.0,0.0010480880737304688,0.0048370361328125,0
0.15868258476257324,-0.14094889163970947,0.09084977954626083,-0.23918220400810242,0.011883336831280159,-0.6175766690067008,-0.5334106857105678,-0.7704614454716185,-0.07525134614049715,0.0,0.0,-0.6,0.0,0.009076118469238281,0.01290583610534668,0
0.17293477058410645,-0.14094889163970947,0.09084977954626083,-0.23918220400810242,0.011883336831280159,-0.6175766690067008,-0.5334106857105678,-0.7704614454716185,-0.07525134614049715,0.0,0.0,-0.6,0.0,0.0010156631469726562,0.0050868988037109375,0
0.18053817749023438,-0.13994324207305908,0.09013085067272186,-0.24042527377605438,0.013672739794582523,-0.6101390938986696,-0.41609673917450585,-0.6297858332208478,-0.08720231907980498,0.0,0.0,-0.6,0.0,0.009331226348876953,0.013251543045043945,0
0.19576549530029297,-0.13994324207305908,0.09013085067272186,-0.24042527377605438,0.013672739794582523,-0.6101390938986696,-0.41609673917450585,-0.6297858332208478,-0.08720231907980498,0.0,0.0,-0.6,0.0,0.001005411148071289,0.004544734954833984,0
0.2022533416748047,-0.13851161301136017,0.0889609083533287,-0.2425951212644577,0.01655710588546535,-0.6023128091869194,-0.2382125187327439,-0.46061106706029903,-0.10585736042291889,0.0,0.0,-0.6,0.0,0.009490728378295898,0.013432025909423828,0
0.21759557723999023,-0.13851161301136017,0.0889609083533287,-0.2425951212644577,0.01655710588546535,-0.6023128091869194,-0.2382125187327439,-0.46061106706029903,-0.10585736042291889,0.0,0.0,-0.6,0.0,0.0011394023895263672,0.004914522171020508,0
0.2275981903076172,-0.13542777299880981,0.0862470269203186,-0.24763916432857513,0.020864762324330193,-0.5900913490317811,0.10231556662731439,-0.10164912844164706,-0.1330229265053486,0.0,0.0,-0.6,0.0,0.007584333419799805,0.011496305465698242,0
0.24073219299316406,-0.13542777299880981,0.0862470269203186,-0.24763916432857513,0.020864762324330193,-0.5900913490317811,0.10231556662731439,-0.10164912844164706,-0.1330229265053486,0.0,0.0,-0.6,0.0,0.0011816024780273438,0.005326271057128906,0
0.24789905548095703,-0.1327866017818451,0.08381536602973938,-0.25206032395362854,0.023507085657613763,-0.5830328369695759,0.3398077201153783,0.1562258600534822,-0.14946612123341027,0.0,0.0,-0.6,0.0,0.006668567657470703,0.01034688949584961,0
0.26011085510253906,-0.1327866017818451,0.08381536602973938,-0.25206032395362854,0.023507085657613763,-0.5830328369695759,0.3398077201153783,0.1562258600534822,-0.14946612123341027,0.0,0.0,-0.6,0.0,0.0010056495666503906,0.0051381587982177734,0
0.26837992668151855,-0.12988635897636414,0.08103518933057785,-0.25723588466644287,0.026219063564067665,-0.5746876830178325,0.5680332183002048,0.43470067080122193,-0.16633137873355158,0.0,0.0,-0.6,0.0,0.006814479827880859,0.010657310485839844,0
0.2809123992919922,-0.12988635897636414,0.08103518933057785,-0.25723588466644287,0.026219063564067665,-0.5746876830178325,0.5680332183002048,0.43470067080122193,-0.16633137873355158,0.0,0.0,-0.6,0.0,0.0010576248168945312,0.004975318908691406,0
0.2877514362335205,-0.12679345905780792,0.07802671939134598,-0.2630658447742462,0.028957895068294152,-0.5682519537405106,0.7988219838131083,0.7402632089661149,-0.18332750209585377,0.0,0.0,-0.6,0.0,0.011617660522460938,0.01544332504272461,0
0.30501770973205566,-0.12679345905780792,0.07802671939134598,-0.2630658447742462,0.028957895068294152,-0.5682519537405106,0.7988219838131083,0.7402632089661149,-0.18332750209585377,0.0,0.0,-0.6,0.0,0.0010223388671875,0.00503087043762207,0
0.31256651878356934,-0.12348288297653198,0.07472574710845947,-0.269522100687027,0.03158908830251137,-0.5617748799992149,0.7999998149236011,0.7999983050580355,-0.19449363941910872,0.0,0.0,-0.6,0.0,0.008154869079589844,0.012126922607421875,0
0.32666587829589844,-0.1199476569890976,0.07096459716558456,-0.27671539783477783,0.03369829006094377,-0.5521462809376029,0.799999997702833,0.7999999987262066,-0.19908463999842274,0.0,0.0,-0.6,0.0,0.008474588394165039,0.012366056442260742,0
0.3404099941253662,-0.1199476569890976,0.07096459716558456,-0.27671539783477783,0.03369829006094377,-0.5521462809376029,0.799999997702833,0.7999999987262066,-0.19908463999842274,0.0,0.0,-0.6,0.0,0.0011005401611328125,0.005093574523925781,0
0.3478515148162842,-0.11584268510341644,0.06669148057699203,-0.2855667173862457,0.03484990827586307,-0.5410362067123075,0.7999999999976254,0.7999999999993925,-0.1987834157666255,0.0,0.0,-0.6,0.0,0.010669231414794922,0.014517068862915039,0
0.36382436752319336,-0.11584268510341644,0.06669148057699203,-0.2855667173862457,0.03484990827586307,-0.5410362067123075,0.7999999999976254,0.7999999999993925,-0.1987834157666255,0.0,0.0,-0.6,0.0,0.0010254383087158203,0.00492405891418457,0
0.37110090255737305,-0.11219795793294907,0.06290902942419052,-0.2940480709075928,0.03446420305317516,-0.534264709462077,0.7999999985928373,0.7999999788609674,-0.18835686402456578,0.0,0.0,-0.6,0.0,0.010157108306884766,0.014234066009521484,0
0.38713765144348145,-0.11219795793294907,0.06290902942419052,-0.2940480709075928,0.03446420305317516,-0.534264709462077,0.7999999985928373,0.7999999788609674,-0.18835686402456578,0.0,0.0,-0.6,0.0,0.0010044574737548828,0.0049021244049072266,0
0.39435505867004395,-0.10790453851222992,0.05860265716910362,-0.30419719219207764,0.03276513891063371,-0.5274338107143696,0.7999999999994477,0.7999999999998635,-0.17000372231562094,0.0,0.0,-0.6,0.0,0.011599063873291016,0.015964984893798828,0
0.41167616844177246,-0.10790453851222992,0.05860265716910362,-0.30419719219207764,0.03276513891063371,-0.5274338107143696,0.7999999999994477,0.7999999999998635,-0.17000372231562094,0.0,0.0,-0.6,0.0,0.00101470947265625,0.004994869232177734,0
0.41848206520080566,-0.10351316630840302,0.054159145802259445,-0.314619779586792,0.029896783481804436,-0.5240661343362405,0.799999999991052,0.7999999999983659,-0.15657585375533495,0.0,0.0,-0.6,0.0,0.010764122009277344,0.014583826065063477,0
0.4350762367248535,-0.10351316630840302,0.054159145802259445,-0.314619779586792,0.029896783481804436,-0.5240661343362405,0.799999999991052,0.7999999999983659,-0.15657585375533495,0.0,0.0,-0.6,0.0,0.0010213851928710938,0.004888296127319336,0
0.44176554679870605,-0.09923987835645676,0.050077468156814575,-0.3240002691745758,0.02751642333467307,-0.5214531316912631,0.799999999989013,0.799999999998272,-0.13853378208431835,0.0,0.0,-0.6,0.0,0.010669231414794922,0.014490365982055664,0
0.4582359790802002,-0.09923987835645676,0.050077468156814575,-0.3240002691745758,0.02751642333467307,-0.5214531316912631,0.799999999989013,0.799999999998272,-0.13853378208431835,0.0,0.0,-0.6,0.0,0.0010056495666503906,0.0048520565032958984,0
0.46762943267822266,-0.09300926327705383,0.0443534180521965,-0.3368418514728546,0.023630169335117475,-0.5185470578666097,0.7999999998837822,0.7999999999863441,-0.10434100351746917,0.0,0.0,-0.6,0.0,0.01113128662109375,0.015024662017822266,0
0.4846010208129883,-0.09300926327705383,0.0443534180521965,-0.3368418514728546,0.023630169335117475,-0.5185470578666097,0.7999999998837822,0.7999999999863441,-0.10434100351746917,0.0,0.0,-0.6,0.0,0.0009937286376953125,0.004689216613769531,0
0.49146175384521484,-0.08621249347925186,0.03842023387551308,-0.34953373670578003,0.020173708711109604,-0.5177401093908094,0.799999999701477,0.7999999999786808,-0.07160598620090383,0.0,0.0,-0.6,0.0,0.01188206672668457,0.015889406204223633,0
0.5087640285491943,-0.08621249347925186,0.03842023387551308,-0.34953373670578003,0.020173708711109604,-0.5177401093908094,0.799999999701477,0.7999999999786808,-0.07160598620090383,0.0,0.0,-0.6,0.0,0.0010097026824951172,0.004635810852050781,0
0.5176863670349121,-0.08107434958219528,0.03411354869604111,-0.35855832695961,0.018194863241385285,-0.5175316899587062,0.7999994953056575,0.7999999999992367,-0.06257977746615168,0.0,0.0,-0.6,0.0,0.010217666625976562,0.014195680618286133,0
0.5332775115966797,-0.08107434958219528,0.03411354869604111,-0.35855832695961,0.018194863241385285,-0.5175316899587062,0.7999994953056575,0.7999999999992367,-0.06257977746615168,0.0,0.0,-0.6,0.0,0.0010585784912109375,0.004700899124145508,0
0.5407323837280273,-0.07371675223112106,0.0281777773052454,-0.37062206864356995,0.015643784001531904,-0.5176723763245019,0.5556592751849881,0.7999999999627034,-0.06675380147638266,0.0,0.0,-0.6,0.0,0.009409427642822266,0.013536214828491211,0
0.5556001663208008,-0.07371675223112106,0.0281777773052454,-0.37062206864356995,0.015643784001531904,-0.5176723763245019,0.5556592751849881,0.7999999999627034,-0.06675380147638266,0.0,0.0,-0.6,0.0,0.0010328292846679688,0.004680633544921875,0
0.5625095367431641,-0.06622861325740814,0.022520678117871284,-0.38228246569633484,0.013725600853012321,-0.5161170270722539,0.2737220007856136,0.7999999996041095,-0.06636594585039807,0.0,0.0,-0.6,0.0,0.008664369583129883,0.012568473815917969,0
0.5764305591583252,-0.06622861325740814,0.022520678117871284,-0.38228246569633484,0.013725600853012321,-0.5161170270722539,0.2737220007856136,0.7999999996041095,-0.06636594585039807,0.0,0.0,-0.6,0.0,0.0010075569152832031,0.004628896713256836,0
0.5841858386993408,-0.06346319615840912,0.020513737574219704,-0.3864145576953888,0.013147226541000558,-0.5159968378276645,0.2003214492490556,0.7999999998895244,-0.06419801272366056,0.0,0.0,-0.6,0.0,0.008439779281616211,0.012226104736328125,0
0.5983622074127197,-0.05792124941945076,0.016723010689020157,-0.39451390504837036,0.01238723408418928,-0.5162116324958814,0.024187319433299072,0.7999999999965667,-0.0633273103988584,0.0,0.0,-0.6,0.0,0.008350610733032227,0.012361526489257812,0
0.612640380859375,-0.05792124941945076,0.016723010689020157,-0.39451390504837036,0.01238723408418928,-0.5162116324958814,0.024187319433299072,0.7999999999965667,-0.0633273103988584,0.0,0.0,-0.6,0.0,0.0009982585906982422,0.004872798919677734,0
0.6194725036621094,-0.0531197153031826,0.01382130105048418,-0.40143275260925293,0.011581685504067463,-0.515063771529426,-0.11369229263122081,0.7999999999904004,-0.060797275268170095,0.0,0.0,-0.6,0.0,0.008427619934082031,0.012405872344970703,0
0.6331868171691895,-0.0531197153031826,0.01382130105048418,-0.40143275260925293,0.011581685504067463,-0.515063771529426,-0.11369229263122081,0.7999999999904004,-0.060797275268170095,0.0,0.0,-0.6,0.0,0.0010471343994140625,0.004791259765625,0
0.6404588222503662,-0.047758668661117554,0.010640897788107395,-0.40902695059776306,0.01104015573536198,-0.5152862810717805,-0.25216334179974276,0.7999999953968269,-0.061029244261962816,0.0,0.0,-0.6,0.0,0.006860494613647461,0.01073765754699707,0
0.6525089740753174,-0.047758668661117554,0.010640897788107395,-0.40902695059776306,0.01104015573536198,-0.5152862810717805,-0.25216334179974276,0.7999999953968269,-0.061029244261962816,0.0,0.0,-0.6,0.0,0.001027822494506836,0.004925727844238281,0
0.6598641872406006,-0.04318218305706978,0.008035766892135143,-0.41549918055534363,0.01094194491132355,-0.5157290982581381,-0.2447993931590554,0.7999996827555547,-0.06368940905909777,0.0,0.0,-0.6,0.0,0.009330034255981445,0.013239860534667969,0
0.6749906539916992,-0.03815000131726265,0.005157343577593565,-0.4227049946784973,0.011088134333300038,-0.5157508772868387,-0.30740598043420775,0.6782835662377328,-0.06611052231821227,0.0,0.0,-0.6,0.0,0.006799221038818359,0.010721206665039062,0
0.6876828670501709,-0.03815000131726265,0.005157343577593565,-0.4227049946784973,0.011088134333300038,-0.5157508772868387,-0.30740598043420775,0.6782835662377328,-0.06611052231821227,0.0,0.0,-0.6,0.0,0.0009965896606445312,0.004494905471801758,0
0.6976649761199951,-0.03340386971831322,0.002372490242123604,-0.42964911460876465,0.011560151184072236,-0.5153271832964652,-0.33643954456036873,0.47772037515971355,-0.0699835537789726,0.0,0.0,-0.6,0.0,0.005866289138793945,0.010065317153930664,0
0.7093887329101562,-0.03340386971831322,0.002372490242123604,-0.42964911460876465,0.011560151184072236,-0.5153271832964652,-0.33643954456036873,0.47772037515971355,-0.0699835537789726,0.0,0.0,-0.6,0.0,0.0012030601501464844,0.005765199661254883,0
0.7175042629241943,-0.026776108890771866,-0.0014863116666674614,-0.4396565556526184,0.012218902289942692,-0.5132871222289482,-0.3661227756412652,0.13069823758300894,-0.07599411903805295,0.0,0.0,-0.6,0.0,0.00581669807434082,0.009502172470092773,0
0.72845458984375,-0.026776108890771866,-0.0014863116666674614,-0.4396565556526184,0.012218902289942692,-0.5132871222289482,-0.3661227756412652,0.13069823758300894,-0.07599411903805295,0.0,0.0,-0.6,0.0,0.00099945068359375,0.004801273345947266,0
0.7375609874725342,-0.02280278690159321,-0.0037560109049081802,-0.44605574011802673,0.012495781973079463,-0.5129615711296738,-0.3762847006254731,-0.09574478220581477,-0.0788963161485996,0.0,0.0,-0.6,0.0,0.0054700374603271484,0.009198904037475586,0
0.7481768131256104,-0.02280278690159321,-0.0037560109049081802,-0.44605574011802673,0.012495781973079463,-0.5129615711296738,-0.3762847006254731,-0.09574478220581477,-0.0788963161485996,0.0,0.0,-0.6,0.0,0.001004934310913086,0.0045926570892333984,0
0.757673978805542,-0.020964376628398895,-0.00479635875672102,-0.44915589690208435,0.012515924150801742,-0.5132406788259943,-0.38409552277594305,-0.2108365054995986,-0.07952126909631978,0.0,0.0,-0.6,0.0,0.005389690399169922,0.009595394134521484,0
0.7688028812408447,-0.020964376628398895,-0.00479635875672102,-0.44915589690208435,0.012515924150801742,-0.5132406788259943,-0.38409552277594305,-0.2108365054995986,-0.07952126909631978,0.0,0.0,-0.6,0.0,0.0011112689971923828,0.005347013473510742,0
0.7787647247314453,-0.016021914780139923,-0.007501115091145039,-0.4579852521419525,0.012206828089278783,-0.5144116808845861,-0.4193475003263969,-0.47660986286808776,-0.07827323447254389,0.0,0.0,-0.6,0.0,0.0053822994232177734,0.009224653244018555,0
0.7894008159637451,-0.016021914780139923,-0.007501115091145039,-0.4579852521419525,0.012206828089278783,-0.5144116808845861,-0.4193475003263969,-0.47660986286808776,-0.07827323447254389,0.0,0.0,-0.6,0.0,0.0010652542114257812,0.0050241947174072266,0
0.7976412773132324,-0.013149379752576351,-0.008998229168355465,-0.46346449851989746,0.011614823958245589,-0.5154001478933267,-0.4278385429559208,-0.5996149405393407,-0.07465894989699064,0.0,0.0,-0.6,0.0,0.0057027339935302734,0.00950312614440918,0
0.808537483215332,-0.013149379752576351,-0.008998229168355465,-0.46346449851989746,0.011614823958245589,-0.5154001478933267,-0.4278385429559208,-0.5996149405393407,-0.07465894989699064,0.0,0.0,-0.6,0.0,0.000989675521850586,0.0046291351318359375,0
0.8176150321960449,-0.011838337406516075,-0.009669934399425983,-0.46609020233154297,0.011076176736543597,-0.5154468291129628,-0.41736105848820415,-0.6428939306120518,-0.07126849186876415,0.0,0.0,-0.6,0.0,0.005811929702758789,0.00989675521850586,0
0.8290235996246338,-0.011838337406516075,-0.009669934399425983,-0.46609020233154297,0.011076176736543597,-0.5154468291129628,-0.41736105848820415,-0.6428939306120518,-0.07126849186876415,0.0,0.0,-0.6,0.0,0.001129150390625,0.005302906036376953,0
0.8378047943115234,-0.00826734397560358,-0.01140713319182396,-0.47358438372612,0.009009689782239417,-0.5166306956620932,-0.33993900023988877,-0.7353237179408981,-0.05840760626835801,0.0,0.0,-0.6,0.0,0.006772756576538086,0.010826826095581055,0
0.8499171733856201,-0.00826734397560358,-0.01140713319182396,-0.47358438372612,0.009009689782239417,-0.5166306956620932,-0.33993900023988877,-0.7353237179408981,-0.05840760626835801,0.0,0.0,-0.6,0.0,0.0010509490966796875,0.004868507385253906,0
0.8579211235046387,-0.00720466673374176,-0.011893314309418201,-0.475935161113739,0.008150428670218068,-0.5169192061604623,-0.3150003400950652,-0.7641156184882867,-0.05302523705432317,0.0,0.0,-0.6,0.0,0.007691383361816406,0.011696815490722656,0
0.8709850311279297,-0.00720466673374176,-0.011893314309418201,-0.475935161113739,0.008150428670218068,-0.5169192061604623,-0.3150003400950652,-0.7641156184882867,-0.05302523705432317,0.0,0.0,-0.6,0.0,0.001077890396118164,0.004992485046386719,0
0.878821611404419,-0.005012975074350834,-0.012821517884731293,-0.48100852966308594,0.005656913567958421,-0.5171822746909204,-0.2529741611870766,-0.7356973469243783,-0.037005821702642765,0.0,0.0,-0.6,0.0,0.006721019744873047,0.01050877571105957,0
0.8912630081176758,-0.0032661703880876303,-0.013420774601399899,-0.4851490557193756,0.0036600282705528523,-0.5188103615485644,-0.1820450011391566,-0.6787356845790751,-0.02422560148738977,0.0,0.0,-0.6,0.0,0.005210399627685547,0.009010076522827148,0
0.9014945030212402,-0.0032661703880876303,-0.013420774601399899,-0.4851490557193756,0.0036600282705528523,-0.5188103615485644,-0.1820450011391566,-0.6787356845790751,-0.02422560148738977,0.0,0.0,-0.6,0.0,0.0010285377502441406,0.004701852798461914,0
0.9078872203826904,-0.0032661703880876303,-0.013420774601399899,-0.4851490557193756,0.0036600282705528523,-0.5188103615485644,-0.1820450011391566,-0.6787356845790751,-0.02422560148738977,0.0,0.0,-0.6,0.0,0.0010042190551757812,0.004637718200683594,0
0.9177875518798828,-0.0017056518699973822,-0.013840273953974247,-0.4895443022251129,0.0011368745040510097,-0.5197348433843749,-0.1515814627488798,-0.596845730494366,-0.007776778693623271,0.0,0.0,-0.6,0.0,0.006561279296875,0.010817766189575195,0
0.9301803112030029,-0.0017056518699973822,-0.013840273953974247,-0.4895443022251129,0.0011368745040510097,-0.5197348433843749,-0.1515814627488798,-0.596845730494366,-0.007776778693623271,0.0,0.0,-0.6,0.0,0.001077890396118164,0.0050313472747802734,0
0.9376378059387207,-0.000611786381341517,-0.014100363478064537,-0.49347779154777527,-0.000929788155124104,-0.5215598223173917,-0.08245488322030305,-0.6002227666521124,0.005377168580874815,0.0,0.0,-0.6,0.0,0.0052340030670166016,0.009010076522827148,0
0.9480302333831787,-0.000611786381341517,-0.014100363478064537,-0.49347779154777527,-0.000929788155124104,-0.5215598223173917,-0.08245488322030305,-0.6002227666521124,0.005377168580874815,0.0,0.0,-0.6,0.0,0.0010030269622802734,0.004802703857421875,0
0.9590051174163818,0.00015516899293288589,-0.014175168238580227,-0.496509313583374,-0.0022078765758701945,-0.5231143524004942,-0.029964617649189288,-0.49746166849198364,0.01365250084905224,0.0,0.0,-0.6,0.0,0.007525205612182617,0.012814044952392578,0
0.9732685089111328,0.00015516899293288589,-0.014175168238580227,-0.496509313583374,-0.0022078765758701945,-0.5231143524004942,-0.029964617649189288,-0.49746166849198364,0.01365250084905224,0.0,0.0,-0.6,0.0,0.001047372817993164,0.006155967712402344,0
0.9827873706817627,0.0006768453167751431,-0.014141819439828396,-0.4988541007041931,-0.003350340317850301,-0.5251536851788264,0.012923783463937726,-0.4092986721157247,0.021109816762236538,0.0,0.0,-0.6,0.0,0.005415678024291992,0.009964704513549805,0
0.9945952892303467,0.0006768453167751431,-0.014141819439828396,-0.4988541007041931,-0.003350340317850301,-0.5251536851788264,0.012923783463937726,-0.4092986721157247,0.021109816762236538,0.0,0.0,-0.6,0.0,0.0011332035064697266,0.0060100555419921875,0
1.002913236618042,0.0009908369975164533,-0.014056646265089512,-0.5013239979743958,-0.004343086633799229,-0.5268275601518527,0.07121923469548994,-0.31199726272225803,0.027549480373828344,0.0,0.0,-0.6,0.0,0.0053021907806396484,0.010554075241088867,0
1.0154139995574951,0.0009908369975164533,-0.014056646265089512,-0.5013239979743958,-0.004343086633799229,-0.5268275601518527,0.07121923469548994,-0.31199726272225803,0.027549480373828344,0.0,0.0,-0.6,0.0,0.0013210773468017578,0.006626129150390625,0
1.0246360301971436,0.0010298319393768907,-0.013853550888597965,-0.5042984485626221,-0.005691773507883135,-0.5295798804569215,0.1281197144180409,-0.25717649990233143,0.03640876495315383,0.0,0.0,-0.6,0.0,0.006102561950683594,0.010689496994018555,0
1.0372474193572998,0.0010298319393768907,-0.013853550888597965,-0.5042984485626221,-0.005691773507883135,-0.5295798804569215,0.1281197144180409,-0.25717649990233143,0.03640876495315383,0.0,0.0,-0.6,0.0,0.001161813735961914,0.005240440368652344,0
1.0450315475463867,0.000786459946539253,-0.013634715229272842,-0.5063061118125916,-0.006547878291545534,-0.5305294263988337,0.15319957064212245,-0.1752691418648909,0.04201662825822978,0.0,0.0,-0.6,0.0,0.004971981048583984,0.00917196273803711,0
1.0561423301696777,0.000786459946539253,-0.013634715229272842,-0.5063061118125916,-0.006547878291545534,-0.5305294263988337,0.15319957064212245,-0.1752691418648909,0.04201662825822978,0.0,0.0,-0.6,0.0,0.0010800361633300781,0.00480341911315918,0
1.062817096710205,0.00041922423406504095,-0.013380209915339947,-0.5078775882720947,-0.007481194468328699,-0.5312386566585234,0.12313192503540597,-0.07748716476921692,0.04804627502957632,0.0,0.0,-0.6,0.0,0.005156993865966797,0.010151147842407227,0
1.0752463340759277,0.00041922423406504095,-0.013380209915339947,-0.5078775882720947,-0.007481194468328699,-0.5312386566585234,0.12313192503540597,-0.07748716476921692,0.04804627502957632,0.0,0.0,-0.6,0.0,0.0011436939239501953,0.006119728088378906,0
1.0841000080108643,-0.000169986771652475,-0.01308478508144617,-0.5095987319946289,-0.008159764354854302,-0.5320944644155611,0.1480377259759221,-0.00433319191290655,0.052484795784597284,0.0,0.0,-0.6,0.0,0.004647016525268555,0.009189128875732422,0
1.095334529876709,-0.000169986771652475,-0.01308478508144617,-0.5095987319946289,-0.008159764354854302,-0.5320944644155611,0.1480377259759221,-0.00433319191290655,0.052484795784597284,0.0,0.0,-0.6,0.0,0.0010685920715332031,0.005157470703125,0
1.1021537780761719,-0.0007116016349755228,-0.012830942869186401,-0.5109566450119019,-0.008774898842691503,-0.5321851591097676,0.11080549974231595,0.11865856085392755,0.05636626526290977,0.0,0.0,-0.6,0.0,0.004569053649902344,0.008314847946166992,0
1.1123478412628174,-0.0007116016349755228,-0.012830942869186401,-0.5109566450119019,-0.008774898842691503,-0.5321851591097676,0.11080549974231595,0.11865856085392755,0.05636626526290977,0.0,0.0,-0.6,0.0,0.0010654926300048828,0.0049686431884765625,0
1.1196322441101074,-0.0015088414074853063,-0.012740780599415302,-0.5126425623893738,-0.009408034834640519,-0.5333704442600086,0.2213849604115658,0.24639581288112805,0.0607720330448443,0.0,0.0,-0.6,0.0,0.004460811614990234,0.008710861206054688,0
1.12941312789917,-0.0015088414074853063,-0.012740780599415302,-0.5126425623893738,-0.009408034834640519,-0.5333704442600086,0.2213849604115658,0.24639581288112805,0.0607720330448443,0.0,0.0,-0.6,0.0,0.0011219978332519531,0.0047953128814697266,0
1.1384153366088867,-0.0021795493084937334,-0.01265599112957716,-0.5140129327774048,-0.010030429249820444,-0.5339774189705154,0.2518776380058225,0.3513931626519537,0.06493755458346935,0.0,0.0,-0.6,0.0,0.004823923110961914,0.009262800216674805,0
1.149190902709961,-0.0021795493084937334,-0.01265599112957716,-0.5140129327774048,-0.010030429249820444,-0.5339774189705154,0.2518776380058225,0.3513931626519537,0.06493755458346935,0.0,0.0,-0.6,0.0,0.0010800361633300781,0.004971504211425781,0
1.1576814651489258,-0.0024878401309251785,-0.012630012817680836,-0.5146699547767639,-0.010246586442999651,-0.5342175732066216,0.26387549149135026,0.41168439194227446,0.0664031878475145,0.0,0.0,-0.6,0.0,0.005875110626220703,0.010102272033691406,0
1.1691358089447021,-0.0024878401309251785,-0.012630012817680836,-0.5146699547767639,-0.010246586442999651,-0.5342175732066216,0.26387549149135026,0.41168439194227446,0.0664031878475145,0.0,0.0,-0.6,0.0,0.0011050701141357422,0.00518488883972168,0
1.179133415222168,-0.0033001431729644537,-0.012618630193173885,-0.5164626240730286,-0.010888249361227646,-0.5349422436165624,0.26547877315789453,0.5160844456138403,0.07066525891562615,0.0,0.0,-0.6,0.0,0.00489497184753418,0.009453296661376953,0
1.1898775100708008,-0.0033001431729644537,-0.012618630193173885,-0.5164626240730286,-0.010888249361227646,-0.5349422436165624,0.26547877315789453,0.5160844456138403,0.07066525891562615,0.0,0.0,-0.6,0.0,0.0011186599731445312,0.0062520503997802734,0
1.199453592300415,-0.0035735792480409145,-0.012616056017577648,-0.5170596837997437,-0.011071594864386237,-0.5349307423323085,0.251248244350159,0.5179928114670608,0.07183402242168507,0.0,0.0,-0.6,0.0,0.005278587341308594,0.009949445724487305,0
1.211399793624878,-0.0035735792480409145,-0.012616056017577648,-0.5170596837997437,-0.011071594864386237,-0.5349307423323085,0.251248244350159,0.5179928114670608,0.07183402242168507,0.0,0.0,-0.6,0.0,0.0013127326965332031,0.006028652191162109,0
1.2202236652374268,-0.004568194039165974,-0.012573306448757648,-0.5189024209976196,-0.011700376551748416,-0.5338133260918956,0.1856068794915825,0.47248358254643136,0.07567940212396568,0.0,0.0,-0.6,0.0,0.004903316497802734,0.009392738342285156,0
1.2318379878997803,-0.004568194039165974,-0.012573306448757648,-0.5189024209976196,-0.011700376551748416,-0.5338133260918956,0.1856068794915825,0.47248358254643136,0.07567940212396568,0.0,0.0,-0.6,0.0,0.0011141300201416016,0.005353689193725586,0
1.2395594120025635,-0.004928698763251305,-0.01256582885980606,-0.5195319056510925,-0.011812514521240533,-0.5333196848065245,0.15902457052273197,0.4554645019170845,0.07629130794341932,0.0,0.0,-0.6,0.0,0.004599094390869141,0.009180784225463867,0
1.250976800918579,-0.0056059821508824825,-0.012574546970427036,-0.5207961201667786,-0.012092699551239377,-0.5329957397023904,0.09816602799509279,0.42927221197108106,0.07787073925077154,0.0,0.0,-0.6,0.0,0.004546642303466797,0.008916139602661133,0
1.2613451480865479,-0.0056059821508824825,-0.012574546970427036,-0.5207961201667786,-0.012092699551239377,-0.5329957397023904,0.09816602799509279,0.42927221197108106,0.07787073925077154,0.0,0.0,-0.6,0.0,0.0013968944549560547,0.005189180374145508,0
1.269576072692871,-0.0058967676013708115,-0.012597069144248962,-0.5214299559593201,-0.012157753017276658,-0.5331632407554562,0.08051727682867472,0.4689284679229573,0.07822306367213919,0.0,0.0,-0.6,0.0,0.00516057014465332,0.009665727615356445,0
1.2818577289581299,-0.006348143797367811,-0.012792326509952545,-0.5227279663085938,-0.012312449663877607,-0.5326028849005303,0.048901916387276693,0.4747618406421437,0.07916469308987563,0.0,0.0,-0.6,0.0,0.004509925842285156,0.00826406478881836,0
1.2923777103424072,-0.006348143797367811,-0.012792326509952545,-0.5227279663085938,-0.012312449663877607,-0.5326028849005303,0.048901916387276693,0.4747618406421437,0.07916469308987563,0.0,0.0,-0.6,0.0,0.0010716915130615234,0.0048525333404541016,0
1.299708366394043,-0.006528100464493036,-0.012889908626675606,-0.523372232913971,-0.012320660694619076,-0.5321965926982589,0.03723625799024631,0.4797924000193353,0.07920726040822496,0.0,0.0,-0.6,0.0,0.004603862762451172,0.008753538131713867,0
1.3105175495147705,-0.0068189240992069244,-0.013058184646070004,-0.5247265100479126,-0.012056895100762455,-0.5313924294513876,0.017103076322702755,0.47470336405362806,0.07754375919177627,0.0,0.0,-0.6,0.0,0.004347801208496094,0.008991718292236328,0
1.3227365016937256,-0.0068189240992069244,-0.013058184646070004,-0.5247265100479126,-0.012056895100762455,-0.5313924294513876,0.017103076322702755,0.47470336405362806,0.07754375919177627,0.0,0.0,-0.6,0.0,0.001337289810180664,0.006192445755004883,0
1.331479549407959,-0.007002516184002161,-0.01323060691356659,-0.5261837244033813,-0.011566504382809147,-0.5310084230704871,0.0057151964724934615,0.46045631672292886,0.07442529130474859,0.0,0.0,-0.6,0.0,0.004663228988647461,0.010157108306884766,0
1.3435356616973877,-0.007002516184002161,-0.01323060691356659,-0.5261837244033813,-0.011566504382809147,-0.5310084230704871,0.0057151964724934615,0.46045631672292886,0.07442529130474859,0.0,0.0,-0.6,0.0,0.0011088848114013672,0.0050830841064453125,0
1.3508646488189697,-0.007071757223457098,-0.01332026906311512,-0.5269477963447571,-0.011318301084700257,-0.5307035582320491,0.003301931876903675,0.4402217994823876,0.07284560161973576,0.0,0.0,-0.6,0.0,0.004578113555908203,0.008675336837768555,0
1.3610570430755615,-0.007071757223457098,-0.01332026906311512,-0.5269477963447571,-0.011318301084700257,-0.5307035582320491,0.003301931876903675,0.4402217994823876,0.07284560161973576,0.0,0.0,-0.6,0.0,0.0011026859283447266,0.005611419677734375,0
1.3687427043914795,-0.007221332285553217,-0.013626685366034508,-0.5294261574745178,-0.010455597510786464,-0.5292426806731536,0.013176025702926964,0.3571138897163178,0.06730677152562857,0.0,0.0,-0.6,0.0,0.004462480545043945,0.008558273315429688,0
1.3812179565429688,-0.007221332285553217,-0.013626685366034508,-0.5294261574745178,-0.010455597510786464,-0.5292426806731536,0.013176025702926964,0.3571138897163178,0.06730677152562857,0.0,0.0,-0.6,0.0,0.0014102458953857422,0.0066716670989990234,0
1.3894298076629639,-0.007221332285553217,-0.013626685366034508,-0.5294261574745178,-0.010455597510786464,-0.5292426806731536,0.013176025702926964,0.3571138897163178,0.06730677152562857,0.0,0.0,-0.6,0.0,0.0011372566223144531,0.00516200065612793,0
1.399127721786499,-0.00730752432718873,-0.013965878635644913,-0.5321107506752014,-0.009709477998569005,-0.5271502294778603,0.020713839527081515,0.23757577329136695,0.06240451111359999,0.0,0.0,-0.6,0.0,0.005067348480224609,0.009528160095214844,0
1.4103724956512451,-0.00730752432718873,-0.013965878635644913,-0.5321107506752014,-0.009709477998569005,-0.5271502294778603,0.020713839527081515,0.23757577329136695,0.06240451111359999,0.0,0.0,-0.6,0.0,0.0014264583587646484,0.006242513656616211,0
1.4188306331634521,-0.00730752432718873,-0.013965878635644913,-0.5321107506752014,-0.009709477998569005,-0.5271502294778603,0.020713839527081515,0.23757577329136695,0.06240451111359999,0.0,0.0,-0.6,0.0,0.0015156269073486328,0.005829572677612305,0
1.428657054901123,-0.007456816732883453,-0.014290359802544117,-0.5348110198974609,-0.00881557885549112,-0.5254250812519546,-0.001803879174803889,0.0509701136873062,0.05643122872215635,0.0,0.0,-0.6,0.0,0.004976987838745117,0.009339094161987305,0
1.4405992031097412,-0.007456816732883453,-0.014290359802544117,-0.5348110198974609,-0.00881557885549112,-0.5254250812519546,-0.001803879174803889,0.0509701136873062,0.05643122872215635,0.0,0.0,-0.6,0.0,0.0013043880462646484,0.006383419036865234,0
1.448540449142456,-0.007456816732883453,-0.014290359802544117,-0.5348110198974609,-0.00881557885549112,-0.5254250812519546,-0.001803879174803889,0.0509701136873062,0.05643122872215635,0.0,0.0,-0.6,0.0,0.0011327266693115234,0.005335330963134766,0
1.4578485488891602,-0.00760226882994175,-0.014466596767306328,-0.5366387367248535,-0.008223583088974622,-0.5250742214089726,-0.022469327470128385,-0.09609419065074024,0.05246448632600892,0.0,0.0,-0.6,0.0,0.005597591400146484,0.009727716445922852,0
1.4694874286651611,-0.00760226882994175,-0.014466596767306328,-0.5366387367248535,-0.008223583088974622,-0.5250742214089726,-0.022469327470128385,-0.09609419065074024,0.05246448632600892,0.0,0.0,-0.6,0.0,0.0018084049224853516,0.006110668182373047,0
1.4798610210418701,-0.007852157577872276,-0.014606248587369919,-0.5386481881141663,-0.0073483071871986196,-0.5259949088096004,0.04610266069586328,-0.3449784071177019,0.04657308747886632,0.0,0.0,-0.6,0.0,0.006060600280761719,0.010775089263916016,0
1.4928131103515625,-0.007852157577872276,-0.014606248587369919,-0.5386481881141663,-0.0073483071871986196,-0.5259949088096004,0.04610266069586328,-0.3449784071177019,0.04657308747886632,0.0,0.0,-0.6,0.0,0.0011014938354492188,0.0052280426025390625,0
1.5008149147033691,-0.008063974790275097,-0.01466657780110836,-0.5402923822402954,-0.006481552291568809,-0.525898245851989,-0.02716959765806194,-0.3075035761297605,0.04110331762379601,0.0,0.0,-0.6,0.0,0.0045795440673828125,0.009766817092895508,0
1.5136103630065918,-0.008178908377885818,-0.014707474038004875,-0.5412108302116394,-0.006161451971084478,-0.5259701475402666,-0.017675317778032336,-0.3362120829643338,0.03902467819907445,0.0,0.0,-0.6,0.0,0.004953861236572266,0.00989842414855957,0
1.525993824005127,-0.008476044982671738,-0.014784906059503555,-0.5437347292900085,-0.005237966121086503,-0.5266839465540835,0.01640421214718184,-0.3719966195720569,0.033093071170567444,0.0,0.0,-0.6,0.0,0.005401611328125,0.009839773178100586,0
1.5383241176605225,-0.008476044982671738,-0.014784906059503555,-0.5437347292900085,-0.005237966121086503,-0.5266839465540835,0.01640421214718184,-0.3719966195720569,0.033093071170567444,0.0,0.0,-0.6,0.0,0.0016856193542480469,0.006074666976928711,0
1.5487923622131348,-0.008646474219858646,-0.014813251793384552,-0.544572651386261,-0.00497981386277558,-0.5270134415451936,0.029570080353248138,-0.3671709380371349,0.03145152738863906,0.0,0.0,-0.6,0.0,0.004850864410400391,0.009154081344604492,0
1.559485912322998,-0.008646474219858646,-0.014813251793384552,-0.544572651386261,-0.00497981386277558,-0.5270134415451936,0.029570080353248138,-0.3671709380371349,0.03145152738863906,0.0,0.0,-0.6,0.0,0.0010991096496582031,0.006067037582397461,0
1.5679600238800049,-0.008982626721262932,-0.014837962575256824,-0.5461586117744446,-0.004633658825670948,-0.5275650272317658,0.05016358499148346,-0.3548382122336471,0.029249429878921866,0.0,0.0,-0.6,0.0,0.005197763442993164,0.009657859802246094,0
1.581188678741455,-0.009246471337974072,-0.014840022660791874,-0.5475210547447205,-0.004400123164506811,-0.5286774084300051,0.07250178887990309,-0.3978715583628195,0.02775945082208885,0.0,0.0,-0.6,0.0,0.0047571659088134766,0.009434938430786133,0
1.5927174091339111,-0.009246471337974072,-0.014840022660791874,-0.5475210547447205,-0.004400123164506811,-0.5286774084300051,0.07250178887990309,-0.3978715583628195,0.02775945082208885,0.0,0.0,-0.6,0.0,0.0011157989501953125,0.005017757415771484,0
1.6013681888580322,-0.009680411778390408,-0.014834233559668064,-0.5489416718482971,-0.004390402410398795,-0.5288004320466231,0.08760304585522105,-0.364271934769244,0.027757365763193938,0.0,0.0,-0.6,0.0,0.004653453826904297,0.009281158447265625,0
1.6126384735107422,-0.009680411778390408,-0.014834233559668064,-0.5489416718482971,-0.004390402410398795,-0.5288004320466231,0.08760304585522105,-0.364271934769244,0.027757365763193938,0.0,0.0,-0.6,0.0,0.0012631416320800781,0.0054318904876708984,0
1.6213304996490479,-0.010050850920379162,-0.014815936796367168,-0.5501341819763184,-0.004229648794824476,-0.5286175445515294,0.053284746762981575,-0.28662751608257875,0.026840071427727454,0.0,0.0,-0.6,0.0,0.004810333251953125,0.009384870529174805,0
1.6328513622283936,-0.010050850920379162,-0.014815936796367168,-0.5501341819763184,-0.004229648794824476,-0.5286175445515294,0.053284746762981575,-0.28662751608257875,0.026840071427727454,0.0,0.0,-0.6,0.0,0.001375436782836914,0.00595545768737793,0
1.6419942378997803,-0.010746016167104244,-0.014686170034110546,-0.5518159866333008,-0.003795379251926598,-0.5295950535545839,-0.006601696756788171,-0.20930044945688034,0.024138462295566418,0.0,0.0,-0.6,0.0,0.004804134368896484,0.009633779525756836,0
1.6532771587371826,-0.010746016167104244,-0.014686170034110546,-0.5518159866333008,-0.003795379251926598,-0.5295950535545839,-0.006601696756788171,-0.20930044945688034,0.024138462295566418,0.0,0.0,-0.6,0.0,0.0011248588562011719,0.005191802978515625,0
1.6610448360443115,-0.011092817410826683,-0.014636415056884289,-0.5523561835289001,-0.003726582674902647,-0.5298873770551225,-0.013837305338261356,-0.177911166699281,0.023714749179592036,0.0,0.0,-0.6,0.0,0.005396604537963867,0.010161161422729492,0
1.6736810207366943,-0.012037761509418488,-0.014507356099784374,-0.5534408688545227,-0.0036011236728082222,-0.5305611036102179,-0.004757693722518096,-0.14451450652502087,0.022942723995346644,0.0,0.0,-0.6,0.0,0.0042874813079833984,0.00930643081665039,0
1.6859211921691895,-0.012037761509418488,-0.014507356099784374,-0.5534408688545227,-0.0036011236728082222,-0.5305611036102179,-0.004757693722518096,-0.14451450652502087,0.022942723995346644,0.0,0.0,-0.6,0.0,0.0014421939849853516,0.005927085876464844,0
1.6936399936676025,-0.012037761509418488,-0.014507356099784374,-0.5534408688545227,-0.0036011236728082222,-0.5305611036102179,-0.004757693722518096,-0.14451450652502087,0.022942723995346644,0.0,0.0,-0.6,0.0,0.0014832019805908203,0.0056645870208740234,0
1.7020282745361328,-0.012577114626765251,-0.014349262230098248,-0.5540458559989929,-0.0032817699556334993,-0.5314449411648038,0.01726347100855539,-0.1559211989721506,0.02093006065601137,0.0,0.0,-0.6,0.0,0.00451350212097168,0.009205341339111328,0
1.7132058143615723,-0.013472901657223701,-0.014298278838396072,-0.5545356273651123,-0.0032072374681673672,-0.5320570463984765,-0.04722543571595678,-0.10270676823090316,0.020367259766254583,0.0,0.0,-0.6,0.0,0.00485539436340332,0.0100250244140625,0
1.7250404357910156,-0.013472901657223701,-0.014298278838396072,-0.5545356273651123,-0.0032072374681673672,-0.5320570463984765,-0.04722543571595678,-0.10270676823090316,0.020367259766254583,0.0,0.0,-0.6,0.0,0.0015382766723632812,0.006131410598754883,0
1.734349250793457,-0.01474070455878973,-0.013831757940351963,-0.5554118156433105,-0.0028790802188283396,-0.5320380436737304,-0.10566647484992807,0.007919564241790805,0.018182592647566567,0.0,0.0,-0.6,0.0,0.005125761032104492,0.009636163711547852,0
1.7457435131072998,-0.01474070455878973,-0.013831757940351963,-0.5554118156433105,-0.0028790802188283396,-0.5320380436737304,-0.10566647484992807,0.007919564241790805,0.018182592647566567,0.0,0.0,-0.6,0.0,0.0015285015106201172,0.0064961910247802734,0
1.754591464996338,-0.015662120655179024,-0.013532604090869427,-0.5561339259147644,-0.002676960466737786,-0.5325059612064419,-0.11344001861223177,0.004357301735596393,0.016837339707527762,0.0,0.0,-0.6,0.0,0.005141496658325195,0.009115219116210938,0
1.7653234004974365,-0.015662120655179024,-0.013532604090869427,-0.5561339259147644,-0.002676960466737786,-0.5325059612064419,-0.11344001861223177,0.004357301735596393,0.016837339707527762,0.0,0.0,-0.6,0.0,0.0015132427215576172,0.0059642791748046875,0
1.7744100093841553,-0.016544394195079803,-0.013216656632721424,-0.5568867325782776,-0.0023502720869441485,-0.5329219455480574,-0.11109878876861944,0.006622850954637444,0.014732498552089284,0.0,0.0,-0.6,0.0,0.005420207977294922,0.009583234786987305,0
1.786376714706421,-0.016544394195079803,-0.013216656632721424,-0.5568867325782776,-0.0023502720869441485,-0.5329219455480574,-0.11109878876861944,0.006622850954637444,0.014732498552089284,0.0,0.0,-0.6,0.0,0.0011060237884521484,0.005745887756347656,0
1.7952938079833984,-0.017007116228342056,-0.013059861026704311,-0.5572479963302612,-0.002169985326498549,-0.5331225281948285,-0.1029480495144116,0.008655756373700661,0.013598680586643508,0.0,0.0,-0.6,0.0,0.005051374435424805,0.009778738021850586,0
1.8076624870300293,-0.017974672839045525,-0.012760812416672707,-0.557946503162384,-0.0018893959794970537,-0.533166036251895,-0.07771874276183739,0.024746565340149542,0.011885473896300213,0.0,0.0,-0.6,0.0,0.004953861236572266,0.009189128875732422,0
1.819263219833374,-0.017974672839045525,-0.012760812416672707,-0.557946503162384,-0.0018893959794970537,-0.533166036251895,-0.07771874276183739,0.024746565340149542,0.011885473896300213,0.0,0.0,-0.6,0.0,0.0014219284057617188,0.006112575531005859,0
1.8280141353607178,-0.018939802423119545,-0.012474698945879936,-0.55858314037323,-0.0016066435665566185,-0.5332877112356827,-0.04004453855002679,0.04942579823197307,0.010215064413491274,0.0,0.0,-0.6,0.0,0.005040884017944336,0.009793996810913086,0
1.8405277729034424,-0.018939802423119545,-0.012474698945879936,-0.55858314037323,-0.0016066435665566185,-0.5332877112356827,-0.04004453855002679,0.04942579823197307,0.010215064413491274,0.0,0.0,-0.6,0.0,0.001256704330444336,0.006195545196533203,0
1.84881591796875,-0.019881833344697952,-0.012214597314596176,-0.5591655969619751,-0.0011700110587893268,-0.5324933309276937,0.008288470331784979,0.09748739133997718,0.007610150138383651,0.0,0.0,-0.6,0.0,0.005086183547973633,0.009324312210083008,0
1.8601949214935303,-0.019881833344697952,-0.012214597314596176,-0.5591655969619751,-0.0011700110587893268,-0.5324933309276937,0.008288470331784979,0.09748739133997718,0.007610150138383651,0.0,0.0,-0.6,0.0,0.0011143684387207031,0.005431413650512695,0
1.8676986694335938,-0.02080739475786686,-0.011815317906439304,-0.5597636103630066,-0.0008834203526827887,-0.5328720444632004,0.05095749430977845,0.10594874865321786,0.0059283888044024975,0.0,0.0,-0.6,0.0,0.005415678024291992,0.009742021560668945,0
1.8807730674743652,-0.02080739475786686,-0.011815317906439304,-0.5597636103630066,-0.0008834203526827887,-0.5328720444632004,0.05095749430977845,0.10594874865321786,0.0059283888044024975,0.0,0.0,-0.6,0.0,0.0013401508331298828,0.006094217300415039,0
1.8894386291503906,-0.0216946080327034,-0.01144823245704174,-0.5603798627853394,-0.0006397913662384833,-0.5331277786953753,0.08949023478795473,0.13884081204162538,0.004508129195345821,0.0,0.0,-0.6,0.0,0.0050449371337890625,0.009497404098510742,0
1.9015779495239258,-0.02250036597251892,-0.011133943684399128,-0.5609979033470154,-0.00040682547332585614,-0.5333000061973235,0.12269430831078973,0.15602475843792013,0.0031258478996523007,0.0,0.0,-0.6,0.0,0.0043659210205078125,0.008982658386230469,0
1.9133446216583252,-0.02250036597251892,-0.011133943684399128,-0.5609979033470154,-0.00040682547332585614,-0.5333000061973235,0.12269430831078973,0.15602475843792013,0.0031258478996523007,0.0,0.0,-0.6,0.0,0.0011289119720458984,0.005463838577270508,0
1.921036720275879,-0.02250036597251892,-0.011133943684399128,-0.5609979033470154,-0.00040682547332585614,-0.5333000061973235,0.12269430831078973,0.15602475843792013,0.0031258478996523007,0.0,0.0,-0.6,0.0,0.0013012886047363281,0.006031036376953125,0
1.9295196533203125,-0.023258263245224953,-0.01084868423640728,-0.5616006255149841,-0.00018973687410522343,-0.5327129105083219,0.13531043748352625,0.15821983742900872,0.0017674586614070229,0.0,0.0,-0.6,0.0,0.004545688629150391,0.008731842041015625,0
1.9411225318908691,-0.023619133979082108,-0.010710597969591618,-0.5618899464607239,-9.317994594489407e-05,-0.5325166060242473,0.13906974068808844,0.1659026702176802,0.0011508472084949012,0.0,0.0,-0.6,0.0,0.004751682281494141,0.010097742080688477,0
1.953465461730957,-0.023619133979082108,-0.010710597969591618,-0.5618899464607239,-9.317994594489407e-05,-0.5325166060242473,0.13906974068808844,0.1659026702176802,0.0011508472084949012,0.0,0.0,-0.6,0.0,0.001354217529296875,0.005915641784667969,0
1.9622137546539307,-0.02428486756980419,-0.010419792495667934,-0.5624308586120605,5.0729302685140476e-05,-0.5321819591674548,0.1088333913227365,0.18766455194419646,9.987393811715603e-05,0.0,0.0,-0.6,0.0,0.004381895065307617,0.008571386337280273,0
1.9736132621765137,-0.024600129574537277,-0.010269779711961746,-0.5626707077026367,0.00018983707339663883,-0.5322483634440551,0.08677649471778881,0.18864332888986235,-0.000873846555367773,0.0,0.0,-0.6,0.0,0.0048177242279052734,0.009762287139892578,0
1.9865715503692627,-0.025196028873324394,-0.009965375997126102,-0.563106894493103,0.00041719408781923633,-0.5323576145831296,0.04039401826771387,0.18636621718474577,-0.0024916498425824572,0.0,0.0,-0.6,0.0,0.005143165588378906,0.009600400924682617,0
1.9984369277954102,-0.025196028873324394,-0.009965375997126102,-0.563106894493103,0.00041719408781923633,-0.5323576145831296,0.04039401826771387,0.18636621718474577,-0.0024916498425824572,0.0,0.0,-0.6,0.0,0.0013613700866699219,0.0056264400482177734,0
2.007936716079712,-0.025979038327932358,-0.009577389806509018,-0.5633916854858398,0.00045334623414306787,-0.5334405394196119,0.06232164371676817,0.17579661987150744,-0.0026409263068526098,0.0,0.0,-0.6,0.0,0.00530242919921875,0.01085519790649414,0
2.0201845169067383,-0.025979038327932358,-0.009577389806509018,-0.5633916854858398,0.00045334623414306787,-0.5334405394196119,0.06232164371676817,0.17579661987150744,-0.0026409263068526098,0.0,0.0,-0.6,0.0,0.0015048980712890625,0.006574153900146484,0
2.029320478439331,-0.026624007150530815,-0.009289425797760487,-0.5636343955993652,0.0003886142988693734,-0.5342898590670483,0.07921422162503762,0.15503390484571195,-0.0021758963771774326,0.0,0.0,-0.6,0.0,0.00525355339050293,0.009590625762939453,0
2.0410091876983643,-0.026624007150530815,-0.009289425797760487,-0.5636343955993652,0.0003886142988693734,-0.5342898590670483,0.07921422162503762,0.15503390484571195,-0.0021758963771774326,0.0,0.0,-0.6,0.0,0.0015683174133300781,0.006129264831542969,0
2.0499212741851807,-0.02730455808341503,-0.00900749396532774,-0.5638070702552795,0.0003872174167219959,-0.5349566286872448,0.04971796887892148,0.09837823873341241,-0.002278665540754272,0.0,0.0,-0.6,0.0,0.004793405532836914,0.009564638137817383,0
2.062347888946533,-0.02730455808341503,-0.00900749396532774,-0.5638070702552795,0.0003872174167219959,-0.5349566286872448,0.04971796887892148,0.09837823873341241,-0.002278665540754272,0.0,0.0,-0.6,0.0,0.0011212825775146484,0.005293846130371094,0
2.069748640060425,-0.027828067541122437,-0.008819617331027985,-0.563930869102478,0.0002079592543831879,-0.5352473226920689,0.029414626631656494,0.07598776950216515,-0.0012017640022529222,0.0,0.0,-0.6,0.0,0.0056383609771728516,0.00993490219116211,0
2.0829861164093018,-0.027828067541122437,-0.008819617331027985,-0.563930869102478,0.0002079592543831879,-0.5352473226920689,0.029414626631656494,0.07598776950216515,-0.0012017640022529222,0.0,0.0,-0.6,0.0,0.00122833251953125,0.0056574344635009766,0
2.0906710624694824,-0.028215445578098297,-0.008730849251151085,-0.5640361905097961,0.00023870848571201032,-0.5362208135591559,0.08037101604398778,0.06557257947482818,-0.0012785553777812369,0.0,0.0,-0.6,0.0,0.005944490432739258,0.011208772659301758,0
2.1040284633636475,-0.028215445578098297,-0.008730849251151085,-0.5640361905097961,0.00023870848571201032,-0.5362208135591559,0.08037101604398778,0.06557257947482818,-0.0012785553777812369,0.0,0.0,-0.6,0.0,0.0010979175567626953,0.0052530765533447266,0
2.112199068069458,-0.028725873678922653,-0.00859870109707117,-0.563955545425415,0.0003386342552924618,-0.5364582507265842,0.02982036819037456,0.012861487427638176,-0.0020705463947283983,0.0,0.0,-0.6,0.0,0.0050084590911865234,0.009591817855834961,0
2.1241095066070557,-0.02920985035598278,-0.008503547869622707,-0.5638423562049866,0.0006057092927325863,-0.5377170010157635,0.03190073346492906,-0.053855377015844155,-0.0038054433930760946,0.0,0.0,-0.6,0.0,0.004926443099975586,0.009788990020751953,0
2.1365432739257812,-0.02920985035598278,-0.008503547869622707,-0.5638423562049866,0.0006057092927325863,-0.5377170010157635,0.03190073346492906,-0.053855377015844155,-0.0038054433930760946,0.0,0.0,-0.6,0.0,0.0013370513916015625,0.006475687026977539,0
2.1454522609710693,-0.029778022319078445,-0.00839061290025711,-0.5636081695556641,0.0008964468788244778,-0.5381785760923783,0.02420028778993094,-0.07958215628151859,-0.00570174060111149,0.0,0.0,-0.6,0.0,0.005269289016723633,0.009613990783691406,0
2.1569862365722656,-0.029778022319078445,-0.00839061290025711,-0.5636081695556641,0.0008964468788244778,-0.5381785760923783,0.02420028778993094,-0.07958215628151859,-0.00570174060111149,0.0,0.0,-0.6,0.0,0.0012202262878417969,0.006520748138427734,0
2.1657657623291016,-0.030213212594389915,-0.008342813700437546,-0.5633699297904968,0.0011020835352793517,-0.5378332292635982,0.022054001578305626,-0.10436610799716907,-0.007035242273249275,0.0,0.0,-0.6,0.0,0.004555702209472656,0.008943557739257812,0
2.1768369674682617,-0.030213212594389915,-0.008342813700437546,-0.5633699297904968,0.0011020835352793517,-0.5378332292635982,0.022054001578305626,-0.10436610799716907,-0.007035242273249275,0.0,0.0,-0.6,0.0,0.001157999038696289,0.006866455078125,0
2.1867165565490723,-0.03064848482608795,-0.008265497162938118,-0.5630281567573547,0.0012432324762921838,-0.5379978214865871,0.026704988602344666,-0.11678354080569493,-0.007937583948219766,0.0,0.0,-0.6,0.0,0.005238771438598633,0.009670019149780273,0
2.1985034942626953,-0.03064848482608795,-0.008265497162938118,-0.5630281567573547,0.0012432324762921838,-0.5379978214865871,0.026704988602344666,-0.11678354080569493,-0.007937583948219766,0.0,0.0,-0.6,0.0,0.0012025833129882812,0.005522727966308594,0
2.208113670349121,-0.030991019681096077,-0.00822524819523096,-0.5627719759941101,0.0012687184884973782,-0.5376071127488612,0.013030113587996543,-0.060410093959233295,-0.008107921593564825,0.0,0.0,-0.6,0.0,0.004443168640136719,0.008640050888061523,0
2.2181642055511475,-0.030991019681096077,-0.00822524819523096,-0.5627719759941101,0.0012687184884973782,-0.5376071127488612,0.013030113587996543,-0.060410093959233295,-0.008107921593564825,0.0,0.0,-0.6,0.0,0.0011489391326904297,0.005362749099731445,0
2.227759838104248,-0.031407684087753296,-0.008130074478685856,-0.5623598098754883,0.0012297020385111455,-0.5369758612014702,-0.02896407649172546,-0.005324154971096222,-0.007917035331998125,0.0,0.0,-0.6,0.0,0.004485130310058594,0.008307695388793945,0
2.237842559814453,-0.031407684087753296,-0.008130074478685856,-0.5623598098754883,0.0012297020385111455,-0.5369758612014702,-0.02896407649172546,-0.005324154971096222,-0.007917035331998125,0.0,0.0,-0.6,0.0,0.00106048583984375,0.004981040954589844,0
2.2476258277893066,-0.031807031482458115,-0.007990077137947083,-0.5620677471160889,0.0013249286625846546,-0.536576705395425,-0.03569142287873508,-0.016474757885716396,-0.00855250985032528,0.0,0.0,-0.6,0.0,0.004788875579833984,0.008762836456298828,0
2.2577996253967285,-0.031807031482458115,-0.007990077137947083,-0.5620677471160889,0.0013249286625846546,-0.536576705395425,-0.03569142287873508,-0.016474757885716396,-0.00855250985032528,0.0,0.0,-0.6,0.0,0.0011212825775146484,0.004935264587402344,0
2.2679452896118164,-0.032223060727119446,-0.007790225092321634,-0.5618102550506592,0.0015598248197511398,-0.5363196951396646,-0.054400417981345574,-0.009061672085048416,-0.01009834920730519,0.0,0.0,-0.6,0.0,0.00440216064453125,0.008311033248901367,0
2.2780444622039795,-0.032223060727119446,-0.007790225092321634,-0.5618102550506592,0.0015598248197511398,-0.5363196951396646,-0.054400417981345574,-0.009061672085048416,-0.01009834920730519,0.0,0.0,-0.6,0.0,0.0010623931884765625,0.004806995391845703,0
2.287691116333008,-0.032433830201625824,-0.007689562626183033,-0.5617017149925232,0.0016138520370786733,-0.5360984178566736,-0.06443212797005662,-0.010407419867128372,-0.010472179061824596,0.0,0.0,-0.6,0.0,0.004851102828979492,0.009020090103149414,0
2.298161268234253,-0.032433830201625824,-0.007689562626183033,-0.5617017149925232,0.0016138520370786733,-0.5360984178566736,-0.06443212797005662,-0.010407419867128372,-0.010472179061824596,0.0,0.0,-0.6,0.0,0.0011324882507324219,0.005147218704223633,0
2.307664394378662,-0.03307521343231201,-0.0073996600694954395,-0.5614675879478455,0.0019495753355994827,-0.5354674316500727,-0.08032667932309125,-0.036700787220948244,-0.01269137129671405,0.0,0.0,-0.6,0.0,0.004819631576538086,0.00884699821472168,0
2.317927837371826,-0.03307521343231201,-0.0073996600694954395,-0.5614675879478455,0.0019495753355994827,-0.5354674316500727,-0.08032667932309125,-0.036700787220948244,-0.01269137129671405,0.0,0.0,-0.6,0.0,0.00115203857421875,0.005288600921630859,0
2.3276443481445312,-0.03349396958947182,-0.00725939916446805,-0.5613772869110107,0.0021178832207662895,-0.5354215855197446,-0.08754881219922984,-0.05363840911678145,-0.013805796573051421,0.0,0.0,-0.6,0.0,0.004972696304321289,0.00905156135559082,0
2.3381338119506836,-0.03349396958947182,-0.00725939916446805,-0.5613772869110107,0.0021178832207662895,-0.5354215855197446,-0.08754881219922984,-0.05363840911678145,-0.013805796573051421,0.0,0.0,-0.6,0.0,0.0011284351348876953,0.005136251449584961,0
2.347771406173706,-0.03389380872249603,-0.007148811127990484,-0.5613296627998352,0.002274537410128008,-0.5353560693941336,-0.09638861981184742,-0.07010396292381268,-0.014846109597376088,0.0,0.0,-0.6,0.0,0.004582881927490234,0.008561372756958008,0
2.357637405395508,-0.03389380872249603,-0.007148811127990484,-0.5613296627998352,0.002274537410128008,-0.5353560693941336,-0.09638861981184742,-0.07010396292381268,-0.014846109597376088,0.0,0.0,-0.6,0.0,0.0010578632354736328,0.004961729049682617,0
2.3677287101745605,-0.034316014498472214,-0.0070263175293803215,-0.5613396763801575,0.002427783168745403,-0.5354406603845631,-0.10839704870973765,-0.08571074497212858,-0.01586811269238292,0.0,0.0,-0.6,0.0,0.004562854766845703,0.008648395538330078,0
2.378479242324829,-0.034316014498472214,-0.0070263175293803215,-0.5613396763801575,0.002427783168745403,-0.5354406603845631,-0.10839704870973765,-0.08571074497212858,-0.01586811269238292,0.0,0.0,-0.6,0.0,0.001161813735961914,0.005611896514892578,0
2.387854814529419,-0.034749727696180344,-0.006879896856844425,-0.5613903403282166,0.0025371495075225273,-0.5354081685793849,-0.11238067265119935,-0.09184763884692011,-0.016583211146694397,0.0,0.0,-0.6,0.0,0.004561901092529297,0.008302688598632812,0
2.399066686630249,-0.03496643528342247,-0.006788013502955437,-0.5614395141601562,0.00263436799797498,-0.5343854822848809,-0.11326811273823988,-0.0837621978356203,-0.017199031055165837,0.0,0.0,-0.6,0.0,0.004340648651123047,0.008288860321044922,0
2.4087562561035156,-0.03496643528342247,-0.006788013502955437,-0.5614395141601562,0.00263436799797498,-0.5343854822848809,-0.11326811273823988,-0.0837621978356203,-0.017199031055165837,0.0,0.0,-0.6,0.0,0.0010251998901367188,0.004926443099975586,0
2.417806625366211,-0.03535773977637291,-0.006521155592054129,-0.5615503787994385,0.0027969506478782813,-0.5333202566311829,-0.10595080448906567,-0.07445352201630195,-0.018214743710927503,0.0,0.0,-0.6,0.0,0.004652976989746094,0.008502006530761719,0
2.4276177883148193,-0.03535773977637291,-0.006521155592054129,-0.5615503787994385,0.0027969506478782813,-0.5333202566311829,-0.10595080448906567,-0.07445352201630195,-0.018214743710927503,0.0,0.0,-0.6,0.0,0.001005411148071289,0.00488734245300293,0
2.437748670578003,-0.03556040674448013,-0.006379514932632446,-0.5616137385368347,0.0028806022858296554,-0.5330830260618467,-0.09758612026985519,-0.06143972255264325,-0.018717663133234384,0.0,0.0,-0.6,0.0,0.0046863555908203125,0.008710622787475586,0
2.4481122493743896,-0.03556040674448013,-0.006379514932632446,-0.5616137385368347,0.0028806022858296554,-0.5330830260618467,-0.09758612026985519,-0.06143972255264325,-0.018717663133234384,0.0,0.0,-0.6,0.0,0.0011839866638183594,0.005703449249267578,0
2.457566738128662,-0.03621513023972511,-0.005994439125061035,-0.5617554187774658,0.003103545345510814,-0.5331877867717165,-0.07041683360263024,-0.007332702131703214,-0.020034581785045802,0.0,0.0,-0.6,0.0,0.00455474853515625,0.008444070816040039,0
2.4687399864196777,-0.03621513023972511,-0.005994439125061035,-0.5617554187774658,0.003103545345510814,-0.5331877867717165,-0.07041683360263024,-0.007332702131703214,-0.020034581785045802,0.0,0.0,-0.6,0.0,0.0010826587677001953,0.004788398742675781,0
2.4786906242370605,-0.03662698343396187,-0.0057950252667069435,-0.5618155598640442,0.003242690263671605,-0.5332125262368723,-0.052380628667678966,0.03434572989641227,-0.020851949920451657,0.0,0.0,-0.6,0.0,0.0045316219329833984,0.008333921432495117,0
2.4883229732513428,-0.03662698343396187,-0.0057950252667069435,-0.5618155598640442,0.003242690263671605,-0.5332125262368723,-0.052380628667678966,0.03434572989641227,-0.020851949920451657,0.0,0.0,-0.6,0.0,0.0009984970092773438,0.004703998565673828,0
2.497800350189209,-0.036791980266571045,-0.005711066536605358,-0.5618211627006531,0.003343977082729998,-0.5334552529754395,-0.039073508892478126,0.05156191620550623,-0.02145792976562754,0.0,0.0,-0.6,0.0,0.006425619125366211,0.011284351348876953,0
2.511327028274536,-0.036791980266571045,-0.005711066536605358,-0.5618211627006531,0.003343977082729998,-0.5334552529754395,-0.039073508892478126,0.05156191620550623,-0.02145792976562754,0.0,0.0,-0.6,0.0,0.0012736320495605469,0.005678653717041016,0
2.5192668437957764,-0.03730442002415657,-0.005532510112971067,-0.5617117285728455,0.0036732300465549175,-0.5345304620326196,-0.044540611893142436,0.04248473513931127,-0.02357974819126504,0.0,0.0,-0.6,0.0,0.005589962005615234,0.010016441345214844,0
2.530744791030884,-0.03730442002415657,-0.005532510112971067,-0.5617117285728455,0.0036732300465549175,-0.5345304620326196,-0.044540611893142436,0.04248473513931127,-0.02357974819126504,0.0,0.0,-0.6,0.0,0.0015447139739990234,0.0055370330810546875,0
2.5396552085876465,-0.03780251741409302,-0.005426936782896519,-0.5614526867866516,0.0038263516746417175,-0.5357261757892594,-0.051813787509657164,-0.12084416818749881,-0.024591812280089317,0.0,0.0,-0.6,0.0,0.006549835205078125,0.011299848556518555,0
