time,x,y,z,yaw,throttle,roll_rate,pitch_rate,yaw_rate,x_ref,y_ref,z_ref,yaw_ref,pred_time,nr_time,ctrl_callback_time,v_norm,metadata
5.9604644775390625e-06,-0.06244465708732605,-0.015335171483457088,-0.2347121685743332,0.06708569207118217,0.49756792187690735,0.0012129873502999544,-0.03807038813829422,-0.025090796872973442,0.0,0.0,-0.9,0.0,2.6717193126678467,2.6717193126678467,2.9046437740325928,0,Hardware
2.9070186614990234,-0.06244465708732605,-0.015335171483457088,-0.2347121685743332,0.06708569207118217,0.5109478235244751,0.0022901580668985844,-0.06077829748392105,-0.04262159392237663,0.0,0.0,-0.9,0.0,0.0016231536865234375,0.0016231536865234375,0.013497591018676758,0,jax_reg_wardi
2.939631938934326,-0.057828139513731,-0.01783590018749237,-0.23830127716064453,0.06678326293758019,0.5214203000068665,0.006522317882627249,-0.06927048414945602,-0.0547027550637722,0.0,0.0,-0.9,0.0,0.001814126968383789,0.001814126968383789,0.014385223388671875,0,1x Speed
2.955960273742676,-0.057828139513731,-0.01783590018749237,-0.23830127716064453,0.06678326293758019,0.5297501087188721,0.009303472936153412,-0.07473745197057724,-0.06314095854759216,0.0,0.0,-0.9,0.0,0.0015246868133544922,0.0015246868133544922,0.012473583221435547,0,helix_spin
2.9720656871795654,-0.057872217148542404,-0.01781024970114231,-0.23829685151576996,0.06672445283961384,0.5363880395889282,0.010948861949145794,-0.07880642265081406,-0.06902150809764862,0.0,0.0,-0.9,0.0,0.0018041133880615234,0.0018041133880615234,0.013418436050415039,0,0
2.987135171890259,-0.057872217148542404,-0.01781024970114231,-0.23829685151576996,0.06672445283961384,0.5416616797447205,0.012067791074514389,-0.08154076337814331,-0.07313447445631027,0.0,0.0,-0.9,0.0,0.0015597343444824219,0.0015597343444824219,0.012468576431274414,0,0
3.0033538341522217,-0.05791006609797478,-0.017780158668756485,-0.23834918439388275,0.06620285343578637,0.5457898378372192,0.01315645407885313,-0.08358312398195267,-0.07580393552780151,0.0,0.0,-0.9,0.0,0.0016765594482421875,0.0016765594482421875,0.013259649276733398,0,0
3.0181164741516113,-0.05791006609797478,-0.017780158668756485,-0.23834918439388275,0.06620285343578637,0.5490679740905762,0.013909611850976944,-0.08499009907245636,-0.07767140120267868,0.0,0.0,-0.9,0.0,0.0016984939575195312,0.0016984939575195312,0.012375354766845703,0,0
3.0344581604003906,-0.05790693685412407,-0.017799759283661842,-0.23847587406635284,0.06740727635624152,0.5516653656959534,0.01494741439819336,-0.08480076491832733,-0.07942665368318558,0.0,0.0,-0.9,0.0,0.0017573833465576172,0.0017573833465576172,0.013050556182861328,0,0
3.049102306365967,-0.05790693685412407,-0.017799759283661842,-0.23847587406635284,0.06740727635624152,0.553727388381958,0.015672890469431877,-0.08466770499944687,-0.0806555226445198,0.0,0.0,-0.9,0.0,0.0017948150634765625,0.0017948150634765625,0.012076854705810547,0,0
3.065143346786499,-0.057858213782310486,-0.017815545201301575,-0.23859018087387085,0.06690867369542376,0.5553445816040039,0.014841431751847267,-0.08261316269636154,-0.08138476312160492,0.0,0.0,-0.9,0.0,0.0015304088592529297,0.0015304088592529297,0.013437747955322266,0,0
3.0806796550750732,-0.057858213782310486,-0.017815545201301575,-0.23859018087387085,0.06690867369542376,0.5566283464431763,0.014254436828196049,-0.08116456866264343,-0.08189442753791809,0.0,0.0,-0.9,0.0,0.001531362533569336,0.001531362533569336,0.012248992919921875,0,0
3.096454620361328,-0.0577787347137928,-0.017830025404691696,-0.23873105645179749,0.06725952069695741,0.5577053427696228,0.01581062376499176,-0.08212889730930328,-0.08231494575738907,0.0,0.0,-0.9,0.0,0.0016562938690185547,0.0016562938690185547,0.01292872428894043,0,0
3.110872745513916,-0.0577787347137928,-0.017830025404691696,-0.23873105645179749,0.06725952069695741,0.5585601329803467,0.01691322773694992,-0.0828118771314621,-0.08260796219110489,0.0,0.0,-0.9,0.0,0.0016703605651855469,0.0016703605651855469,0.012127161026000977,0,0
3.1268246173858643,-0.057728707790374756,-0.017988592386245728,-0.23880521953105927,0.06721493203825635,0.5592793226242065,0.017588596791028976,-0.08335010707378387,-0.08280397951602936,0.0,0.0,-0.9,0.0,0.0017502307891845703,0.0017502307891845703,0.01316690444946289,0,0
3.1416447162628174,-0.057728707790374756,-0.017988592386245728,-0.23880521953105927,0.06721493203825635,0.5598500967025757,0.018068527802824974,-0.08373255282640457,-0.08294070512056351,0.0,0.0,-0.9,0.0,0.0014889240264892578,0.0014889240264892578,0.012261629104614258,0,0
3.15836238861084,-0.057664643973112106,-0.01806654781103134,-0.238886758685112,0.06698310058860277,0.5602355599403381,0.017609894275665283,-0.08276024460792542,-0.08297833055257797,0.0,0.0,-0.9,0.0,0.001697540283203125,0.001697540283203125,0.012934446334838867,0,0
3.172879934310913,-0.057664643973112106,-0.01806654781103134,-0.238886758685112,0.06698310058860277,0.5605415105819702,0.01728302799165249,-0.0820673406124115,-0.0830046683549881,0.0,0.0,-0.9,0.0,0.0016994476318359375,0.0016994476318359375,0.01291346549987793,0,0
3.1895601749420166,-0.05760800838470459,-0.018056368455290794,-0.23909202218055725,0.06740349752473533,0.5605825185775757,0.01374377403408289,-0.0768679678440094,-0.08331108838319778,0.0,0.0,-0.9,0.0,0.002225637435913086,0.002225637435913086,0.013586759567260742,0,0
3.2047832012176514,-0.05760800838470459,-0.018056368455290794,-0.23909202218055725,0.06740349752473533,0.560615599155426,0.011213249526917934,-0.07315219193696976,-0.08351629227399826,0.0,0.0,-0.9,0.0,0.0016605854034423828,0.0016605854034423828,0.013157844543457031,0,0
3.2212159633636475,-0.05733476206660271,-0.01818528212606907,-0.23987184464931488,0.06772739633274817,0.5603882670402527,0.018434392288327217,-0.058593910187482834,-0.08363886922597885,0.0,0.0,-0.9,0.0,0.001718282699584961,0.001718282699584961,0.013170719146728516,0,0
3.236600399017334,-0.05733476206660271,-0.01818528212606907,-0.23987184464931488,0.06772739633274817,0.5602114796638489,0.023607634007930756,-0.0481635183095932,-0.08378314971923828,0.0,0.0,-0.9,0.0,0.0016355514526367188,0.0016355514526367188,0.012778282165527344,0,0
3.253375291824341,-0.057096708565950394,-0.018426546826958656,-0.24079841375350952,0.0677925307887167,0.5599192380905151,0.028195161372423172,-0.035889048129320145,-0.08397892117500305,0.0,0.0,-0.9,0.0,0.0015366077423095703,0.0015366077423095703,0.012517452239990234,0,0
3.2679991722106934,-0.057096708565950394,-0.018426546826958656,-0.24079841375350952,0.0677925307887167,0.5596895813941956,0.031483106315135956,-0.027089009061455727,-0.08414801955223083,0.0,0.0,-0.9,0.0,0.001560211181640625,0.001560211181640625,0.012541055679321289,0,0
3.283950090408325,-0.05705104023218155,-0.01867613196372986,-0.242540642619133,0.06746327603219168,0.5592474341392517,0.03037269599735737,-0.011409547179937363,-0.08431574702262878,0.0,0.0,-0.9,0.0,0.0015254020690917969,0.0015254020690917969,0.01278829574584961,0,0
3.298835039138794,-0.05705104023218155,-0.01867613196372986,-0.242540642619133,0.06746327603219168,0.5588997602462769,0.029574338346719742,-0.00015372951747849584,-0.08442094922065735,0.0,0.0,-0.9,0.0,0.0016222000122070312,0.0016222000122070312,0.012828826904296875,0,0
3.315190315246582,-0.05730568245053291,-0.01893763057887554,-0.24460455775260925,0.06717552195798945,0.5582987070083618,0.030119337141513824,0.013184214010834694,-0.08444512635469437,0.0,0.0,-0.9,0.0,0.0016469955444335938,0.0016469955444335938,0.012421369552612305,0,0
3.329623222351074,-0.05730568245053291,-0.01893763057887554,-0.24460455775260925,0.06717552195798945,0.5578237175941467,0.03051093779504299,0.02277410589158535,-0.08446550369262695,0.0,0.0,-0.9,0.0,0.0018160343170166016,0.0018160343170166016,0.01336669921875,0,0
3.346301317214966,-0.05761916562914848,-0.019206104800105095,-0.24700763821601868,0.06691315264155251,0.5571005940437317,0.027824170887470245,0.03750903531908989,-0.08445918560028076,0.0,0.0,-0.9,0.0,0.0016040802001953125,0.0016040802001953125,0.01214599609375,0,0
3.3612356185913086,-0.05761916562914848,-0.019206104800105095,-0.24700763821601868,0.06691315264155251,0.5565290451049805,0.025890128687024117,0.04811612889170647,-0.08442901074886322,0.0,0.0,-0.9,0.0,0.0016243457794189453,0.0016243457794189453,0.01267242431640625,0,0
3.377067804336548,-0.05788663402199745,-0.019522318616509438,-0.24979211390018463,0.0665958568109858,0.5558041334152222,0.022389071062207222,0.0674348697066307,-0.0843857005238533,0.0,0.0,-0.9,0.0,0.0016789436340332031,0.0016789436340332031,0.012310266494750977,0,0
3.391091823577881,-0.05788663402199745,-0.019522318616509438,-0.24979211390018463,0.0665958568109858,0.5552332997322083,0.019868968054652214,0.08134474605321884,-0.08430901169776917,0.0,0.0,-0.9,0.0,0.001550912857055664,0.001550912857055664,0.013308286666870117,0,0
3.4081833362579346,-0.058068376034498215,-0.019716087728738785,-0.25184717774391174,0.06640225992649715,0.5545828938484192,0.017175527289509773,0.09654226899147034,-0.08419109135866165,0.0,0.0,-0.9,0.0,0.0016493797302246094,0.0016493797302246094,0.012541770935058594,0,0
3.4240593910217285,-0.058273714035749435,-0.01987822726368904,-0.25407424569129944,0.06606457896127442,0.5539638996124268,0.015413724817335606,0.10951010137796402,-0.08405047655105591,0.0,0.0,-0.9,0.0,0.0016968250274658203,0.0016968250274658203,0.012161731719970703,0,0
3.438380479812622,-0.058273714035749435,-0.01987822726368904,-0.25407424569129944,0.06606457896127442,0.5534740686416626,0.014147019013762474,0.1188410222530365,-0.08393561840057373,0.0,0.0,-0.9,0.0,0.0016884803771972656,0.0016884803771972656,0.01213526725769043,0,0
3.4544003009796143,-0.058671899139881134,-0.020208219066262245,-0.2577936351299286,0.06555777649332307,0.552828848361969,0.01549123041331768,0.12788383662700653,-0.08379878103733063,0.0,0.0,-0.9,0.0,0.0016796588897705078,0.0016796588897705078,0.01280975341796875,0,0
3.4698052406311035,-0.058671899139881134,-0.020208219066262245,-0.2577936351299286,0.06555777649332307,0.5523168444633484,0.016458960250020027,0.13439276814460754,-0.08371124416589737,0.0,0.0,-0.9,0.0,0.0015718936920166016,0.0015718936920166016,0.012509346008300781,0,0
3.485764503479004,-0.0590284988284111,-0.020544277504086494,-0.26192185282707214,0.06488295831691959,0.5516793131828308,0.019799383357167244,0.14170528948307037,-0.08351631462574005,0.0,0.0,-0.9,0.0,0.0016562938690185547,0.0016562938690185547,0.012673139572143555,0,0
3.501690626144409,-0.05926140025258064,-0.020791662856936455,-0.26484519243240356,0.06428446040223616,0.5510634779930115,0.023801473900675774,0.14913895726203918,-0.08323214948177338,0.0,0.0,-0.9,0.0,0.0016028881072998047,0.0016028881072998047,0.013072490692138672,0,0
3.516881227493286,-0.05926140025258064,-0.020791662856936455,-0.26484519243240356,0.06428446040223616,0.5505744814872742,0.02668190188705921,0.15448909997940063,-0.08305558562278748,0.0,0.0,-0.9,0.0,0.001516103744506836,0.001516103744506836,0.01229548454284668,0,0
3.53318452835083,-0.05966243892908096,-0.02119992859661579,-0.2694030702114105,0.06298587466414862,0.5499621629714966,0.030232369899749756,0.16046126186847687,-0.08248507231473923,0.0,0.0,-0.9,0.0,0.0014581680297851562,0.0014581680297851562,0.012658119201660156,0,0
3.5473406314849854,-0.05966243892908096,-0.02119992859661579,-0.2694030702114105,0.06298587466414862,0.5494756102561951,0.032788340002298355,0.1647595465183258,-0.08210302889347076,0.0,0.0,-0.9,0.0,0.001451253890991211,0.001451253890991211,0.012389421463012695,0,0
3.5642313957214355,-0.06020351126790047,-0.021554868668317795,-0.2741079032421112,0.06159368736048363,0.5488797426223755,0.0339234434068203,0.17259283363819122,-0.08130774646997452,0.0,0.0,-0.9,0.0,0.0017080307006835938,0.0017080307006835938,0.013059377670288086,0,0
3.578834295272827,-0.06020351126790047,-0.021554868668317795,-0.2741079032421112,0.06159368736048363,0.5484063029289246,0.03474199026823044,0.17823117971420288,-0.08075840026140213,0.0,0.0,-0.9,0.0,0.0018134117126464844,0.0018134117126464844,0.012737274169921875,0,0
3.5954558849334717,-0.06060592457652092,-0.021917851641774178,-0.27931690216064453,0.05993125657241557,0.5479131937026978,0.03843215852975845,0.1749919354915619,-0.07987149804830551,0.0,0.0,-0.9,0.0,0.0016181468963623047,0.0016181468963623047,0.012398958206176758,0,0
3.6095097064971924,-0.06060592457652092,-0.021917851641774178,-0.27931690216064453,0.05993125657241557,0.5475210547447205,0.041084129363298416,0.17266139388084412,-0.07924681156873703,0.0,0.0,-0.9,0.0,0.0018663406372070312,0.0018663406372070312,0.012999534606933594,0,0
3.6256916522979736,-0.06084576994180679,-0.022355971857905388,-0.284536749124527,0.05868683199330389,0.5471696853637695,0.04333207756280899,0.16661301255226135,-0.07828880101442337,0.0,0.0,-0.9,0.0,0.0017211437225341797,0.0017211437225341797,0.012521505355834961,0,0
3.640462875366211,-0.06084576994180679,-0.022355971857905388,-0.284536749124527,0.05868683199330389,0.5468906164169312,0.044943951070308685,0.16226817667484283,-0.07760991156101227,0.0,0.0,-0.9,0.0,0.0016627311706542969,0.0016627311706542969,0.013272285461425781,0,0
3.6575543880462646,-0.06111232191324234,-0.02275003492832184,-0.28884783387184143,0.057084112639482355,0.5466899275779724,0.04692200943827629,0.1530962437391281,-0.07646505534648895,0.0,0.0,-0.9,0.0,0.0016198158264160156,0.0016198158264160156,0.013621091842651367,0,0
3.6733224391937256,-0.06111232191324234,-0.02275003492832184,-0.28884783387184143,0.057084112639482355,0.5465313196182251,0.04833637923002243,0.14651678502559662,-0.07565020024776459,0.0,0.0,-0.9,0.0,0.0016751289367675781,0.0016751289367675781,0.012552738189697266,0,0
3.68912410736084,-0.06106461584568024,-0.02326555922627449,-0.2934208810329437,0.05553146545238449,0.5464485883712769,0.05127646401524544,0.14290234446525574,-0.0745685026049614,0.0,0.0,-0.9,0.0,0.0017867088317871094,0.0017867088317871094,0.01243138313293457,0,0
3.7049009799957275,-0.06108272820711136,-0.023528365418314934,-0.2952270209789276,0.054687241149946414,0.546233057975769,0.05244401469826698,0.15031521022319794,-0.07360533624887466,0.0,0.0,-0.9,0.0,0.001631021499633789,0.001631021499633789,0.012497186660766602,0,0
3.721252918243408,-0.0610552541911602,-0.023785889148712158,-0.29909640550613403,0.052786752838092615,0.5461910367012024,0.04770616441965103,0.15133948624134064,-0.07190166413784027,0.0,0.0,-0.9,0.0,0.0016107559204101562,0.0016107559204101562,0.012365341186523438,0,0
3.735250949859619,-0.0610552541911602,-0.023785889148712158,-0.29909640550613403,0.052786752838092615,0.5461578965187073,0.04431214928627014,0.1520766019821167,-0.07070271670818329,0.0,0.0,-0.9,0.0,0.0016210079193115234,0.0016210079193115234,0.012564897537231445,0,0
3.752272129058838,-0.060832757502794266,-0.02408493496477604,-0.30326494574546814,0.05085038478360309,0.5460171103477478,0.04221859201788902,0.1581045538187027,-0.06927606463432312,0.0,0.0,-0.9,0.0,0.0016913414001464844,0.0016913414001464844,0.012928009033203125,0,0
3.7667698860168457,-0.060832757502794266,-0.02408493496477604,-0.30326494574546814,0.05085038478360309,0.5459056496620178,0.04072008281946182,0.16242825984954834,-0.06826917082071304,0.0,0.0,-0.9,0.0,0.0014066696166992188,0.0014066696166992188,0.012432098388671875,0,0
3.7829082012176514,-0.06045769155025482,-0.024377889931201935,-0.30709028244018555,0.04863626298714419,0.5457355976104736,0.043497659265995026,0.16753122210502625,-0.06702836602926254,0.0,0.0,-0.9,0.0,0.0017848014831542969,0.0017848014831542969,0.012697219848632812,0,0
3.797203302383423,-0.06045769155025482,-0.024377889931201935,-0.30709028244018555,0.04863626298714419,0.5456006526947021,0.04549112915992737,0.1711905300617218,-0.06617233157157898,0.0,0.0,-0.9,0.0,0.0016055107116699219,0.0016055107116699219,0.012778997421264648,0,0
3.8132243156433105,-0.05990814045071602,-0.024970166385173798,-0.31152811646461487,0.046023737051559446,0.5454025268554688,0.044731806963682175,0.17800895869731903,-0.06460071355104446,0.0,0.0,-0.9,0.0,0.0018074512481689453,0.0018074512481689453,0.012692451477050781,0,0
3.828068971633911,-0.05990814045071602,-0.024970166385173798,-0.31152811646461487,0.046023737051559446,0.5452454090118408,0.04419007897377014,0.18290190398693085,-0.06349851191043854,0.0,0.0,-0.9,0.0,0.001634359359741211,0.001634359359741211,0.012174367904663086,0,0
3.8434951305389404,-0.05931348726153374,-0.025573626160621643,-0.31598156690597534,0.043682026602756094,0.5451697707176208,0.05044892057776451,0.18204595148563385,-0.06224529445171356,0.0,0.0,-0.9,0.0,0.0015671253204345703,0.0015671253204345703,0.01256108283996582,0,0
3.858121871948242,-0.05931348726153374,-0.025573626160621643,-0.31598156690597534,0.043682026602756094,0.5451100468635559,0.05493292585015297,0.18142977356910706,-0.06137128174304962,0.0,0.0,-0.9,0.0,0.0016667842864990234,0.0016667842864990234,0.012700319290161133,0,0
3.8747100830078125,-0.058770813047885895,-0.026065828278660774,-0.3196218013763428,0.041603715773797824,0.5450153946876526,0.055248986929655075,0.17720378935337067,-0.05977879837155342,0.0,0.0,-0.9,0.0,0.001543283462524414,0.001543283462524414,0.01167607307434082,0,0
3.8879246711730957,-0.058770813047885895,-0.026065828278660774,-0.3196218013763428,0.041603715773797824,0.5449402332305908,0.05547194927930832,0.17417503893375397,-0.05866125226020813,0.0,0.0,-0.9,0.0,0.001760721206665039,0.001760721206665039,0.01281285285949707,0,0
3.9040212631225586,-0.0579177588224411,-0.026543550193309784,-0.3234226107597351,0.039717953197472275,0.5449720621109009,0.052774786949157715,0.1664704978466034,-0.05693682283163071,0.0,0.0,-0.9,0.0,0.0014972686767578125,0.0014972686767578125,0.012820005416870117,0,0
3.9190104007720947,-0.0579177588224411,-0.026543550193309784,-0.3234226107597351,0.039717953197472275,0.544998288154602,0.050837624818086624,0.16095736622810364,-0.05573533475399017,0.0,0.0,-0.9,0.0,0.0016183853149414062,0.0016183853149414062,0.012945175170898438,0,0
3.9352669715881348,-0.05720200389623642,-0.026906348764896393,-0.3266731798648834,0.03786638985499236,0.5450004935264587,0.04348355159163475,0.14820751547813416,-0.05373610556125641,0.0,0.0,-0.9,0.0,0.0016398429870605469,0.0016398429870605469,0.012866735458374023,0,0
3.950869083404541,-0.05720200389623642,-0.026906348764896393,-0.3266731798648834,0.03786638985499236,0.545005202293396,0.03820587694644928,0.13908535242080688,-0.052379265427589417,0.0,0.0,-0.9,0.0,0.0016911029815673828,0.0016911029815673828,0.012248992919921875,0,0
3.9669861793518066,-0.05637212097644806,-0.027350176125764847,-0.32990628480911255,0.036097345204300885,0.5450901985168457,0.035153571516275406,0.12450657039880753,-0.050690218806266785,0.0,0.0,-0.9,0.0,0.0016608238220214844,0.0016608238220214844,0.012924432754516602,0,0
3.981964588165283,-0.05637212097644806,-0.027350176125764847,-0.32990628480911255,0.036097345204300885,0.5451608896255493,0.03295912593603134,0.11407830566167831,-0.049524009227752686,0.0,0.0,-0.9,0.0,0.0016398429870605469,0.0016398429870605469,0.011832714080810547,0,0
3.996941566467285,-0.05548492446541786,-0.02781183086335659,-0.332894504070282,0.034031324187395066,0.5452545881271362,0.03281700983643532,0.10058414936065674,-0.04788026586174965,0.0,0.0,-0.9,0.0,0.00173187255859375,0.00173187255859375,0.012611627578735352,0,0
4.011164426803589,-0.05548492446541786,-0.02781183086335659,-0.332894504070282,0.034031324187395066,0.5453316569328308,0.032706368714571,0.09093010425567627,-0.046723343431949615,0.0,0.0,-0.9,0.0,0.0015668869018554688,0.0015668869018554688,0.01259756088256836,0,0
4.02753472328186,-0.05462237447500229,-0.028271017596125603,-0.33573514223098755,0.032135791014871136,0.545461893081665,0.034627653658390045,0.0768834799528122,-0.045121584087610245,0.0,0.0,-0.9,0.0,0.0016677379608154297,0.0016677379608154297,0.012302398681640625,0,0
4.041632890701294,-0.05462237447500229,-0.028271017596125603,-0.33573514223098755,0.032135791014871136,0.5455682873725891,0.03599308058619499,0.0668359324336052,-0.04397736117243767,0.0,0.0,-0.9,0.0,0.0017871856689453125,0.0017871856689453125,0.013026237487792969,0,0
4.058488368988037,-0.05382976680994034,-0.028740225359797478,-0.3385733664035797,0.030062323581342174,0.5455787181854248,0.03507203608751297,0.0531969778239727,-0.04219696670770645,0.0,0.0,-0.9,0.0,0.001531839370727539,0.001531839370727539,0.012944936752319336,0,0
4.075192928314209,-0.05337819457054138,-0.029189616441726685,-0.3407485783100128,0.02849925751186341,0.5454381108283997,0.02287377417087555,0.04180065914988518,-0.04011118412017822,0.0,0.0,-0.9,0.0,0.0016827583312988281,0.0016827583312988281,0.012042045593261719,0,0
4.088999032974243,-0.05337819457054138,-0.029189616441726685,-0.3407485783100128,0.02849925751186341,0.5453299283981323,0.014117782935500145,0.03364034742116928,-0.03872666880488396,0.0,0.0,-0.9,0.0,0.0015866756439208984,0.0015866756439208984,0.012715339660644531,0,0
4.105285167694092,-0.052785467356443405,-0.029629237949848175,-0.34407010674476624,0.026061595201571676,0.5450018644332886,0.007752496749162674,0.024074140936136246,-0.036817342042922974,0.0,0.0,-0.9,0.0,0.0017123222351074219,0.0017123222351074219,0.012728691101074219,0,0
4.11959171295166,-0.052785467356443405,-0.029629237949848175,-0.34407010674476624,0.026061595201571676,0.5447423458099365,0.0031732027418911457,0.017207924276590347,-0.03551267832517624,0.0,0.0,-0.9,0.0,0.0015578269958496094,0.0015578269958496094,0.01333761215209961,0,0
4.13669753074646,-0.052256807684898376,-0.029564740136265755,-0.3469102680683136,0.024044076735567528,0.5444614887237549,-0.01082446426153183,0.007909572683274746,-0.03371559455990791,0.0,0.0,-0.9,0.0,0.001665353775024414,0.001665353775024414,0.012432575225830078,0,0
4.151438474655151,-0.052256807684898376,-0.029564740136265755,-0.3469102680683136,0.024044076735567528,0.5442416071891785,-0.02088146284222603,0.0012426924658939242,-0.03253275156021118,0.0,0.0,-0.9,0.0,0.0015971660614013672,0.0015971660614013672,0.012775182723999023,0,0
4.167424201965332,-0.05184673145413399,-0.029338816180825233,-0.3499446213245392,0.022382641587606472,0.544073224067688,-0.030357101932168007,-0.00930397305637598,-0.03103896602988243,0.0,0.0,-0.9,0.0,0.0015528202056884766,0.0015528202056884766,0.012369871139526367,0,0
4.183400392532349,-0.05162869393825531,-0.029151637107133865,-0.35163620114326477,0.02118580931261636,0.544033944606781,-0.03619350492954254,-0.02335631474852562,-0.029522808268666267,0.0,0.0,-0.9,0.0,0.0015413761138916016,0.0015413761138916016,0.012143850326538086,0,0
4.1971259117126465,-0.05162869393825531,-0.029151637107133865,-0.35163620114326477,0.02118580931261636,0.544005811214447,-0.04038271680474281,-0.03342221677303314,-0.028508156538009644,0.0,0.0,-0.9,0.0,0.0017552375793457031,0.0017552375793457031,0.013054132461547852,0,0
4.213364362716675,-0.05150463432073593,-0.028912898153066635,-0.35404160618782043,0.019437474569821103,0.5441715121269226,-0.043655723333358765,-0.05044688656926155,-0.027074046432971954,0.0,0.0,-0.9,0.0,0.0016984939575195312,0.0016984939575195312,0.012732744216918945,0,0
4.228219985961914,-0.05150463432073593,-0.028912898153066635,-0.35404160618782043,0.019437474569821103,0.5443075299263,-0.04600461572408676,-0.06262163072824478,-0.026101121678948402,0.0,0.0,-0.9,0.0,0.0018215179443359375,0.0018215179443359375,0.012595176696777344,0,0
4.244187831878662,-0.05164989456534386,-0.028503816574811935,-0.35679247975349426,0.017485263244262784,0.544592022895813,-0.05332377180457115,-0.07611661404371262,-0.02480989135801792,0.0,0.0,-0.9,0.0,0.0015997886657714844,0.0015997886657714844,0.012132644653320312,0,0
4.258944272994995,-0.05164989456534386,-0.028503816574811935,-0.35679247975349426,0.017485263244262784,0.5448217391967773,-0.05855768918991089,-0.08575532585382462,-0.023966901004314423,0.0,0.0,-0.9,0.0,0.0016894340515136719,0.0016894340515136719,0.012637138366699219,0,0
4.27469801902771,-0.05202005058526993,-0.0282275527715683,-0.3585176467895508,0.01580499796531327,0.5451834797859192,-0.06092068925499916,-0.0940275639295578,-0.02280399017035961,0.0,0.0,-0.9,0.0,0.0016026496887207031,0.0016026496887207031,0.012561559677124023,0,0
4.289315938949585,-0.05202005058526993,-0.0282275527715683,-0.3585176467895508,0.01580499796531327,0.5454723834991455,-0.06261046975851059,-0.0999322459101677,-0.022003069519996643,0.0,0.0,-0.9,0.0,0.0014660358428955078,0.0014660358428955078,0.013417243957519531,0,0
4.306063890457153,-0.05253515765070915,-0.027818534523248672,-0.3597712814807892,0.013987148832906773,0.5458886623382568,-0.06235313415527344,-0.10381746292114258,-0.020776689052581787,0.0,0.0,-0.9,0.0,0.001611471176147461,0.001611471176147461,0.012574434280395508,0,0
4.320829391479492,-0.05253515765070915,-0.027818534523248672,-0.3597712814807892,0.013987148832906773,0.5462201833724976,-0.06217096000909805,-0.106589674949646,-0.01991795375943184,0.0,0.0,-0.9,0.0,0.0016684532165527344,0.0016684532165527344,0.013012409210205078,0,0
4.337099075317383,-0.05304531380534172,-0.02766587771475315,-0.36058369278907776,0.012451992528759514,0.546542763710022,-0.059308554977178574,-0.10367473214864731,-0.018630636855959892,0.0,0.0,-0.9,0.0,0.0016789436340332031,0.0016789436340332031,0.012449026107788086,0,0
4.354095935821533,-0.053639207035303116,-0.027428986504673958,-0.36118462681770325,0.01133727018885754,0.5468783378601074,-0.057568710297346115,-0.10161580890417099,-0.017336152493953705,0.0,0.0,-0.9,0.0,0.0015327930450439453,0.0015327930450439453,0.012309074401855469,0,0
4.369675636291504,-0.05425727367401123,-0.02704988420009613,-0.36170411109924316,0.010394099266403901,0.5471810102462769,-0.05779115483164787,-0.10044008493423462,-0.01611883006989956,0.0,0.0,-0.9,0.0,0.0020236968994140625,0.0020236968994140625,0.012722015380859375,0,0
4.384075164794922,-0.05425727367401123,-0.02704988420009613,-0.36170411109924316,0.010394099266403901,0.5474218726158142,-0.05794906243681908,-0.09960067272186279,-0.015266488306224346,0.0,0.0,-0.9,0.0,0.001497030258178711,0.001497030258178711,0.012755155563354492,0,0
4.400637865066528,-0.0553116649389267,-0.026451541110873222,-0.3623875081539154,0.009232207598846354,0.5477042198181152,-0.05780978873372078,-0.09855318069458008,-0.014217276126146317,0.0,0.0,-0.9,0.0,0.0016169548034667969,0.0016169548034667969,0.012696266174316406,0,0
4.41490626335144,-0.0553116649389267,-0.026451541110873222,-0.3623875081539154,0.009232207598846354,0.5479288697242737,-0.057709578424692154,-0.09780535846948624,-0.01348271407186985,0.0,0.0,-0.9,0.0,0.0015048980712890625,0.0015048980712890625,0.012508392333984375,0,0
4.431347131729126,-0.056524608284235,-0.02593834325671196,-0.3628597557544708,0.008089601242771638,0.5482466220855713,-0.05479509383440018,-0.09666575491428375,-0.012483814731240273,0.0,0.0,-0.9,0.0,0.0015251636505126953,0.0015251636505126953,0.01259469985961914,0,0
4.446915149688721,-0.05742901563644409,-0.025580041110515594,-0.36301714181900024,0.0073590942783954725,0.5485883951187134,-0.05256273224949837,-0.09598345309495926,-0.011533771641552448,0.0,0.0,-0.9,0.0,0.0014755725860595703,0.0014755725860595703,0.012891054153442383,0,0
4.462609529495239,-0.05742901563644409,-0.025580041110515594,-0.36301714181900024,0.0073590942783954725,0.5488603115081787,-0.050968948751688004,-0.09549746662378311,-0.01086855586618185,0.0,0.0,-0.9,0.0,0.001689910888671875,0.001689910888671875,0.012656450271606445,0,0
4.478913307189941,-0.05892177298665047,-0.024974094703793526,-0.3630361258983612,0.0066843102281446895,0.549241840839386,-0.0479809008538723,-0.09598783403635025,-0.0101145775988698,0.0,0.0,-0.9,0.0,0.0017409324645996094,0.0017409324645996094,0.012310028076171875,0,0
4.492813348770142,-0.05892177298665047,-0.024974094703793526,-0.3630361258983612,0.0066843102281446895,0.5495454668998718,-0.04584914445877075,-0.09633862227201462,-0.009584634564816952,0.0,0.0,-0.9,0.0,0.001728057861328125,0.001728057861328125,0.012928962707519531,0,0
4.509479761123657,-0.0603984072804451,-0.0244755856692791,-0.3627667725086212,0.005941304973512218,0.5499152541160583,-0.04273928701877594,-0.09395671635866165,-0.008913819678127766,0.0,0.0,-0.9,0.0,0.00173187255859375,0.00173187255859375,0.012350797653198242,0,0
4.523468971252441,-0.0603984072804451,-0.0244755856692791,-0.3627667725086212,0.005941304973512218,0.5502095222473145,-0.04051974415779114,-0.09225831925868988,-0.008447110652923584,0.0,0.0,-0.9,0.0,0.0015864372253417969,0.0015864372253417969,0.012909173965454102,0,0
4.539473295211792,-0.06206289306282997,-0.024087490513920784,-0.3622944951057434,0.005150718947439758,0.5505276918411255,-0.027024148032069206,-0.0787029042840004,-0.0074673984199762344,0.0,0.0,-0.9,0.0,0.0015950202941894531,0.0015950202941894531,0.013126373291015625,0,0
4.5553576946258545,-0.06206289306282997,-0.024087490513920784,-0.3622944951057434,0.005150718947439758,0.5507856607437134,-0.017386021092534065,-0.06903543323278427,-0.006884806789457798,0.0,0.0,-0.9,0.0,0.001748800277709961,0.001748800277709961,0.01285409927368164,0,0
4.571496248245239,-0.06349395215511322,-0.02369479462504387,-0.36183780431747437,0.004628120637361695,0.5509871244430542,-0.012614134699106216,-0.06183231249451637,-0.006425063591450453,0.0,0.0,-0.9,0.0,0.0017690658569335938,0.0017690658569335938,0.012836933135986328,0,0
4.586318731307983,-0.06349395215511322,-0.02369479462504387,-0.36183780431747437,0.004628120637361695,0.5511483550071716,-0.009203335270285606,-0.05668717622756958,-0.006122225429862738,0.0,0.0,-0.9,0.0,0.0016357898712158203,0.0016357898712158203,0.012537717819213867,0,0
4.602403879165649,-0.06517364829778671,-0.02330748923122883,-0.3613264262676239,0.00417056929746192,0.5513221025466919,-0.0020899863447993994,-0.04623228311538696,-0.005700829438865185,0.0,0.0,-0.9,0.0,0.0016903877258300781,0.0016903877258300781,0.012527942657470703,0,0
4.6186699867248535,-0.0661124512553215,-0.022960348054766655,-0.3610418736934662,0.0038031961877902547,0.5513988733291626,0.0005749919801019132,-0.03730844706296921,-0.005363088101148605,0.0,0.0,-0.9,0.0,0.0018036365509033203,0.0018036365509033203,0.012578964233398438,0,0
4.632945775985718,-0.0661124512553215,-0.022960348054766655,-0.3610418736934662,0.0038031961877902547,0.5514611005783081,0.002482315991073847,-0.030926447361707687,-0.005140391178429127,0.0,0.0,-0.9,0.0,0.0016016960144042969,0.0016016960144042969,0.01259160041809082,0,0
4.649873733520508,-0.06765889376401901,-0.022371787577867508,-0.36078739166259766,0.003246291053285191,0.5513788461685181,0.005569956265389919,-0.020810307934880257,-0.0047837658785283566,0.0,0.0,-0.9,0.0,0.0016930103302001953,0.0016930103302001953,0.012541055679321289,0,0
4.665695428848267,-0.06879784166812897,-0.021929776296019554,-0.3606868088245392,0.002829328910201135,0.5512722730636597,0.007670844439417124,-0.008230524137616158,-0.004414794035255909,0.0,0.0,-0.9,0.0,0.0017099380493164062,0.0017099380493164062,0.012799501419067383,0,0
4.6800758838653564,-0.06879784166812897,-0.021929776296019554,-0.3606868088245392,0.002829328910201135,0.5511897802352905,0.00917772576212883,0.000781287788413465,-0.004172466229647398,0.0,0.0,-0.9,0.0,0.0016722679138183594,0.0016722679138183594,0.012685537338256836,0,0
4.696580171585083,-0.07029077410697937,-0.021242834627628326,-0.36061593890190125,0.0024134788319921698,0.5511676073074341,0.009229258634150028,0.014860407449305058,-0.003912386018782854,0.0,0.0,-0.9,0.0,0.0016138553619384766,0.0016138553619384766,0.012335538864135742,0,0
4.712389707565308,-0.07154954969882965,-0.020827122032642365,-0.3605250418186188,0.002160410784709681,0.5511336922645569,0.009786351583898067,0.03097332827746868,-0.003684456693008542,0.0,0.0,-0.9,0.0,0.0015816688537597656,0.0015816688537597656,0.012424468994140625,0,0
4.726870536804199,-0.07154954969882965,-0.020827122032642365,-0.3605250418186188,0.002160410784709681,0.5511102676391602,0.010186578147113323,0.04250967875123024,-0.0035315551795065403,0.0,0.0,-0.9,0.0,0.0015707015991210938,0.0015707015991210938,0.012781858444213867,0,0
4.742924690246582,-0.07309689372777939,-0.020331816747784615,-0.3603455722332001,0.0018811099787097415,0.5511811375617981,0.013284027576446533,0.05706268176436424,-0.003377647139132023,0.0,0.0,-0.9,0.0,0.0015149116516113281,0.0015149116516113281,0.012581586837768555,0,0
4.758270502090454,-0.07309689372777939,-0.020331816747784615,-0.3603455722332001,0.0018811099787097415,0.5512405037879944,0.015500180423259735,0.06747271865606308,-0.0032988705206662416,0.0,0.0,-0.9,0.0,0.0016455650329589844,0.0016455650329589844,0.012377738952636719,0,0
4.774117469787598,-0.07458154112100601,-0.01981205679476261,-0.3600578010082245,0.001210579758947402,0.551476240158081,0.019748268648982048,0.08210111409425735,-0.00309544475749135,0.0,0.0,-0.9,0.0,0.0015645027160644531,0.0015645027160644531,0.012440681457519531,0,0
4.788583278656006,-0.07458154112100601,-0.01981205679476261,-0.3600578010082245,0.001210579758947402,0.5516668558120728,0.022782927379012108,0.09254973381757736,-0.0029931962490081787,0.0,0.0,-0.9,0.0,0.0017523765563964844,0.0017523765563964844,0.012411832809448242,0,0
4.804225444793701,-0.07555462419986725,-0.019452540203928947,-0.35981470346450806,0.0007795996177849765,0.5516986846923828,0.020794346928596497,0.10393563657999039,-0.0027107468340545893,0.0,0.0,-0.9,0.0,0.001708984375,0.001708984375,0.013013601303100586,0,0
4.81948709487915,-0.07555462419986725,-0.019452540203928947,-0.35981470346450806,0.0007795996177849765,0.5517258048057556,0.01937277428805828,0.1120830774307251,-0.002499982714653015,0.0,0.0,-0.9,0.0,0.0016851425170898438,0.0016851425170898438,0.014756917953491211,0,0
4.838348865509033,-0.07705393433570862,-0.018795009702444077,-0.35927778482437134,5.795295965262804e-05,0.551920473575592,0.017704525962471962,0.12108470499515533,-0.002104898914694786,0.0,0.0,-0.9,0.0,0.0026121139526367188,0.0026121139526367188,0.015976667404174805,0,0
4.857143402099609,-0.07705393433570862,-0.018795009702444077,-0.35927778482437134,5.795295965262804e-05,0.5520763397216797,0.016513977199792862,0.12751661241054535,-0.0018195175798609853,0.0,0.0,-0.9,0.0,0.0034551620483398438,0.0034551620483398438,0.016687393188476562,0,0
4.878390789031982,-0.07839158177375793,-0.01821109838783741,-0.3587116599082947,-0.0006512343601075202,0.5521518588066101,0.016778413206338882,0.13234394788742065,-0.0014002027455717325,0.0,0.0,-0.9,0.0,0.0027108192443847656,0.0027108192443847656,0.015958070755004883,0,0
4.896183490753174,-0.07839158177375793,-0.01821109838783741,-0.3587116599082947,-0.0006512343601075202,0.5522122383117676,0.01696808822453022,0.13579656183719635,-0.0011082690907642245,0.0,0.0,-0.9,0.0,0.002420186996459961,0.002420186996459961,0.015293359756469727,0,0
4.916167736053467,-0.0794827789068222,-0.01762712560594082,-0.3582872450351715,-0.0012259303634198832,0.5522962212562561,0.016562875360250473,0.13435985147953033,-0.0007008257671259344,0.0,0.0,-0.9,0.0,0.0023882389068603516,0.0023882389068603516,0.01552128791809082,0,0
4.933803558349609,-0.0794827789068222,-0.01762712560594082,-0.3582872450351715,-0.0012259303634198832,0.5523630380630493,0.01627269759774208,0.13333255052566528,-0.00041543709812685847,0.0,0.0,-0.9,0.0,0.0019190311431884766,0.0019190311431884766,0.015241384506225586,0,0
4.954723358154297,-0.08048981428146362,-0.01722565107047558,-0.35793536901474,-0.0015609980443298957,0.552334189414978,0.01644495129585266,0.12749308347702026,-9.098882583202794e-05,0.0,0.0,-0.9,0.0,0.002187490463256836,0.002187490463256836,0.014768838882446289,0,0
4.974705457687378,-0.08091574162244797,-0.017058052122592926,-0.35775110125541687,-0.0018752116513715581,0.5523697137832642,0.015838339924812317,0.1255749762058258,0.0002546594478189945,0.0,0.0,-0.9,0.0,0.002314329147338867,0.002314329147338867,0.014989376068115234,0,0
4.992127895355225,-0.08091574162244797,-0.017058052122592926,-0.35775110125541687,-0.0018752116513715581,0.5523980259895325,0.015403964556753635,0.12420285493135452,0.0004966738051734865,0.0,0.0,-0.9,0.0,0.0022640228271484375,0.0022640228271484375,0.015413522720336914,0,0
5.01241135597229,-0.08149499446153641,-0.016573255881667137,-0.3574419319629669,-0.002540288497093532,0.552369236946106,0.010686205700039864,0.12123015522956848,0.0010783843463286757,0.0,0.0,-0.9,0.0,0.0021734237670898438,0.0021734237670898438,0.015531539916992188,0,0
5.030239582061768,-0.08149499446153641,-0.016573255881667137,-0.3574419319629669,-0.002540288497093532,0.5523468255996704,0.007308193948119879,0.11910337954759598,0.0014809072017669678,0.0,0.0,-0.9,0.0,0.0018434524536132812,0.0018434524536132812,0.01552271842956543,0,0
5.050704717636108,-0.08206532150506973,-0.0160420760512352,-0.356996089220047,-0.0032342162119939274,0.5523304343223572,-0.0013782726600766182,0.11351772397756577,0.002235161140561104,0.0,0.0,-0.9,0.0,0.0023322105407714844,0.0023322105407714844,0.016050100326538086,0,0
5.068662405014038,-0.08206532150506973,-0.0160420760512352,-0.356996089220047,-0.0032342162119939274,0.5523189306259155,-0.007597662042826414,0.10952252894639969,0.0027405135333538055,0.0,0.0,-0.9,0.0,0.002885580062866211,0.002885580062866211,0.014979362487792969,0,0
5.088309288024902,-0.08246173709630966,-0.01573140360414982,-0.3565967381000519,-0.0034257934416476762,0.5523762106895447,-0.015245777554810047,0.10304314643144608,0.0032630758360028267,0.0,0.0,-0.9,0.0,0.0018312931060791016,0.0018312931060791016,0.01550912857055664,0,0
5.107172250747681,-0.08294250816106796,-0.01548121776431799,-0.35604262351989746,-0.0034067490555090207,0.5524716377258301,-0.02207294851541519,0.08881751447916031,0.0036939678248018026,0.0,0.0,-0.9,0.0,0.001516580581665039,0.001516580581665039,0.01459503173828125,0,0
5.124276638031006,-0.08294250816106796,-0.01548121776431799,-0.35604262351989746,-0.0034067490555090207,0.5525509119033813,-0.026957161724567413,0.0786476880311966,0.00394178694114089,0.0,0.0,-0.9,0.0,0.0024518966674804688,0.0024518966674804688,0.015455245971679688,0,0
5.143443584442139,-0.08368542045354843,-0.01535307802259922,-0.3552912175655365,-0.0030595221179066674,0.5526564717292786,-0.02816283144056797,0.05556652694940567,0.00393827585503459,0.0,0.0,-0.9,0.0,0.0029273033142089844,0.0029273033142089844,0.015529632568359375,0,0
5.162801265716553,-0.08368542045354843,-0.01535307802259922,-0.3552912175655365,-0.0030595221179066674,0.5527477264404297,-0.02902390994131565,0.03906702622771263,0.003920223563909531,0.0,0.0,-0.9,0.0,0.002756357192993164,0.002756357192993164,0.015773296356201172,0,0
5.18291974067688,-0.0844905823469162,-0.015051156282424927,-0.354439377784729,-0.002577067035142147,0.5527633428573608,-0.03253115341067314,0.023034805431962013,0.003771274583414197,0.0,0.0,-0.9,0.0,0.002461671829223633,0.002461671829223633,0.015531063079833984,0,0
5.201516628265381,-0.0844905823469162,-0.015051156282424927,-0.354439377784729,-0.002577067035142147,0.5527794361114502,-0.03503929451107979,0.01156344823539257,0.0036342260427773,0.0,0.0,-0.9,0.0,0.001756429672241211,0.001756429672241211,0.013650655746459961,0,0
5.2197301387786865,-0.08544445037841797,-0.014799307100474834,-0.3535330593585968,-0.0024132951544396848,0.5528842806816101,-0.035324376076459885,-0.003387638833373785,0.003437178675085306,0.0,0.0,-0.9,0.0,0.002264738082885742,0.002264738082885742,0.01677083969116211,0,0
5.239158630371094,-0.08544445037841797,-0.014799307100474834,-0.3535330593585968,-0.0024132951544396848,0.5529706478118896,-0.03552667051553726,-0.014076702296733856,0.003296290058642626,0.0,0.0,-0.9,0.0,0.0016438961029052734,0.0016438961029052734,0.014984369277954102,0,0
5.258315324783325,-0.08639330416917801,-0.01449770200997591,-0.3525610864162445,-0.0022569089154966275,0.5531147122383118,-0.03170989081263542,-0.024579182267189026,0.0031269651371985674,0.0,0.0,-0.9,0.0,0.00298309326171875,0.00298309326171875,0.01641058921813965,0,0
5.277438640594482,-0.08639330416917801,-0.01449770200997591,-0.3525610864162445,-0.0022569089154966275,0.553230881690979,-0.028981398791074753,-0.03208457678556442,0.003032474545761943,0.0,0.0,-0.9,0.0,0.002490997314453125,0.002490997314453125,0.015263080596923828,0,0
5.296509504318237,-0.08743170648813248,-0.014222639612853527,-0.351616233587265,-0.0024774846727882967,0.5533114671707153,-0.019189899787306786,-0.03709769621491432,0.0031229574233293533,0.0,0.0,-0.9,0.0,0.002759695053100586,0.002759695053100586,0.015487432479858398,0,0
5.31454610824585,-0.08743170648813248,-0.014222639612853527,-0.351616233587265,-0.0024774846727882967,0.5533771514892578,-0.012188763357698917,-0.04068252444267273,0.0032175001688301563,0.0,0.0,-0.9,0.0,0.0025632381439208984,0.0025632381439208984,0.015720844268798828,0,0
5.334122180938721,-0.08865086734294891,-0.0142078110948205,-0.3506583869457245,-0.0028499963605626523,0.5533937811851501,-0.006198431830853224,-0.04221754148602486,0.003420645836740732,0.0,0.0,-0.9,0.0,0.002298593521118164,0.002298593521118164,0.015441656112670898,0,0
5.353229284286499,-0.08865086734294891,-0.0142078110948205,-0.3506583869457245,-0.0028499963605626523,0.5534075498580933,-0.0019126904662698507,-0.04331626743078232,0.0035697706043720245,0.0,0.0,-0.9,0.0,0.001988649368286133,0.001988649368286133,0.01447439193725586,0,0
5.371726989746094,-0.08975012600421906,-0.014137710444629192,-0.3499964773654938,-0.003057615441812449,0.5533848404884338,-0.002685565035790205,-0.04439554363489151,0.0037000589072704315,0.0,0.0,-0.9,0.0,0.002064943313598633,0.002064943313598633,0.016078948974609375,0,0
5.3928492069244385,-0.09094683825969696,-0.014096220023930073,-0.349408894777298,-0.0032315161195250663,0.5533552169799805,-0.0029371757991611958,-0.04718438908457756,0.0038735829293727875,0.0,0.0,-0.9,0.0,0.0024640560150146484,0.0024640560150146484,0.015539407730102539,0,0
5.410589218139648,-0.09094683825969696,-0.014096220023930073,-0.349408894777298,-0.0032315161195250663,0.5533317923545837,-0.003117421641945839,-0.049180563539266586,0.003994733560830355,0.0,0.0,-0.9,0.0,0.0018763542175292969,0.0018763542175292969,0.014769554138183594,0,0
5.4295408725738525,-0.09231314063072205,-0.01416658516973257,-0.34881430864334106,-0.0033290043451230005,0.553298830986023,-0.00404336117208004,-0.05207677185535431,0.004126786254346371,0.0,0.0,-0.9,0.0,0.0020265579223632812,0.0020265579223632812,0.015448331832885742,0,0
5.446710824966431,-0.09231314063072205,-0.01416658516973257,-0.34881430864334106,-0.0033290043451230005,0.5532727241516113,-0.004706248641014099,-0.05414984002709389,0.00421756599098444,0.0,0.0,-0.9,0.0,0.0018439292907714844,0.0018439292907714844,0.01456308364868164,0,0
5.466848850250244,-0.09434306621551514,-0.01421386282891035,-0.3479068875312805,-0.0033106202300019244,0.5533643960952759,-0.0031510014086961746,-0.059335675090551376,0.004351535812020302,0.0,0.0,-0.9,0.0,0.002329111099243164,0.002329111099243164,0.015232324600219727,0,0
5.484081506729126,-0.09434306621551514,-0.01421386282891035,-0.3479068875312805,-0.0033106202300019244,0.5534377098083496,-0.002039271639660001,-0.06304368376731873,0.004451052751392126,0.0,0.0,-0.9,0.0,0.002035856246948242,0.002035856246948242,0.015604972839355469,0,0
5.504220485687256,-0.09661556035280228,-0.014374791644513607,-0.3467748463153839,-0.003638559925497371,0.5536201000213623,0.0035069917794317007,-0.06503507494926453,0.004709228873252869,0.0,0.0,-0.9,0.0,0.0023245811462402344,0.0023245811462402344,0.014271736145019531,0,0
5.52028751373291,-0.09661556035280228,-0.014374791644513607,-0.3467748463153839,-0.003638559925497371,0.5537655353546143,0.0074690221808850765,-0.06645828485488892,0.004898551385849714,0.0,0.0,-0.9,0.0,0.002179861068725586,0.002179861068725586,0.015265464782714844,0,0
5.540424108505249,-0.09841764718294144,-0.014499364420771599,-0.34569883346557617,-0.004234534385743594,0.5540044903755188,0.014914794825017452,-0.06661161035299301,0.005331879016011953,0.0,0.0,-0.9,0.0,0.0023322105407714844,0.0023322105407714844,0.015409231185913086,0,0
5.558641672134399,-0.09841764718294144,-0.014499364420771599,-0.34569883346557617,-0.004234534385743594,0.5541951656341553,0.020231224596500397,-0.06672230362892151,0.005638409405946732,0.0,0.0,-0.9,0.0,0.002669811248779297,0.002669811248779297,0.01539468765258789,0,0
5.578646421432495,-0.10021823644638062,-0.014555606059730053,-0.344730943441391,-0.004810162931082321,0.554268479347229,0.020826445892453194,-0.06469277292490005,0.0059707132168114185,0.0,0.0,-0.9,0.0,0.002630472183227539,0.002630472183227539,0.01637434959411621,0,0
5.597272872924805,-0.10021823644638062,-0.014555606059730053,-0.344730943441391,-0.004810162931082321,0.5543267726898193,0.02125239558517933,-0.0632416382431984,0.0062025077641010284,0.0,0.0,-0.9,0.0,0.002464771270751953,0.002464771270751953,0.01635885238647461,0,0
5.6181111335754395,-0.10313448309898376,-0.01444470975548029,-0.34354114532470703,-0.00552952835587353,0.5543021559715271,0.020730162039399147,-0.06568937748670578,0.006705715786665678,0.0,0.0,-0.9,0.0,0.0018711090087890625,0.0018711090087890625,0.015173196792602539,0,0
5.635645627975464,-0.10313448309898376,-0.01444470975548029,-0.34354114532470703,-0.00552952835587353,0.5542826652526855,0.020356060937047005,-0.06744102388620377,0.0070574404671788216,0.0,0.0,-0.9,0.0,0.002644777297973633,0.002644777297973633,0.015108108520507812,0,0
5.6549670696258545,-0.10560651868581772,-0.014423550106585026,-0.34275880455970764,-0.006017992462929573,0.5543367862701416,0.0131120840087533,-0.0700153186917305,0.007404242642223835,0.0,0.0,-0.9,0.0,0.002606630325317383,0.002606630325317383,0.014957666397094727,0,0
5.672840595245361,-0.10560651868581772,-0.014423550106585026,-0.34275880455970764,-0.006017992462929573,0.5543806552886963,0.007931388914585114,-0.07185531407594681,0.007633652072399855,0.0,0.0,-0.9,0.0,0.002313375473022461,0.002313375473022461,0.015442371368408203,0,0
5.69211745262146,-0.10810793936252594,-0.014230914413928986,-0.34211039543151855,-0.0061168470288575786,0.5542819499969482,-0.004630006849765778,-0.07148810476064682,0.007639350835233927,0.0,0.0,-0.9,0.0,0.0028009414672851562,0.0028009414672851562,0.015912294387817383,0,0
5.710859060287476,-0.10810793936252594,-0.014230914413928986,-0.34211039543151855,-0.0061168470288575786,0.5542056560516357,-0.013625526800751686,-0.07122508436441422,0.0076411147601902485,0.0,0.0,-0.9,0.0,0.0018057823181152344,0.0018057823181152344,0.013489961624145508,0,0
5.728695392608643,-0.10995323956012726,-0.013950505293905735,-0.3416557312011719,-0.006408861207172158,0.5541278123855591,-0.023064179345965385,-0.07013536989688873,0.007720802444964647,0.0,0.0,-0.9,0.0,0.0028162002563476562,0.0028162002563476562,0.015923738479614258,0,0
5.747493267059326,-0.10995323956012726,-0.013950505293905735,-0.3416557312011719,-0.006408861207172158,0.5540671348571777,-0.029822399839758873,-0.06935479491949081,0.007778996601700783,0.0,0.0,-0.9,0.0,0.0015425682067871094,0.0015425682067871094,0.01464533805847168,0,0
5.767622709274292,-0.11247863620519638,-0.0135929174721241,-0.3410379886627197,-0.006600928981744255,0.5540428161621094,-0.036282770335674286,-0.06467733532190323,0.007872276939451694,0.0,0.0,-0.9,0.0,0.0027289390563964844,0.0027289390563964844,0.014925003051757812,0,0
5.7844274044036865,-0.11247863620519638,-0.0135929174721241,-0.3410379886627197,-0.006600928981744255,0.554024338722229,-0.04090624675154686,-0.06132940202951431,0.007953050546348095,0.0,0.0,-0.9,0.0,0.002492666244506836,0.002492666244506836,0.015663862228393555,0,0
5.805161476135254,-0.11517365276813507,-0.013223569840192795,-0.3404396176338196,-0.007184356807521364,0.5540030002593994,-0.04279065877199173,-0.053916655480861664,0.008257688954472542,0.0,0.0,-0.9,0.0,0.0019412040710449219,0.0019412040710449219,0.014653444290161133,0,0
5.821932315826416,-0.11517365276813507,-0.013223569840192795,-0.3404396176338196,-0.007184356807521364,0.5539868474006653,-0.044138237833976746,-0.048611510545015335,0.008478481322526932,0.0,0.0,-0.9,0.0,0.0019538402557373047,0.0019538402557373047,0.015118122100830078,0,0
5.841926336288452,-0.11797364056110382,-0.012872155755758286,-0.33979886770248413,-0.007976365454607103,0.5540710687637329,-0.04424745589494705,-0.04116473346948624,0.008926598355174065,0.0,0.0,-0.9,0.0,0.002508878707885742,0.002508878707885742,0.01575469970703125,0,0
5.859984397888184,-0.11797364056110382,-0.012872155755758286,-0.33979886770248413,-0.007976365454607103,0.5541387796401978,-0.04432407021522522,-0.03584057092666626,0.00924080889672041,0.0,0.0,-0.9,0.0,0.002700328826904297,0.002700328826904297,0.01595282554626465,0,0
5.880500555038452,-0.12020138651132584,-0.012427574954926968,-0.33922335505485535,-0.00866124011087699,0.5542915463447571,-0.04412812739610672,-0.03270622715353966,0.00970684364438057,0.0,0.0,-0.9,0.0,0.0018024444580078125,0.0018024444580078125,0.015000104904174805,0,0
5.900189161300659,-0.12236163020133972,-0.011907938867807388,-0.3385554552078247,-0.009046523356193353,0.5544905662536621,-0.04347527027130127,-0.033708103001117706,0.010158662684261799,0.0,0.0,-0.9,0.0,0.0023717880249023438,0.0023717880249023438,0.0146331787109375,0,0
5.917083740234375,-0.12236163020133972,-0.011907938867807388,-0.3385554552078247,-0.009046523356193353,0.554648756980896,-0.04300910234451294,-0.03442384675145149,0.010475357063114643,0.0,0.0,-0.9,0.0,0.0021758079528808594,0.0021758079528808594,0.014155149459838867,0,0
5.935545444488525,-0.12462679296731949,-0.011461181566119194,-0.33774998784065247,-0.009510236388948849,0.5547171831130981,-0.043882012367248535,-0.04022156074643135,0.010810552164912224,0.0,0.0,-0.9,0.0,0.0024123191833496094,0.0024123191833496094,0.0156552791595459,0,0
5.954564809799194,-0.12462679296731949,-0.011461181566119194,-0.33774998784065247,-0.009510236388948849,0.5547720193862915,-0.044506803154945374,-0.04436725750565529,0.011041296645998955,0.0,0.0,-0.9,0.0,0.00159454345703125,0.00159454345703125,0.014300107955932617,0,0
5.972399473190308,-0.12684258818626404,-0.0109150605276227,-0.3370046019554138,-0.009756353171855083,0.5548220872879028,-0.04154631122946739,-0.04374946281313896,0.011340787634253502,0.0,0.0,-0.9,0.0,0.0019893646240234375,0.0019893646240234375,0.014547109603881836,0,0
5.989477157592773,-0.12684258818626404,-0.0109150605276227,-0.3370046019554138,-0.009756353171855083,0.5548620223999023,-0.039429016411304474,-0.04330804571509361,0.01155010238289833,0.0,0.0,-0.9,0.0,0.001758575439453125,0.001758575439453125,0.012999296188354492,0,0
6.006569862365723,-0.12878423929214478,-0.010340109467506409,-0.33634525537490845,-0.009726083373090041,0.5548726320266724,-0.03515194356441498,-0.043630074709653854,0.011706489138305187,0.0,0.0,-0.9,0.0,0.0015416145324707031,0.0015416145324707031,0.01311635971069336,0,0
6.023564100265503,-0.13058431446552277,-0.009922531433403492,-0.33568882942199707,-0.009936074001180902,0.554906964302063,-0.0235636867582798,-0.044541455805301666,0.011990329250693321,0.0,0.0,-0.9,0.0,0.0016026496887207031,0.0016026496887207031,0.01239156723022461,0,0
6.037611484527588,-0.13058431446552277,-0.009922531433403492,-0.33568882942199707,-0.009936074001180902,0.5549361705780029,-0.015275650657713413,-0.04519450291991234,0.012198210693895817,0.0,0.0,-0.9,0.0,0.0015125274658203125,0.0015125274658203125,0.012972354888916016,0,0
6.055048704147339,-0.1325952410697937,-0.00949307531118393,-0.3349473178386688,-0.010628738935557705,0.5549126863479614,-0.01543983444571495,-0.041152406483888626,0.01249833032488823,0.0,0.0,-0.9,0.0,0.0016028881072998047,0.0016028881072998047,0.013683319091796875,0,0
6.070580244064331,-0.1325952410697937,-0.00949307531118393,-0.3349473178386688,-0.010628738935557705,0.5548942685127258,-0.015556806698441505,-0.038259878754615784,0.012708952650427818,0.0,0.0,-0.9,0.0,0.0021600723266601562,0.0021600723266601562,0.015583992004394531,0,0
6.0906383991241455,-0.1344066560268402,-0.009170643985271454,-0.33436721563339233,-0.011217338000185874,0.55478435754776,-0.01387177873402834,-0.0370587594807148,0.013081404380500317,0.0,0.0,-0.9,0.0,0.002140522003173828,0.002140522003173828,0.014650344848632812,0,0
6.110151052474976,-0.13547351956367493,-0.008883855305612087,-0.3341332674026489,-0.01169027286907297,0.5546941161155701,-0.007659261580556631,-0.033669307827949524,0.013589135371148586,0.0,0.0,-0.9,0.0,0.001950979232788086,0.001950979232788086,0.01577305793762207,0,0
6.127590656280518,-0.13547351956367493,-0.008883855305612087,-0.3341332674026489,-0.01169027286907297,0.5546231269836426,-0.0032100609969347715,-0.03124360553920269,0.013933406211435795,0.0,0.0,-0.9,0.0,0.001917123794555664,0.001917123794555664,0.01517176628112793,0,0
6.147725820541382,-0.13761349022388458,-0.008786004036664963,-0.33375048637390137,-0.012372584006898323,0.5544930696487427,0.011446993798017502,-0.028793668374419212,0.014528554864227772,0.0,0.0,-0.9,0.0,0.002750873565673828,0.002750873565673828,0.015650272369384766,0,0
6.165733814239502,-0.13761349022388458,-0.008786004036664963,-0.33375048637390137,-0.012372584006898323,0.5543928146362305,0.021946728229522705,-0.02704203501343727,0.014926634728908539,0.0,0.0,-0.9,0.0,0.0023970603942871094,0.0023970603942871094,0.014010906219482422,0,0
6.184715032577515,-0.1395418494939804,-0.008888931013643742,-0.3336898982524872,-0.013266875564274019,0.5542585253715515,0.03115340881049633,-0.022824125364422798,0.015524416230618954,0.0,0.0,-0.9,0.0,0.0017573833465576172,0.0017573833465576172,0.013849973678588867,0,0
6.201140642166138,-0.1395418494939804,-0.008888931013643742,-0.3336898982524872,-0.013266875564274019,0.5541532039642334,0.03774989768862724,-0.019804390147328377,0.015920745208859444,0.0,0.0,-0.9,0.0,0.0023071765899658203,0.0023071765899658203,0.015012264251708984,0,0
6.219599485397339,-0.14148002862930298,-0.008991818875074387,-0.3340745270252228,-0.013567760410208303,0.553801417350769,0.03597759082913399,-0.01189443189650774,0.016189569607377052,0.0,0.0,-0.9,0.0,0.0026772022247314453,0.0026772022247314453,0.015784263610839844,0,0
6.238012313842773,-0.14148002862930298,-0.008991818875074387,-0.3340745270252228,-0.013567760410208303,0.5535226464271545,0.03470626473426819,-0.006216817535459995,0.016384301707148552,0.0,0.0,-0.9,0.0,0.002820253372192383,0.002820253372192383,0.01671147346496582,0,0
6.258960008621216,-0.14306506514549255,-0.008990131318569183,-0.3346925973892212,-0.014024282994168205,0.5531586408615112,0.035718467086553574,0.004031023010611534,0.016635842621326447,0.0,0.0,-0.9,0.0,0.0018916130065917969,0.0018916130065917969,0.01516413688659668,0,0
6.279108285903931,-0.14412280917167664,-0.008993149735033512,-0.3351912200450897,-0.01476438925206761,0.5527795553207397,0.03914564102888107,0.014392373152077198,0.017053425312042236,0.0,0.0,-0.9,0.0,0.0023529529571533203,0.0023529529571533203,0.015520572662353516,0,0
6.297004461288452,-0.14412280917167664,-0.008993149735033512,-0.3351912200450897,-0.01476438925206761,0.5524798035621643,0.041607972234487534,0.021832043305039406,0.017322104424238205,0.0,0.0,-0.9,0.0,0.002212047576904297,0.002212047576904297,0.01562666893005371,0,0
6.317635774612427,-0.14615383744239807,-0.009213916957378387,-0.33631202578544617,-0.016147027806409107,0.5521258115768433,0.04331245645880699,0.030589526519179344,0.017973972484469414,0.0,0.0,-0.9,0.0,0.0019147396087646484,0.0019147396087646484,0.014202356338500977,0,0
6.33593225479126,-0.1471308171749115,-0.009367669001221657,-0.3369571268558502,-0.016961340959925755,0.5517765879631042,0.04428253322839737,0.03552611172199249,0.01874012127518654,0.0,0.0,-0.9,0.0,0.0017724037170410156,0.0017724037170410156,0.01417398452758789,0,0
6.353852272033691,-0.1471308171749115,-0.009367669001221657,-0.3369571268558502,-0.016961340959925755,0.5514991879463196,0.04498027637600899,0.03907014802098274,0.019272275269031525,0.0,0.0,-0.9,0.0,0.0021162033081054688,0.0021162033081054688,0.015313386917114258,0,0
6.37314510345459,-0.14888694882392883,-0.009723055176436901,-0.3384212851524353,-0.018251195272089932,0.5511702299118042,0.044884756207466125,0.03772350400686264,0.020184548571705818,0.0,0.0,-0.9,0.0,0.002248048782348633,0.002248048782348633,0.015177011489868164,0,0
6.3912436962127686,-0.14888694882392883,-0.009723055176436901,-0.3384212851524353,-0.018251195272089932,0.5509085655212402,0.04481557756662369,0.036757033318281174,0.02082335203886032,0.0,0.0,-0.9,0.0,0.0017991065979003906,0.0017991065979003906,0.014930963516235352,0,0
6.41037654876709,-0.1501016616821289,-0.009913052432239056,-0.33957162499427795,-0.01899849484881168,0.5506720542907715,0.04232128709554672,0.032367441803216934,0.021622970700263977,0.0,0.0,-0.9,0.0,0.002232789993286133,0.002232789993286133,0.014465093612670898,0,0
6.429366588592529,-0.15086252987384796,-0.010020211338996887,-0.34035342931747437,-0.019263742738261185,0.5505126118659973,0.0401187390089035,0.027196399867534637,0.022305592894554138,0.0,0.0,-0.9,0.0,0.0026297569274902344,0.0026297569274902344,0.015235185623168945,0,0
6.446398019790649,-0.15086252987384796,-0.010020211338996887,-0.34035342931747437,-0.019263742738261185,0.5503862500190735,0.038538504391908646,0.023490631952881813,0.022777989506721497,0.0,0.0,-0.9,0.0,0.002352476119995117,0.002352476119995117,0.015412330627441406,0,0
6.467708110809326,-0.1523481160402298,-0.010560960508883,-0.34178927540779114,-0.02040802312966722,0.5504158735275269,0.046906087547540665,0.014092857949435711,0.023555554449558258,0.0,0.0,-0.9,0.0,0.0018155574798583984,0.0018155574798583984,0.015532255172729492,0,0
6.485742568969727,-0.1523481160402298,-0.010560960508883,-0.34178927540779114,-0.02040802312966722,0.550441563129425,0.052891187369823456,0.007364700548350811,0.02414797618985176,0.0,0.0,-0.9,0.0,0.002471923828125,0.002471923828125,0.015024900436401367,0,0
6.505945444107056,-0.15363702178001404,-0.011309335939586163,-0.3430536091327667,-0.021302444599471046,0.550504207611084,0.05454149842262268,0.0016527448315173388,0.024944022297859192,0.0,0.0,-0.9,0.0,0.0021855831146240234,0.0021855831146240234,0.014645099639892578,0,0
6.52342677116394,-0.15363702178001404,-0.011309335939586163,-0.3430536091327667,-0.021302444599471046,0.5505545139312744,0.055720314383506775,-0.002433963818475604,0.025508083403110504,0.0,0.0,-0.9,0.0,0.0017547607421875,0.0017547607421875,0.015046834945678711,0,0
6.542035102844238,-0.15450197458267212,-0.01182709913700819,-0.34388643503189087,-0.02172015279407465,0.550484299659729,0.06186269596219063,-0.007120869122445583,0.02609688974916935,0.0,0.0,-0.9,0.0,0.0017621517181396484,0.0017621517181396484,0.014641046524047852,0,0
6.562575817108154,-0.1549803763628006,-0.012273523956537247,-0.34458810091018677,-0.022055825560624288,0.5503300428390503,0.06724487990140915,-0.007619785610586405,0.026597317308187485,0.0,0.0,-0.9,0.0,0.002109527587890625,0.002109527587890625,0.015676021575927734,0,0
6.582774877548218,-0.15562288463115692,-0.01288262102752924,-0.3456519544124603,-0.022595041543343998,0.5501365661621094,0.07026450335979462,-0.004906498361378908,0.027083655819296837,0.0,0.0,-0.9,0.0,0.002284526824951172,0.002284526824951172,0.015732526779174805,0,0
6.601715326309204,-0.15562288463115692,-0.01288262102752924,-0.3456519544124603,-0.022595041543343998,0.5499828457832336,0.07243026793003082,-0.0029612351208925247,0.02741839736700058,0.0,0.0,-0.9,0.0,0.002380847930908203,0.002380847930908203,0.015328645706176758,0,0
6.621255874633789,-0.15635307133197784,-0.013711065985262394,-0.3472469449043274,-0.023286713745243322,0.5496019721031189,0.06779021769762039,0.00022562623780686408,0.027853691950440407,0.0,0.0,-0.9,0.0,0.002150297164916992,0.002150297164916992,0.015486717224121094,0,0
6.639126539230347,-0.15635307133197784,-0.013711065985262394,-0.3472469449043274,-0.023286713745243322,0.5492993593215942,0.06445794552564621,0.002515380037948489,0.028165819123387337,0.0,0.0,-0.9,0.0,0.0018165111541748047,0.0018165111541748047,0.01559901237487793,0,0
