time,x,y,z,yaw,throttle,roll_rate,pitch_rate,yaw_rate,x_ref,y_ref,z_ref,yaw_ref,pred_time,nr_time,ctrl_callback_time,v_norm,metadata
4.76837158203125e-06,-0.15823329985141754,-0.025410471484065056,-0.23718573153018951,0.10851904437059041,0.4974415898323059,0.0004827971279155463,-0.08467495441436768,-0.040517255663871765,0.0,0.0,-0.9,0.0,2.886653423309326,2.886653423309326,3.1370816230773926,0,Hardware
3.1407272815704346,-0.15823329985141754,-0.025410471484065056,-0.23718573153018951,0.10851904437059041,0.5107841491699219,0.0020392327569425106,-0.1352696567773819,-0.06872642040252686,0.0,0.0,-0.9,0.0,0.0028777122497558594,0.0028777122497558594,0.01731705665588379,0,jax_reg_wardi
3.1865687370300293,-0.15234041213989258,-0.02461012825369835,-0.23635609447956085,0.10848189338841145,0.5215209722518921,0.0035809071268886328,-0.15666082501411438,-0.08834973722696304,0.0,0.0,-0.9,0.0,0.0029973983764648438,0.0029973983764648438,0.01877117156982422,0,2x Speed
3.207256555557251,-0.15234041213989258,-0.02461012825369835,-0.23635609447956085,0.10848189338841145,0.5300637483596802,0.004762846976518631,-0.17043499648571014,-0.10202587395906448,0.0,0.0,-0.9,0.0,0.0017333030700683594,0.0017333030700683594,0.014595985412597656,0,helix
3.2274065017700195,-0.15229757130146027,-0.02464509755373001,-0.23632225394248962,0.10853466773215532,0.5368760824203491,0.005294454749673605,-0.18003800511360168,-0.1116010919213295,0.0,0.0,-0.9,0.0,0.0022194385528564453,0.0022194385528564453,0.01607203483581543,0,0
3.247969627380371,-0.15226618945598602,-0.024672426283359528,-0.2362908571958542,0.10843775572906736,0.542253851890564,0.006289106793701649,-0.1857326477766037,-0.11822886765003204,0.0,0.0,-0.9,0.0,0.0027742385864257812,0.0027742385864257812,0.016715288162231445,0,0
3.270388126373291,-0.1522093564271927,-0.024690497666597366,-0.23628516495227814,0.10855162141680176,0.5463880896568298,0.006495294161140919,-0.18817037343978882,-0.12294274568557739,0.0,0.0,-0.9,0.0,0.002690553665161133,0.002690553665161133,0.01702427864074707,0,0
3.2896358966827393,-0.1522093564271927,-0.024690497666597366,-0.23628516495227814,0.10855162141680176,0.5496706366539001,0.0066438219510018826,-0.18985077738761902,-0.1262408047914505,0.0,0.0,-0.9,0.0,0.0026884078979492188,0.0026884078979492188,0.01697254180908203,0,0
3.3114757537841797,-0.15213415026664734,-0.02472705766558647,-0.2363649308681488,0.10839876845779994,0.5522841215133667,0.007385708391666412,-0.18912751972675323,-0.12846669554710388,0.0,0.0,-0.9,0.0,0.0023527145385742188,0.0023527145385742188,0.015084505081176758,0,0
3.329087972640991,-0.15213415026664734,-0.02472705766558647,-0.2363649308681488,0.10839876845779994,0.5543586611747742,0.00790380034595728,-0.1886213719844818,-0.13002540171146393,0.0,0.0,-0.9,0.0,0.002374887466430664,0.002374887466430664,0.016694068908691406,0,0
3.3503401279449463,-0.15174070000648499,-0.02473832666873932,-0.2365206480026245,0.1088631779126309,0.5559666156768799,0.0063237897120416164,-0.1857118457555771,-0.1314488798379898,0.0,0.0,-0.9,0.0,0.0027725696563720703,0.0027725696563720703,0.016489505767822266,0,0
3.3698537349700928,-0.15174070000648499,-0.02473832666873932,-0.2365206480026245,0.1088631779126309,0.5572429895401001,0.0052076177671551704,-0.18366093933582306,-0.13244353234767914,0.0,0.0,-0.9,0.0,0.002802133560180664,0.002802133560180664,0.016553640365600586,0,0
3.3905160427093506,-0.15104427933692932,-0.024595389142632484,-0.23690061271190643,0.10899908710647888,0.5581329464912415,0.006617020815610886,-0.17703954875469208,-0.13307493925094604,0.0,0.0,-0.9,0.0,0.002126932144165039,0.002126932144165039,0.013705253601074219,0,0
3.4072482585906982,-0.15052835643291473,-0.024526268243789673,-0.23721861839294434,0.1093315721401787,0.5587354898452759,0.005763101391494274,-0.16740718483924866,-0.1337939202785492,0.0,0.0,-0.9,0.0,0.0020482540130615234,0.0020482540130615234,0.013166427612304688,0,0
3.422616481781006,-0.15052835643291473,-0.024526268243789673,-0.23721861839294434,0.1093315721401787,0.5592150688171387,0.00515257241204381,-0.16055607795715332,-0.1342916488647461,0.0,0.0,-0.9,0.0,0.0019202232360839844,0.0019202232360839844,0.013108491897583008,0,0
3.43896746635437,-0.1495504081249237,-0.024398447945713997,-0.2379787713289261,0.11028065711044319,0.5593215823173523,0.003164611989632249,-0.14505667984485626,-0.13516190648078918,0.0,0.0,-0.9,0.0,0.0017406940460205078,0.0017406940460205078,0.01299142837524414,0,0
3.4535892009735107,-0.1495504081249237,-0.024398447945713997,-0.2379787713289261,0.11028065711044319,0.5594095587730408,0.001738405553624034,-0.13398607075214386,-0.1357494741678238,0.0,0.0,-0.9,0.0,0.0016868114471435547,0.0016868114471435547,0.013011932373046875,0,0
3.470944404602051,-0.1484435647726059,-0.024339361116290092,-0.2393200546503067,0.1110245361922858,0.5590892434120178,0.001706164563074708,-0.11198865622282028,-0.136539027094841,0.0,0.0,-0.9,0.0,0.0017292499542236328,0.0017292499542236328,0.012941837310791016,0,0
3.4856460094451904,-0.1484435647726059,-0.024339361116290092,-0.2393200546503067,0.1110245361922858,0.5588415861129761,0.0016757957637310028,-0.09621714800596237,-0.13707907497882843,0.0,0.0,-0.9,0.0,0.0017931461334228516,0.0017931461334228516,0.013976097106933594,0,0
3.502819299697876,-0.1472296267747879,-0.024208053946495056,-0.24131198227405548,0.11146935798946239,0.5582444071769714,0.0003395336680114269,-0.0708015114068985,-0.13779513537883759,0.0,0.0,-0.9,0.0,0.0018413066864013672,0.0018413066864013672,0.013089418411254883,0,0
3.5179667472839355,-0.1472296267747879,-0.024208053946495056,-0.24131198227405548,0.11146935798946239,0.5577789545059204,-0.0006286613643169403,-0.05253283306956291,-0.13825887441635132,0.0,0.0,-0.9,0.0,0.0015766620635986328,0.0015766620635986328,0.012136697769165039,0,0
3.5334081649780273,-0.14598336815834045,-0.02407333068549633,-0.24385406076908112,0.11148394040626551,0.5572350025177002,-0.0049222237430512905,-0.024793734773993492,-0.1387658715248108,0.0,0.0,-0.9,0.0,0.0018725395202636719,0.0018725395202636719,0.013181209564208984,0,0
3.5486831665039062,-0.14598336815834045,-0.02407333068549633,-0.24385406076908112,0.11148394040626551,0.5568137168884277,-0.008013414219021797,-0.004860538989305496,-0.1390271782875061,0.0,0.0,-0.9,0.0,0.0017027854919433594,0.0017027854919433594,0.012764930725097656,0,0
3.5654330253601074,-0.14486511051654816,-0.023928942158818245,-0.24683858454227448,0.11160720484928474,0.5561070442199707,-0.015214795246720314,0.025888871401548386,-0.13933469355106354,0.0,0.0,-0.9,0.0,0.0016658306121826172,0.0016658306121826172,0.013042926788330078,0,0
3.582164764404297,-0.14409250020980835,-0.023826779797673225,-0.24912109971046448,0.11156884693252525,0.5552645921707153,-0.021502800285816193,0.05981915071606636,-0.13940632343292236,0.0,0.0,-0.9,0.0,0.0016322135925292969,0.0016322135925292969,0.013080835342407227,0,0
3.5985701084136963,-0.14324966073036194,-0.023665321990847588,-0.25192201137542725,0.11147805070809189,0.5544010400772095,-0.018251800909638405,0.10147494822740555,-0.13938763737678528,0.0,0.0,-0.9,0.0,0.0016248226165771484,0.0016248226165771484,0.01272130012512207,0,0
3.6134631633758545,-0.14324966073036194,-0.023665321990847588,-0.25192201137542725,0.11147805070809189,0.5537385940551758,-0.01590646430850029,0.13151413202285767,-0.13939200341701508,0.0,0.0,-0.9,0.0,0.0017025470733642578,0.0017025470733642578,0.0128326416015625,0,0
3.6294455528259277,-0.14181938767433167,-0.023560725152492523,-0.25636520981788635,0.11092393965165082,0.552852988243103,-0.008394764736294746,0.16997385025024414,-0.1393728405237198,0.0,0.0,-0.9,0.0,0.0017054080963134766,0.0017054080963134766,0.013058662414550781,0,0
3.644514560699463,-0.14181938767433167,-0.023560725152492523,-0.25636520981788635,0.11092393965165082,0.5521697998046875,-0.002978262258693576,0.19772495329380035,-0.13948549330234528,0.0,0.0,-0.9,0.0,0.0016622543334960938,0.0016622543334960938,0.012923955917358398,0,0
3.6613564491271973,-0.14085380733013153,-0.023470962420105934,-0.25931358337402344,0.11043956507803943,0.5513861179351807,0.0020001675002276897,0.22644509375095367,-0.13946981728076935,0.0,0.0,-0.9,0.0,0.0015556812286376953,0.0015556812286376953,0.013105630874633789,0,0
3.678363561630249,-0.13923391699790955,-0.023376772180199623,-0.26361969113349915,0.10966197394726242,0.5505630373954773,0.0008928915485739708,0.254891037940979,-0.13881346583366394,0.0,0.0,-0.9,0.0,0.0015850067138671875,0.0015850067138671875,0.012833118438720703,0,0
3.6932833194732666,-0.13923391699790955,-0.023376772180199623,-0.26361969113349915,0.10966197394726242,0.5499192476272583,0.00010309564822819084,0.2754138708114624,-0.13830292224884033,0.0,0.0,-0.9,0.0,0.0017244815826416016,0.0017244815826416016,0.014014959335327148,0,0
3.7111353874206543,-0.13744346797466278,-0.023219043388962746,-0.2682686448097229,0.10822848951620631,0.5492069721221924,-0.0032578911632299423,0.2908662259578705,-0.13707876205444336,0.0,0.0,-0.9,0.0,0.0016553401947021484,0.0016553401947021484,0.012240171432495117,0,0
3.7251596450805664,-0.13744346797466278,-0.023219043388962746,-0.2682686448097229,0.10822848951620631,0.5486434698104858,-0.005671697203069925,0.3020046353340149,-0.13617470860481262,0.0,0.0,-0.9,0.0,0.0015773773193359375,0.0015773773193359375,0.012647867202758789,0,0
3.741044044494629,-0.13512393832206726,-0.02308928221464157,-0.2737036943435669,0.10689247143904504,0.5478689670562744,-0.004786435980349779,0.31547030806541443,-0.13521209359169006,0.0,0.0,-0.9,0.0,0.0017161369323730469,0.0017161369323730469,0.012482404708862305,0,0
3.7580080032348633,-0.13368313014507294,-0.022978337481617928,-0.2770496904850006,0.10577271083129494,0.5471488833427429,-0.00029104494024068117,0.32767850160598755,-0.13453179597854614,0.0,0.0,-0.9,0.0,0.0016207695007324219,0.0016207695007324219,0.01280069351196289,0,0
3.77236270904541,-0.13368313014507294,-0.022978337481617928,-0.2770496904850006,0.10577271083129494,0.5465778112411499,0.0029492804314941168,0.33647841215133667,-0.13409368693828583,0.0,0.0,-0.9,0.0,0.0017931461334228516,0.0017931461334228516,0.01289820671081543,0,0
3.7889723777770996,-0.13014096021652222,-0.022876784205436707,-0.2845022976398468,0.10312328784734777,0.545788049697876,0.011000782251358032,0.3458798825740814,-0.13348646461963654,0.0,0.0,-0.9,0.0,0.0016598701477050781,0.0016598701477050781,0.012754201889038086,0,0
3.8033103942871094,-0.13014096021652222,-0.022876784205436707,-0.2845022976398468,0.10312328784734777,0.5451610088348389,0.016805805265903473,0.35266080498695374,-0.13312646746635437,0.0,0.0,-0.9,0.0,0.0018076896667480469,0.0018076896667480469,0.013036489486694336,0,0
3.8202290534973145,-0.1280621737241745,-0.022822968661785126,-0.28854668140411377,0.10197433044200911,0.5445963740348816,0.021442057564854622,0.35538041591644287,-0.1325354278087616,0.0,0.0,-0.9,0.0,0.00170135498046875,0.00170135498046875,0.012422323226928711,0,0
3.8359427452087402,-0.12582768499851227,-0.022798601537942886,-0.2926056981086731,0.10057298502924027,0.5440664291381836,0.027867335826158524,0.354872465133667,-0.13190965354442596,0.0,0.0,-0.9,0.0,0.0015289783477783203,0.0015289783477783203,0.012758970260620117,0,0
3.8508498668670654,-0.12582768499851227,-0.022798601537942886,-0.2926056981086731,0.10057298502924027,0.5436447858810425,0.03248915448784828,0.3545055687427521,-0.1314859241247177,0.0,0.0,-0.9,0.0,0.0017364025115966797,0.0017364025115966797,0.012206554412841797,0,0
3.8669724464416504,-0.12220816314220428,-0.022865884006023407,-0.2987508177757263,0.09837992351289719,0.5432556867599487,0.03759169206023216,0.3483167290687561,-0.13042670488357544,0.0,0.0,-0.9,0.0,0.0016720294952392578,0.0016720294952392578,0.013023614883422852,0,0
3.8821656703948975,-0.12220816314220428,-0.022865884006023407,-0.2987508177757263,0.09837992351289719,0.542946457862854,0.04125533625483513,0.34386685490608215,-0.12967512011528015,0.0,0.0,-0.9,0.0,0.0016834735870361328,0.0016834735870361328,0.012200117111206055,0,0
3.8978638648986816,-0.11829844117164612,-0.022979825735092163,-0.30492857098579407,0.09597396125799953,0.542543888092041,0.044886745512485504,0.3371830880641937,-0.12822504341602325,0.0,0.0,-0.9,0.0,0.0017402172088623047,0.0017402172088623047,0.013130426406860352,0,0
3.9124820232391357,-0.11829844117164612,-0.022979825735092163,-0.30492857098579407,0.09597396125799953,0.5422238111495972,0.04749187082052231,0.3323768079280853,-0.12719956040382385,0.0,0.0,-0.9,0.0,0.0017943382263183594,0.0017943382263183594,0.012861013412475586,0,0
3.929224729537964,-0.11407850682735443,-0.023201243951916695,-0.3110722303390503,0.09345393302651057,0.5417870879173279,0.0516485832631588,0.3256259560585022,-0.12564235925674438,0.0,0.0,-0.9,0.0,0.0015804767608642578,0.0015804767608642578,0.012548208236694336,0,0
3.9433836936950684,-0.11407850682735443,-0.023201243951916695,-0.3110722303390503,0.09345393302651057,0.5414398312568665,0.05463212728500366,0.3207691013813019,-0.12454032897949219,0.0,0.0,-0.9,0.0,0.0018334388732910156,0.0018334388732910156,0.012391805648803711,0,0
3.9597675800323486,-0.10978884249925613,-0.023476984351873398,-0.31714627146720886,0.09056379635139461,0.5410237908363342,0.05850394070148468,0.30761945247650146,-0.12272575497627258,0.0,0.0,-0.9,0.0,0.0017085075378417969,0.0017085075378417969,0.012812137603759766,0,0
3.9746484756469727,-0.10978884249925613,-0.023476984351873398,-0.31714627146720886,0.09056379635139461,0.5406946539878845,0.061277635395526886,0.29816344380378723,-0.1214212104678154,0.0,0.0,-0.9,0.0,0.001775503158569336,0.001775503158569336,0.013433694839477539,0,0
3.9913671016693115,-0.10506750643253326,-0.02376936934888363,-0.32376858592033386,0.0871721347440296,0.5403738021850586,0.06343339383602142,0.27509835362434387,-0.1190498098731041,0.0,0.0,-0.9,0.0,0.001711130142211914,0.001711130142211914,0.01247859001159668,0,0
4.0059874057769775,-0.10506750643253326,-0.02376936934888363,-0.32376858592033386,0.0871721347440296,0.5401251316070557,0.06495997309684753,0.2585321366786957,-0.1173350065946579,0.0,0.0,-0.9,0.0,0.0016286373138427734,0.0016286373138427734,0.012732744216918945,0,0
4.021863222122192,-0.09964313358068466,-0.02417583577334881,-0.3314688503742218,0.08332126932173577,0.5396510362625122,0.0677177757024765,0.23349787294864655,-0.11465790867805481,0.0,0.0,-0.9,0.0,0.0015773773193359375,0.0015773773193359375,0.012503385543823242,0,0
4.03644061088562,-0.09964313358068466,-0.02417583577334881,-0.3314688503742218,0.08332126932173577,0.5392814874649048,0.06967497617006302,0.21548932790756226,-0.11271335184574127,0.0,0.0,-0.9,0.0,0.0017116069793701172,0.0017116069793701172,0.012880325317382812,0,0
4.052753925323486,-0.0958050936460495,-0.02443159744143486,-0.3371058404445648,0.08030793773289825,0.5388039350509644,0.06931857764720917,0.19558575749397278,-0.11002438515424728,0.0,0.0,-0.9,0.0,0.001720428466796875,0.001720428466796875,0.012614965438842773,0,0
4.0675950050354,-0.0958050936460495,-0.02443159744143486,-0.3371058404445648,0.08030793773289825,0.5384283661842346,0.06903940439224243,0.1812674105167389,-0.10812239348888397,0.0,0.0,-0.9,0.0,0.0016262531280517578,0.0016262531280517578,0.013133049011230469,0,0
4.084565162658691,-0.0917140543460846,-0.024700218811631203,-0.343077152967453,0.07746058003867518,0.5381797552108765,0.06679288297891617,0.15739862620830536,-0.10539815574884415,0.0,0.0,-0.9,0.0,0.0015995502471923828,0.0015995502471923828,0.01268911361694336,0,0
4.09887957572937,-0.0917140543460846,-0.024700218811631203,-0.343077152967453,0.07746058003867518,0.5379891395568848,0.06515242159366608,0.140265092253685,-0.10349179804325104,0.0,0.0,-0.9,0.0,0.0017268657684326172,0.0017268657684326172,0.012471199035644531,0,0
4.115156888961792,-0.08810591697692871,-0.02504018507897854,-0.3483566641807556,0.07442893104210567,0.5377974510192871,0.06369606405496597,0.12685902416706085,-0.10105481743812561,0.0,0.0,-0.9,0.0,0.0016627311706542969,0.0016627311706542969,0.012724161148071289,0,0
4.129387140274048,-0.08810591697692871,-0.02504018507897854,-0.3483566641807556,0.07442893104210567,0.5376469492912292,0.06263677775859833,0.11723854392766953,-0.09934702515602112,0.0,0.0,-0.9,0.0,0.0017147064208984375,0.0017147064208984375,0.012460470199584961,0,0
4.145866870880127,-0.08324326574802399,-0.025532415136694908,-0.355264812707901,0.07067895831912754,0.5375208854675293,0.05376407504081726,0.10254863649606705,-0.09627765417098999,0.0,0.0,-0.9,0.0,0.0015578269958496094,0.0015578269958496094,0.012252569198608398,0,0
4.160300254821777,-0.08324326574802399,-0.025532415136694908,-0.355264812707901,0.07067895831912754,0.5374242663383484,0.04737935960292816,0.09202328324317932,-0.09418889135122299,0.0,0.0,-0.9,0.0,0.0017545223236083984,0.0017545223236083984,0.012892961502075195,0,0
4.176532506942749,-0.07982446253299713,-0.025851178914308548,-0.36001935601234436,0.06816146959550612,0.5374630093574524,0.035459648817777634,0.07411094009876251,-0.09136302024126053,0.0,0.0,-0.9,0.0,0.001741647720336914,0.001741647720336914,0.012602090835571289,0,0
4.1912994384765625,-0.07982446253299713,-0.025851178914308548,-0.36001935601234436,0.06816146959550612,0.5375000238418579,0.02690008096396923,0.06129571050405502,-0.08949387073516846,0.0,0.0,-0.9,0.0,0.00162506103515625,0.00162506103515625,0.012272357940673828,0,0
4.207388401031494,-0.07643384486436844,-0.02631744183599949,-0.36475154757499695,0.06539197792949798,0.537601888179779,0.02057511731982231,0.04442894086241722,-0.08707544952630997,0.0,0.0,-0.9,0.0,0.0017740726470947266,0.0017740726470947266,0.012626409530639648,0,0
4.221730709075928,-0.07643384486436844,-0.02631744183599949,-0.36475154757499695,0.06539197792949798,0.5376874804496765,0.016030581668019295,0.032360415905714035,-0.0854329913854599,0.0,0.0,-0.9,0.0,0.0016508102416992188,0.0016508102416992188,0.012622833251953125,0,0
4.23810338973999,-0.07343912124633789,-0.02663419395685196,-0.3691716194152832,0.06235319005819715,0.5377801060676575,0.011945339851081371,0.014310616068542004,-0.08301912993192673,0.0,0.0,-0.9,0.0,0.0014617443084716797,0.0014617443084716797,0.012095451354980469,0,0
4.253572225570679,-0.0725288912653923,-0.026710927486419678,-0.37058570981025696,0.061157766537291935,0.5378893613815308,0.0085359588265419,-0.0016653542406857014,-0.08086448162794113,0.0,0.0,-0.9,0.0,0.0020492076873779297,0.0020492076873779297,0.013542890548706055,0,0
4.271421670913696,-0.07004430890083313,-0.02687116526067257,-0.37471115589141846,0.05786701909667372,0.5379939079284668,0.004162633325904608,-0.021409114822745323,-0.07800942659378052,0.0,0.0,-0.9,0.0,0.0015947818756103516,0.0015947818756103516,0.012594461441040039,0,0
4.285628795623779,-0.07004430890083313,-0.02687116526067257,-0.37471115589141846,0.05786701909667372,0.5380827188491821,0.0010105957044288516,-0.03553951531648636,-0.07605021446943283,0.0,0.0,-0.9,0.0,0.001638650894165039,0.001638650894165039,0.012986421585083008,0,0
4.302322626113892,-0.06799988448619843,-0.02695913054049015,-0.37876299023628235,0.054759900482370144,0.5381279587745667,-0.003266232321038842,-0.05540088191628456,-0.07337559014558792,0.0,0.0,-0.9,0.0,0.001523733139038086,0.001523733139038086,0.012094497680664062,0,0
4.316006898880005,-0.06799988448619843,-0.02695913054049015,-0.37876299023628235,0.054759900482370144,0.5381695628166199,-0.006349031813442707,-0.06962457299232483,-0.07154377549886703,0.0,0.0,-0.9,0.0,0.0017466545104980469,0.0017466545104980469,0.01271963119506836,0,0
4.3318397998809814,-0.06634345650672913,-0.02701198123395443,-0.38274750113487244,0.05165772244717398,0.5381610989570618,-0.00946773774921894,-0.0877208560705185,-0.0689828172326088,0.0,0.0,-0.9,0.0,0.001504659652709961,0.001504659652709961,0.012097597122192383,0,0
4.346123695373535,-0.06634345650672913,-0.02701198123395443,-0.38274750113487244,0.05165772244717398,0.5381588935852051,-0.011719183064997196,-0.10068858414888382,-0.06721651554107666,0.0,0.0,-0.9,0.0,0.001726388931274414,0.001726388931274414,0.01270914077758789,0,0
4.362571954727173,-0.06503777951002121,-0.026978077366948128,-0.38666263222694397,0.04868784869818802,0.5381547212600708,-0.014240549877285957,-0.11609199643135071,-0.06481014937162399,0.0,0.0,-0.9,0.0,0.0018818378448486328,0.0018818378448486328,0.012656927108764648,0,0
4.376821994781494,-0.06503777951002121,-0.026978077366948128,-0.38666263222694397,0.04868784869818802,0.538154661655426,-0.01606016233563423,-0.12713025510311127,-0.06314478814601898,0.0,0.0,-0.9,0.0,0.0016376972198486328,0.0016376972198486328,0.012441396713256836,0,0
4.393559455871582,-0.06431695073843002,-0.026846516877412796,-0.38954007625579834,0.04624537022866339,0.5381526350975037,-0.021595748141407967,-0.14201880991458893,-0.061187852174043655,0.0,0.0,-0.9,0.0,0.0016016960144042969,0.0016016960144042969,0.012862205505371094,0,0
4.410172462463379,-0.06377851963043213,-0.02659044787287712,-0.39201515913009644,0.04450440232083733,0.5381972789764404,-0.02632061392068863,-0.15587937831878662,-0.05925136059522629,0.0,0.0,-0.9,0.0,0.0017161369323730469,0.0017161369323730469,0.012935876846313477,0,0
4.424761056900024,-0.06377851963043213,-0.02659044787287712,-0.39201515913009644,0.04450440232083733,0.5382357835769653,-0.029713371768593788,-0.1658068597316742,-0.05793634057044983,0.0,0.0,-0.9,0.0,0.0016779899597167969,0.0016779899597167969,0.01230621337890625,0,0
4.440778732299805,-0.06337564438581467,-0.026096191257238388,-0.3951244652271271,0.04163135399649905,0.5384392738342285,-0.027375606819987297,-0.17504648864269257,-0.05573675036430359,0.0,0.0,-0.9,0.0,0.001506805419921875,0.001506805419921875,0.012510061264038086,0,0
4.455578088760376,-0.06337564438581467,-0.026096191257238388,-0.3951244652271271,0.04163135399649905,0.5386027097702026,-0.0257102083414793,-0.18165820837020874,-0.05418136715888977,0.0,0.0,-0.9,0.0,0.0016982555389404297,0.0016982555389404297,0.012616634368896484,0,0
4.471338987350464,-0.06318413466215134,-0.025140605866909027,-0.3987428545951843,0.03800151844635841,0.5388712882995605,-0.03171557933092117,-0.17519693076610565,-0.05223679542541504,0.0,0.0,-0.9,0.0,0.001514434814453125,0.001514434814453125,0.012418508529663086,0,0
4.48600172996521,-0.06318413466215134,-0.025140605866909027,-0.3987428545951843,0.03800151844635841,0.5390864610671997,-0.03600248694419861,-0.17057432234287262,-0.05085663124918938,0.0,0.0,-0.9,0.0,0.0017142295837402344,0.0017142295837402344,0.012722969055175781,0,0
4.501971006393433,-0.06321202963590622,-0.024128396064043045,-0.40106040239334106,0.03492485470710708,0.5392979383468628,-0.04952432960271835,-0.15770243108272552,-0.04929811507463455,0.0,0.0,-0.9,0.0,0.0018186569213867188,0.0018186569213867188,0.012243032455444336,0,0
4.515717029571533,-0.06321202963590622,-0.024128396064043045,-0.40106040239334106,0.03492485470710708,0.5394711494445801,-0.059187151491642,-0.1484890878200531,-0.04811130464076996,0.0,0.0,-0.9,0.0,0.0017807483673095703,0.0017807483673095703,0.012613058090209961,0,0
4.532098770141602,-0.063611701130867,-0.02300035022199154,-0.4032254219055176,0.032411049469618,0.539789080619812,-0.0682854950428009,-0.1399729698896408,-0.046342670917510986,0.0,0.0,-0.9,0.0,0.0016491413116455078,0.0016491413116455078,0.012916803359985352,0,0
4.546591281890869,-0.063611701130867,-0.02300035022199154,-0.4032254219055176,0.032411049469618,0.5400445461273193,-0.07477957010269165,-0.13388250768184662,-0.0450623594224453,0.0,0.0,-0.9,0.0,0.0014410018920898438,0.0014410018920898438,0.012278079986572266,0,0
4.563303709030151,-0.0641169548034668,-0.021908387541770935,-0.40493765473365784,0.029575369170013514,0.5404475927352905,-0.07505086809396744,-0.12965549528598785,-0.0429256297647953,0.0,0.0,-0.9,0.0,0.0018918514251708984,0.0018918514251708984,0.012997627258300781,0,0
4.5780932903289795,-0.0641169548034668,-0.021908387541770935,-0.40493765473365784,0.029575369170013514,0.5407689809799194,-0.07524020224809647,-0.12663854658603668,-0.04142792895436287,0.0,0.0,-0.9,0.0,0.0016520023345947266,0.0016520023345947266,0.012674570083618164,0,0
4.594496488571167,-0.06509134918451309,-0.020335016772150993,-0.4067431092262268,0.02566668614905917,0.5412723422050476,-0.07278215140104294,-0.12057676166296005,-0.038863249123096466,0.0,0.0,-0.9,0.0,0.001462697982788086,0.001462697982788086,0.012516021728515625,0,0
4.608524322509766,-0.06509134918451309,-0.020335016772150993,-0.4067431092262268,0.02566668614905917,0.5416739583015442,-0.07102231681346893,-0.11625745892524719,-0.03707307577133179,0.0,0.0,-0.9,0.0,0.0017850399017333984,0.0017850399017333984,0.012852907180786133,0,0
4.62464451789856,-0.06597502529621124,-0.018910856917500496,-0.40795040130615234,0.02270576446007054,0.5420334339141846,-0.06937197595834732,-0.10293664038181305,-0.03464820981025696,0.0,0.0,-0.9,0.0,0.0014865398406982422,0.0014865398406982422,0.01241612434387207,0,0
4.639278411865234,-0.06597502529621124,-0.018910856917500496,-0.40795040130615234,0.02270576446007054,0.5423222184181213,-0.06818000972270966,-0.09342898428440094,-0.03295687958598137,0.0,0.0,-0.9,0.0,0.001642465591430664,0.001642465591430664,0.012885808944702148,0,0
4.65650486946106,-0.06701426953077316,-0.017301220446825027,-0.40914592146873474,0.019870648789520405,0.5425108075141907,-0.06749393790960312,-0.0784105435013771,-0.030656607821583748,0.0,0.0,-0.9,0.0,0.0017075538635253906,0.0017075538635253906,0.01311635971069336,0,0
4.671999216079712,-0.06701426953077316,-0.017301220446825027,-0.40914592146873474,0.019870648789520405,0.5426640510559082,-0.06698896735906601,-0.06767334789037704,-0.029045308008790016,0.0,0.0,-0.9,0.0,0.0018162727355957031,0.0018162727355957031,0.0122528076171875,0,0
4.687491416931152,-0.0681978166103363,-0.015557020902633667,-0.41028907895088196,0.0173587246729633,0.5428057909011841,-0.06659039109945297,-0.055404968559741974,-0.02693663351237774,0.0,0.0,-0.9,0.0,0.0016083717346191406,0.0016083717346191406,0.013422489166259766,0,0
4.703166723251343,-0.0681978166103363,-0.015557020902633667,-0.41028907895088196,0.0173587246729633,0.542920708656311,-0.0662946030497551,-0.046629734337329865,-0.025458190590143204,0.0,0.0,-0.9,0.0,0.0015971660614013672,0.0015971660614013672,0.01303863525390625,0,0
4.719735860824585,-0.06951015442609787,-0.013738458044826984,-0.4113835096359253,0.015096627933064082,0.5430227518081665,-0.06454488635063171,-0.038573961704969406,-0.023537542670965195,0.0,0.0,-0.9,0.0,0.0018877983093261719,0.0018877983093261719,0.012508153915405273,0,0
4.734544515609741,-0.06951015442609787,-0.013738458044826984,-0.4113835096359253,0.015096627933064082,0.543104887008667,-0.06328639388084412,-0.032811060547828674,-0.022198114544153214,0.0,0.0,-0.9,0.0,0.0015892982482910156,0.0015892982482910156,0.012195825576782227,0,0
4.749979019165039,-0.07087069004774094,-0.011877174489200115,-0.41238728165626526,0.012824488016434685,0.5433037281036377,-0.06410124152898788,-0.02656998299062252,-0.020412622019648552,0.0,0.0,-0.9,0.0,0.0016009807586669922,0.0016009807586669922,0.012796163558959961,0,0
4.765446186065674,-0.07087069004774094,-0.011877174489200115,-0.41238728165626526,0.012824488016434685,0.5434626936912537,-0.0646793469786644,-0.022107459604740143,-0.019157500937581062,0.0,0.0,-0.9,0.0,0.0016677379608154297,0.0016677379608154297,0.012506484985351562,0,0
4.781087160110474,-0.07230114936828613,-0.009824561886489391,-0.41322222352027893,0.010966835205805098,0.5435889363288879,-0.07002608478069305,-0.00986150186508894,-0.017469627782702446,0.0,0.0,-0.9,0.0,0.0016055107116699219,0.0016055107116699219,0.013297796249389648,0,0
4.795940399169922,-0.07230114936828613,-0.009824561886489391,-0.41322222352027893,0.010966835205805098,0.543691873550415,-0.07384317368268967,-0.001096175517886877,-0.01624394953250885,0.0,0.0,-0.9,0.0,0.0015611648559570312,0.0015611648559570312,0.012506723403930664,0,0
4.812133073806763,-0.07321173697710037,-0.008424757048487663,-0.4137660562992096,0.00960201063644179,0.5436973571777344,-0.07061628252267838,0.015592291951179504,-0.01460894476622343,0.0,0.0,-0.9,0.0,0.0016453266143798828,0.0016453266143798828,0.012610197067260742,0,0
4.828107595443726,-0.07400289177894592,-0.0071023995988070965,-0.41429394483566284,0.00861477123842853,0.5437045097351074,-0.06687842309474945,0.0320306159555912,-0.013005487620830536,0.0,0.0,-0.9,0.0,0.0017237663269042969,0.0017237663269042969,0.012056827545166016,0,0
4.841681241989136,-0.07400289177894592,-0.0071023995988070965,-0.41429394483566284,0.00861477123842853,0.5437140464782715,-0.06419111043214798,0.04380051791667938,-0.011913055554032326,0.0,0.0,-0.9,0.0,0.001650094985961914,0.001650094985961914,0.012621641159057617,0,0
4.858609199523926,-0.07484250515699387,-0.005165353417396545,-0.41512349247932434,0.0070123506495946095,0.543676495552063,-0.06076834723353386,0.0550348274409771,-0.010442961007356644,0.0,0.0,-0.9,0.0,0.0016624927520751953,0.0016624927520751953,0.012819290161132812,0,0
4.8747618198394775,-0.07577791064977646,-0.003303498961031437,-0.416032612323761,0.0053438982337339295,0.5436192154884338,-0.05345534905791283,0.058030225336551666,-0.008961818180978298,0.0,0.0,-0.9,0.0,0.0014674663543701172,0.0014674663543701172,0.012466907501220703,0,0
4.889376401901245,-0.07577791064977646,-0.003303498961031437,-0.416032612323761,0.0053438982337339295,0.5435743927955627,-0.048213522881269455,0.06017206236720085,-0.00793964322656393,0.0,0.0,-0.9,0.0,0.0015463829040527344,0.0015463829040527344,0.01314544677734375,0,0
4.905924320220947,-0.07683797180652618,-0.0014751605922356248,-0.4168645143508911,0.003611315650610006,0.5437320470809937,-0.04207979142665863,0.05807996913790703,-0.006667718756943941,0.0,0.0,-0.9,0.0,0.001809835433959961,0.001809835433959961,0.01262807846069336,0,0
4.9206931591033936,-0.07683797180652618,-0.0014751605922356248,-0.4168645143508911,0.003611315650610006,0.5438581705093384,-0.03769416734576225,0.056580591946840286,-0.005772601347416639,0.0,0.0,-0.9,0.0,0.0018088817596435547,0.0018088817596435547,0.012481212615966797,0,0
4.936529636383057,-0.07774614542722702,0.0004673859803006053,-0.4176234304904938,0.0020976304559907665,0.5439326763153076,-0.03289330005645752,0.060140300542116165,-0.004466881509870291,0.0,0.0,-0.9,0.0,0.0016808509826660156,0.0016808509826660156,0.01257181167602539,0,0
4.950597286224365,-0.07774614542722702,0.0004673859803006053,-0.4176234304904938,0.0020976304559907665,0.5439925193786621,-0.02945566177368164,0.0626855120062828,-0.0035635242238640785,0.0,0.0,-0.9,0.0,0.001585245132446289,0.001585245132446289,0.012329578399658203,0,0
4.967460632324219,-0.07866068184375763,0.002228484023362398,-0.4180992841720581,0.0007543518205396872,0.5443083643913269,-0.022629832848906517,0.06254331022500992,-0.002545187482610345,0.0,0.0,-0.9,0.0,0.0016942024230957031,0.0016942024230957031,0.012829780578613281,0,0
4.981873273849487,-0.07866068184375763,0.002228484023362398,-0.4180992841720581,0.0007543518205396872,0.5445604920387268,-0.01775544509291649,0.06243899092078209,-0.0018340980168431997,0.0,0.0,-0.9,0.0,0.0017161369323730469,0.0017161369323730469,0.01249384880065918,0,0
4.998021125793457,-0.07994310557842255,0.004420834127813578,-0.4181748330593109,-0.0011369667894268558,0.5449763536453247,-0.009375854395329952,0.0630885660648346,-0.0006837614928372204,0.0,0.0,-0.9,0.0,0.0016095638275146484,0.0016095638275146484,0.0123443603515625,0,0
5.012012004852295,-0.07994310557842255,0.004420834127813578,-0.4181748330593109,-0.0011369667894268558,0.5453083515167236,-0.0033973022364079952,0.0635482594370842,0.00011570355854928493,0.0,0.0,-0.9,0.0,0.001851797103881836,0.001851797103881836,0.012610435485839844,0,0
5.028392314910889,-0.08097673952579498,0.005971340928226709,-0.41770464181900024,-0.0022128291563810734,0.54579758644104,0.0037282046396285295,0.054651129990816116,0.0009029476786963642,0.0,0.0,-0.9,0.0,0.0015909671783447266,0.0015909671783447266,0.012270689010620117,0,0
5.042357921600342,-0.08097673952579498,0.005971340928226709,-0.41770464181900024,-0.0022128291563810734,0.5461887121200562,0.008805515244603157,0.04830608889460564,0.0014883839758113027,0.0,0.0,-0.9,0.0,0.0017244815826416016,0.0017244815826416016,0.012931585311889648,0,0
5.058995008468628,-0.08202213793992996,0.007305051200091839,-0.41687172651290894,-0.003064499149946329,0.5466309785842896,0.01648050546646118,0.03574453666806221,0.002085549058392644,0.0,0.0,-0.9,0.0,0.0015277862548828125,0.0015277862548828125,0.012489557266235352,0,0
5.073665142059326,-0.08202213793992996,0.007305051200091839,-0.41687172651290894,-0.003064499149946329,0.5469858646392822,0.021951226517558098,0.02678406983613968,0.002557731233537197,0.0,0.0,-0.9,0.0,0.0015981197357177734,0.0015981197357177734,0.012795448303222656,0,0
5.089624404907227,-0.0832815021276474,0.008494012989103794,-0.4157310426235199,-0.0040949990121849755,0.5474357008934021,0.03049185685813427,0.010950052179396152,0.003170502372086048,0.0,0.0,-0.9,0.0,0.0015804767608642578,0.0015804767608642578,0.012483358383178711,0,0
5.104229688644409,-0.0832815021276474,0.008494012989103794,-0.4157310426235199,-0.0040949990121849755,0.5477980375289917,0.03657795116305351,-0.00034363247686997056,0.0036775032058358192,0.0,0.0,-0.9,0.0,0.001718759536743164,0.001718759536743164,0.012901782989501953,0,0
5.120302438735962,-0.08450902253389359,0.00958412978798151,-0.4144909977912903,-0.004960028738620024,0.5481735467910767,0.04242727905511856,-0.00954277254641056,0.004389687441289425,0.0,0.0,-0.9,0.0,0.0016984939575195312,0.0016984939575195312,0.012428760528564453,0,0
5.135068416595459,-0.08450902253389359,0.00958412978798151,-0.4144909977912903,-0.004960028738620024,0.5484738945960999,0.04659828171133995,-0.01610870286822319,0.004919776692986488,0.0,0.0,-0.9,0.0,0.0016813278198242188,0.0016813278198242188,0.012725830078125,0,0
5.150862455368042,-0.0857590064406395,0.010585353709757328,-0.4131395220756531,-0.006017562006181333,0.5486863255500793,0.048172082751989365,-0.012325163930654526,0.0057067363522946835,0.0,0.0,-0.9,0.0,0.0018112659454345703,0.0018112659454345703,0.012959003448486328,0,0
5.16607403755188,-0.0857590064406395,0.010585353709757328,-0.4131395220756531,-0.006017562006181333,0.5488555431365967,0.049297794699668884,-0.009621936827898026,0.006254327017813921,0.0,0.0,-0.9,0.0,0.0018715858459472656,0.0018715858459472656,0.013256072998046875,0,0
5.1830902099609375,-0.08695058524608612,0.011289273388683796,-0.4120759069919586,-0.006833654232197078,0.549089789390564,0.052908506244421005,-0.012387430295348167,0.006956413853913546,0.0,0.0,-0.9,0.0,0.0016589164733886719,0.0016589164733886719,0.012312650680541992,0,0
5.196974515914917,-0.08695058524608612,0.011289273388683796,-0.4120759069919586,-0.006833654232197078,0.5492764115333557,0.055487219244241714,-0.0143640311434865,0.007454049773514271,0.0,0.0,-0.9,0.0,0.0018432140350341797,0.0018432140350341797,0.012908935546875,0,0
5.213243722915649,-0.08851281553506851,0.012037070468068123,-0.41081106662750244,-0.007988971445641965,0.5491924285888672,0.05543265864253044,-0.012520759366452694,0.008224407210946083,0.0,0.0,-0.9,0.0,0.0016241073608398438,0.0016241073608398438,0.01281881332397461,0,0
5.228572368621826,-0.08851281553506851,0.012037070468068123,-0.41081106662750244,-0.007988971445641965,0.5491256713867188,0.05539415031671524,-0.011200032196938992,0.008763623423874378,0.0,0.0,-0.9,0.0,0.0017282962799072266,0.0017282962799072266,0.012476444244384766,0,0
5.244430780410767,-0.0892249345779419,0.012383253313601017,-0.41035711765289307,-0.008621151854775206,0.5489944219589233,0.05429191142320633,-0.00742705212906003,0.009358536452054977,0.0,0.0,-0.9,0.0,0.0017275810241699219,0.0017275810241699219,0.012786626815795898,0,0
5.259383678436279,-0.0892249345779419,0.012383253313601017,-0.41035711765289307,-0.008621151854775206,0.548890233039856,0.05350276082754135,-0.0047225248999893665,0.009777122177183628,0.0,0.0,-0.9,0.0,0.0018470287322998047,0.0018470287322998047,0.012656927108764648,0,0
5.2758800983428955,-0.09052370488643646,0.012898938730359077,-0.40976694226264954,-0.009806616472379428,0.5486965179443359,0.050559233874082565,-0.0007559359073638916,0.010497087612748146,0.0,0.0,-0.9,0.0,0.0017206668853759766,0.0017206668853759766,0.012415647506713867,0,0
5.289972305297852,-0.09052370488643646,0.012898938730359077,-0.40976694226264954,-0.009806616472379428,0.5485426783561707,0.04844937473535538,0.0020895330235362053,0.011007703840732574,0.0,0.0,-0.9,0.0,0.001550912857055664,0.001550912857055664,0.012396812438964844,0,0
5.3055384159088135,-0.09148365259170532,0.01325258519500494,-0.4092918932437897,-0.010430421437756793,0.548487663269043,0.039117105305194855,0.0060221971943974495,0.011590417474508286,0.0,0.0,-0.9,0.0,0.001613616943359375,0.001613616943359375,0.012743949890136719,0,0
5.320393323898315,-0.09148365259170532,0.01325258519500494,-0.4092918932437897,-0.010430421437756793,0.5484452247619629,0.032433733344078064,0.008840885013341904,0.012020410969853401,0.0,0.0,-0.9,0.0,0.0017466545104980469,0.0017466545104980469,0.012584686279296875,0,0
5.336343288421631,-0.09245797246694565,0.013543921522796154,-0.40873953700065613,-0.010966935468969038,0.5483930110931396,0.025739848613739014,0.00791418831795454,0.012542025186121464,0.0,0.0,-0.9,0.0,0.0017428398132324219,0.0017428398132324219,0.012347936630249023,0,0
5.3524391651153564,-0.09319664537906647,0.013646604493260384,-0.40834006667137146,-0.01130907546819086,0.5483124852180481,0.025506531819701195,0.006650376133620739,0.013019257225096226,0.0,0.0,-0.9,0.0,0.0019218921661376953,0.0019218921661376953,0.013208389282226562,0,0
5.367724895477295,-0.09319664537906647,0.013646604493260384,-0.40834006667137146,-0.01130907546819086,0.5482483506202698,0.025339124724268913,0.005745008122175932,0.01335310097783804,0.0,0.0,-0.9,0.0,0.0017595291137695312,0.0017595291137695312,0.012728452682495117,0,0
5.383875131607056,-0.09441759437322617,0.013583877123892307,-0.4078207015991211,-0.012077302545667844,0.5481573343276978,0.027751322835683823,0.00577928964048624,0.013870984315872192,0.0,0.0,-0.9,0.0,0.001665353775024414,0.001665353775024414,0.012554407119750977,0,0
5.398561954498291,-0.09441759437322617,0.013583877123892307,-0.4078207015991211,-0.012077302545667844,0.5480849742889404,0.029479749500751495,0.005803423468023539,0.014233388006687164,0.0,0.0,-0.9,0.0,0.0016040802001953125,0.0016040802001953125,0.012260675430297852,0,0
5.413986444473267,-0.09566418081521988,0.013571892865002155,-0.4073996841907501,-0.0127914486269844,0.548054039478302,0.030894294381141663,0.00301347766071558,0.014754530042409897,0.0,0.0,-0.9,0.0,0.001653909683227539,0.001653909683227539,0.012819051742553711,0,0
5.428987741470337,-0.09566418081521988,0.013571892865002155,-0.4073996841907501,-0.0127914486269844,0.5480295419692993,0.03190675377845764,0.0010151960887014866,0.015121601521968842,0.0,0.0,-0.9,0.0,0.0016429424285888672,0.0016429424285888672,0.012284994125366211,0,0
5.444555759429932,-0.09693310409784317,0.013619773089885712,-0.406942754983902,-0.013264304233196973,0.5481153726577759,0.030365051701664925,-0.0057374658063054085,0.015574567951261997,0.0,0.0,-0.9,0.0,0.0016922950744628906,0.0016922950744628906,0.012749195098876953,0,0
5.459924221038818,-0.09693310409784317,0.013619773089885712,-0.406942754983902,-0.013264304233196973,0.5481843948364258,0.029260899871587753,-0.010567921213805676,0.015885313972830772,0.0,0.0,-0.9,0.0,0.0017321109771728516,0.0017321109771728516,0.012861013412475586,0,0
5.4761950969696045,-0.09827868640422821,0.013641411438584328,-0.4063533544540405,-0.01364928744577799,0.5482744574546814,0.02567870169878006,-0.022283844649791718,0.016277281567454338,0.0,0.0,-0.9,0.0,0.001753091812133789,0.001753091812133789,0.012403249740600586,0,0
5.49067497253418,-0.09827868640422821,0.013641411438584328,-0.4063533544540405,-0.01364928744577799,0.5483481884002686,0.023114359006285667,-0.03066418692469597,0.01652590185403824,0.0,0.0,-0.9,0.0,0.0016140937805175781,0.0016140937805175781,0.011994600296020508,0,0
5.50593638420105,-0.09962350130081177,0.013642046600580215,-0.4057133197784424,-0.013998027464147694,0.5484845638275146,0.01755407452583313,-0.04038169980049133,0.016822541132569313,0.0,0.0,-0.9,0.0,0.001634359359741211,0.001634359359741211,0.012895584106445312,0,0
5.521026372909546,-0.09962350130081177,0.013642046600580215,-0.4057133197784424,-0.013998027464147694,0.5485947728157043,0.013577273115515709,-0.04732946306467056,0.016996536403894424,0.0,0.0,-0.9,0.0,0.0016379356384277344,0.0016379356384277344,0.012107372283935547,0,0
5.536466121673584,-0.10094249248504639,0.013632377609610558,-0.40494468808174133,-0.014288336316600918,0.5487485527992249,0.007932628504931927,-0.05209318920969963,0.017198050394654274,0.0,0.0,-0.9,0.0,0.001653909683227539,0.001653909683227539,0.011997699737548828,0,0
5.5500853061676025,-0.10094249248504639,0.013632377609610558,-0.40494468808174133,-0.014288336316600918,0.548871636390686,0.003896953770890832,-0.05549842119216919,0.017321450635790825,0.0,0.0,-0.9,0.0,0.0016200542449951172,0.0016200542449951172,0.011973381042480469,0,0
5.566307783126831,-0.10234960168600082,0.013662650249898434,-0.4040544629096985,-0.014541607433555046,0.5490304231643677,-0.00011524936417117715,-0.05542641133069992,0.017507163807749748,0.0,0.0,-0.9,0.0,0.0015976428985595703,0.0015976428985595703,0.012088298797607422,0,0
5.581644058227539,-0.10349225997924805,0.01373383216559887,-0.4032801389694214,-0.01485781275259663,0.5492206811904907,-0.004176461603492498,-0.055674489587545395,0.01775805465877056,0.0,0.0,-0.9,0.0,0.0014374256134033203,0.0014374256134033203,0.011362791061401367,0,0
5.595042705535889,-0.10349225997924805,0.01373383216559887,-0.4032801389694214,-0.01485781275259663,0.5493723154067993,-0.007078780792653561,-0.05585138872265816,0.017931954935193062,0.0,0.0,-0.9,0.0,0.001447916030883789,0.001447916030883789,0.012114763259887695,0,0
5.610504865646362,-0.104502372443676,0.013829857110977173,-0.40263819694519043,-0.015213466733860046,0.5494585037231445,-0.010135493241250515,-0.05806068331003189,0.01818465068936348,0.0,0.0,-0.9,0.0,0.0015895366668701172,0.0015895366668701172,0.011486291885375977,0,0
5.623953580856323,-0.104502372443676,0.013829857110977173,-0.40263819694519043,-0.015213466733860046,0.5495272278785706,-0.012322104535996914,-0.05964074656367302,0.018356462940573692,0.0,0.0,-0.9,0.0,0.0016481876373291016,0.0016481876373291016,0.012113809585571289,0,0
5.639488697052002,-0.10587545484304428,0.013761392794549465,-0.4018675684928894,-0.01569444070316281,0.5495131611824036,-0.012454819865524769,-0.05809323489665985,0.018689315766096115,0.0,0.0,-0.9,0.0,0.0015079975128173828,0.0015079975128173828,0.011888265609741211,0,0
5.653395652770996,-0.10587545484304428,0.013761392794549465,-0.4018675684928894,-0.01569444070316281,0.5495019555091858,-0.012549567967653275,-0.05698530375957489,0.018922487273812294,0.0,0.0,-0.9,0.0,0.0014674663543701172,0.0014674663543701172,0.012653350830078125,0,0
5.669870376586914,-0.1077222004532814,0.013722195290029049,-0.4008948504924774,-0.01630610255426728,0.5494454503059387,-0.020042134448885918,-0.0504920594394207,0.019189534708857536,0.0,0.0,-0.9,0.0,0.0016903877258300781,0.0016903877258300781,0.011822700500488281,0,0
5.683955669403076,-0.1077222004532814,0.013722195290029049,-0.4008948504924774,-0.01630610255426728,0.5494018793106079,-0.025407860055565834,-0.04584065452218056,0.019403904676437378,0.0,0.0,-0.9,0.0,0.0016224384307861328,0.0016224384307861328,0.012397527694702148,0,0
5.699652433395386,-0.10901445150375366,0.013819041661918163,-0.40013307332992554,-0.016303754251954163,0.5494253635406494,-0.034228455275297165,-0.042672205716371536,0.019497141242027283,0.0,0.0,-0.9,0.0,0.0017523765563964844,0.0017523765563964844,0.012172222137451172,0,0
5.714025497436523,-0.10901445150375366,0.013819041661918163,-0.40013307332992554,-0.016303754251954163,0.5494452714920044,-0.04054146632552147,-0.04040403291583061,0.019577631726861,0.0,0.0,-0.9,0.0,0.0015692710876464844,0.0015692710876464844,0.012357473373413086,0,0
5.729962348937988,-0.11058881133794785,0.013923787511885166,-0.3991963863372803,-0.01616899045550455,0.5495092868804932,-0.044590387493371964,-0.03782942518591881,0.0196083914488554,0.0,0.0,-0.9,0.0,0.0016841888427734375,0.0016841888427734375,0.012520551681518555,0,0
5.744482040405273,-0.11058881133794785,0.013923787511885166,-0.3991963863372803,-0.01616899045550455,0.549560546875,-0.047487176954746246,-0.035987310111522675,0.01963580772280693,0.0,0.0,-0.9,0.0,0.00176239013671875,0.00176239013671875,0.012544870376586914,0,0
5.760942220687866,-0.1120111346244812,0.014048189856112003,-0.39833006262779236,-0.016278522871402714,0.5496282577514648,-0.046800561249256134,-0.039370741695165634,0.019665777683258057,0.0,0.0,-0.9,0.0,0.0016090869903564453,0.0016090869903564453,0.013201475143432617,0,0
5.7762367725372314,-0.1120111346244812,0.014048189856112003,-0.39833006262779236,-0.016278522871402714,0.5496822595596313,-0.04630936682224274,-0.04179130867123604,0.01968751847743988,0.0,0.0,-0.9,0.0,0.0015139579772949219,0.0015139579772949219,0.012201547622680664,0,0
5.791844129562378,-0.11376604437828064,0.014182120561599731,-0.3973253071308136,-0.016563440240985716,0.5496158003807068,-0.045700304210186005,-0.04058492183685303,0.01984557695686817,0.0,0.0,-0.9,0.0,0.001806020736694336,0.001806020736694336,0.01262521743774414,0,0
5.806609869003296,-0.11376604437828064,0.014182120561599731,-0.3973253071308136,-0.016563440240985716,0.549562931060791,-0.045263949781656265,-0.039720892906188965,0.019956184551119804,0.0,0.0,-0.9,0.0,0.0015282630920410156,0.0015282630920410156,0.012021064758300781,0,0
5.8218724727630615,-0.11568713933229446,0.014319601468741894,-0.3964046239852905,-0.016916157415679603,0.5496062636375427,-0.043527185916900635,-0.047729019075632095,0.020055754110217094,0.0,0.0,-0.9,0.0,0.001842498779296875,0.001842498779296875,0.012312173843383789,0,0
5.835697650909424,-0.11568713933229446,0.014319601468741894,-0.3964046239852905,-0.016916157415679603,0.5496416687965393,-0.042284660041332245,-0.053459491580724716,0.0201320368796587,0.0,0.0,-0.9,0.0,0.0018088817596435547,0.0018088817596435547,0.012684106826782227,0,0
5.852223634719849,-0.11735247075557709,0.014461386948823929,-0.3956040143966675,-0.017462217046561073,0.549696683883667,-0.04008117690682411,-0.054147712886333466,0.02044588513672352,0.0,0.0,-0.9,0.0,0.0016145706176757812,0.0016145706176757812,0.014722824096679688,0,0
5.8703203201293945,-0.11735247075557709,0.014461386948823929,-0.3956040143966675,-0.017462217046561073,0.5497405529022217,-0.03850466012954712,-0.05464041233062744,0.02066696621477604,0.0,0.0,-0.9,0.0,0.0022597312927246094,0.0022597312927246094,0.016564130783081055,0,0
5.890629053115845,-0.11958352476358414,0.014736645855009556,-0.39445963501930237,-0.018138434660597995,0.5498080253601074,-0.03518753498792648,-0.05081494525074959,0.021157152950763702,0.0,0.0,-0.9,0.0,0.002791166305541992,0.002791166305541992,0.015711069107055664,0,0
5.909453392028809,-0.11958352476358414,0.014736645855009556,-0.39445963501930237,-0.018138434660597995,0.5498620271682739,-0.032813653349876404,-0.04807903617620468,0.021494416519999504,0.0,0.0,-0.9,0.0,0.002141714096069336,0.002141714096069336,0.015053510665893555,0,0
5.928595781326294,-0.12120161950588226,0.01514853723347187,-0.39355847239494324,-0.018495486499647204,0.5499724745750427,-0.03269149735569954,-0.04748629406094551,0.021811742335557938,0.0,0.0,-0.9,0.0,0.002064943313598633,0.002064943313598633,0.015375375747680664,0,0
5.946715354919434,-0.12120161950588226,0.01514853723347187,-0.39355847239494324,-0.018495486499647204,0.5500603914260864,-0.032604020088911057,-0.0470624677836895,0.02203397825360298,0.0,0.0,-0.9,0.0,0.0022242069244384766,0.0022242069244384766,0.014619827270507812,0,0
5.9663920402526855,-0.1233140304684639,0.015683582052588463,-0.3922068476676941,-0.01885633556022812,0.5502616167068481,-0.03238793462514877,-0.04963471740484238,0.022261135280132294,0.0,0.0,-0.9,0.0,0.0021772384643554688,0.0021772384643554688,0.014907598495483398,0,0
5.983622789382935,-0.1233140304684639,0.015683582052588463,-0.3922068476676941,-0.01885633556022812,0.5504217743873596,-0.032233718782663345,-0.051472682505846024,0.02241991087794304,0.0,0.0,-0.9,0.0,0.0024039745330810547,0.0024039745330810547,0.014519214630126953,0,0
6.002472639083862,-0.12488795071840286,0.01607634872198105,-0.39121824502944946,-0.019277857668814038,0.5505433082580566,-0.031421154737472534,-0.05254542455077171,0.022686870768666267,0.0,0.0,-0.9,0.0,0.002774477005004883,0.002774477005004883,0.014930963516235352,0,0
6.022302865982056,-0.12589503824710846,0.0163265448063612,-0.3904835283756256,-0.0195360576071656,0.5505526065826416,-0.02724013477563858,-0.03727058693766594,0.023270854726433754,0.0,0.0,-0.9,0.0,0.0025839805603027344,0.0025839805603027344,0.015568256378173828,0,0
6.042180776596069,-0.12725505232810974,0.016541050747036934,-0.38956621289253235,-0.01974900500019707,0.5505740642547607,-0.020289765670895576,-0.03269711136817932,0.02366623282432556,0.0,0.0,-0.9,0.0,0.0024461746215820312,0.0024461746215820312,0.014896392822265625,0,0
6.060586214065552,-0.12725505232810974,0.016541050747036934,-0.38956621289253235,-0.01974900500019707,0.5505920648574829,-0.015315109863877296,-0.029425449669361115,0.023926427587866783,0.0,0.0,-0.9,0.0,0.0023233890533447266,0.0023233890533447266,0.015105724334716797,0,0
6.080236434936523,-0.12865139544010162,0.016723327338695526,-0.38821229338645935,-0.02058285830504958,0.5506443381309509,-0.006557260639965534,-0.01570611074566841,0.024627313017845154,0.0,0.0,-0.9,0.0,0.0017871856689453125,0.0017871856689453125,0.014032363891601562,0,0
6.096898078918457,-0.12865139544010162,0.016723327338695526,-0.38821229338645935,-0.02058285830504958,0.5506895184516907,-0.0002880161628127098,-0.005893812049180269,0.02504938282072544,0.0,0.0,-0.9,0.0,0.0020797252655029297,0.0020797252655029297,0.015525341033935547,0,0
6.116443872451782,-0.1293935775756836,0.016860349103808403,-0.3871472477912903,-0.021066724679978523,0.5506733655929565,0.008510172367095947,0.009014533832669258,0.025612173601984978,0.0,0.0,-0.9,0.0,0.002177000045776367,0.002177000045776367,0.015067577362060547,0,0
6.136734247207642,-0.13003171980381012,0.017014561221003532,-0.38638707995414734,-0.021638076868842875,0.5504802465438843,0.01370281632989645,0.026028092950582504,0.026238813996315002,0.0,0.0,-0.9,0.0,0.0024237632751464844,0.0024237632751464844,0.014899730682373047,0,0
6.15344762802124,-0.13003171980381012,0.017014561221003532,-0.38638707995414734,-0.021638076868842875,0.5503309369087219,0.01742948777973652,0.03822634369134903,0.026625391095876694,0.0,0.0,-0.9,0.0,0.0017821788787841797,0.0017821788787841797,0.015110969543457031,0,0
6.174054145812988,-0.13042111694812775,0.01725033111870289,-0.385810524225235,-0.022100443340679534,0.5501739978790283,0.02434447407722473,0.05848010629415512,0.027114015072584152,0.0,0.0,-0.9,0.0,0.0018749237060546875,0.0018749237060546875,0.014420509338378906,0,0
6.190283298492432,-0.13042111694812775,0.01725033111870289,-0.385810524225235,-0.022100443340679534,0.5500554442405701,0.029303602874279022,0.07299871742725372,0.027370216324925423,0.0,0.0,-0.9,0.0,0.0027551651000976562,0.0027551651000976562,0.015630245208740234,0,0
6.209744453430176,-0.13061967492103577,0.017488420009613037,-0.3854551613330841,-0.02241444982932473,0.5498199462890625,0.030847838148474693,0.09168949723243713,0.02766965702176094,0.0,0.0,-0.9,0.0,0.0019061565399169922,0.0019061565399169922,0.014245033264160156,0,0
6.22655987739563,-0.13061967492103577,0.017488420009613037,-0.3854551613330841,-0.02241444982932473,0.5496373772621155,0.031956788152456284,0.10509888082742691,0.02785976603627205,0.0,0.0,-0.9,0.0,0.0015234947204589844,0.0015234947204589844,0.013819217681884766,0,0
6.243993759155273,-0.13035517930984497,0.017793972045183182,-0.3853559195995331,-0.022417715843460726,0.5494822859764099,0.028630701825022697,0.1203177273273468,0.028015535324811935,0.0,0.0,-0.9,0.0,0.0015871524810791016,0.0015871524810791016,0.014087438583374023,0,0
6.262831687927246,-0.1300954669713974,0.017975913360714912,-0.38526207208633423,-0.022340433329853228,0.5493441820144653,0.023604271933436394,0.13316956162452698,0.028116045519709587,0.0,0.0,-0.9,0.0,0.0020880699157714844,0.0020880699157714844,0.015378952026367188,0,0
6.2800774574279785,-0.1300954669713974,0.017975913360714912,-0.38526207208633423,-0.022340433329853228,0.5492368340492249,0.020002495497465134,0.1423822045326233,0.028227586299180984,0.0,0.0,-0.9,0.0,0.0025892257690429688,0.0025892257690429688,0.015021085739135742,0,0
6.299103021621704,-0.1293649673461914,0.018185261636972427,-0.3849075734615326,-0.022400001519960296,0.5492547750473022,0.012375891208648682,0.14949330687522888,0.028463127091526985,0.0,0.0,-0.9,0.0,0.0025904178619384766,0.0025904178619384766,0.015870094299316406,0,0
6.317736625671387,-0.1293649673461914,0.018185261636972427,-0.3849075734615326,-0.022400001519960296,0.5492705702781677,0.006918358150869608,0.15458405017852783,0.028666557744145393,0.0,0.0,-0.9,0.0,0.0017476081848144531,0.0017476081848144531,0.015152454376220703,0,0
6.337368011474609,-0.1282290816307068,0.018305091187357903,-0.38418498635292053,-0.022425837130663012,0.5493469834327698,-0.00047704915050417185,0.15499010682106018,0.02889496460556984,0.0,0.0,-0.9,0.0,0.002165079116821289,0.002165079116821289,0.01503753662109375,0,0
6.355793476104736,-0.1282290816307068,0.018305091187357903,-0.38418498635292053,-0.022425837130663012,0.5494085550308228,-0.005767351016402245,0.1552812159061432,0.029063064604997635,0.0,0.0,-0.9,0.0,0.0020856857299804688,0.0020856857299804688,0.015306472778320312,0,0
6.375168085098267,-0.1270691156387329,0.01832101121544838,-0.38352152705192566,-0.022392636353704448,0.5495110750198364,-0.011681223288178444,0.15414611995220184,0.02925276756286621,0.0,0.0,-0.9,0.0,0.0023322105407714844,0.0023322105407714844,0.01397562026977539,0,0
6.393553733825684,-0.12619678676128387,0.018277637660503387,-0.38302162289619446,-0.02233984777284583,0.5496898293495178,-0.01749652810394764,0.15186193585395813,0.029397591948509216,0.0,0.0,-0.9,0.0,0.002240419387817383,0.002240419387817383,0.01658463478088379,0,0
6.412246942520142,-0.12619678676128387,0.018277637660503387,-0.38302162289619446,-0.02233984777284583,0.5498325228691101,-0.021652884781360626,0.15022976696491241,0.0294954776763916,0.0,0.0,-0.9,0.0,0.0026607513427734375,0.0026607513427734375,0.01566338539123535,0,0
6.433018684387207,-0.12429317086935043,0.018239455297589302,-0.3820720613002777,-0.02242707877280358,0.5498254299163818,-0.025829588994383812,0.14807386696338654,0.0295715294778347,0.0,0.0,-0.9,0.0,0.0024552345275878906,0.0024552345275878906,0.015969276428222656,0,0
6.453395366668701,-0.12310698628425598,0.018269794061779976,-0.38166022300720215,-0.02237506596303513,0.5498178005218506,-0.030472278594970703,0.1469552218914032,0.029633019119501114,0.0,0.0,-0.9,0.0,0.002258777618408203,0.002258777618408203,0.015537261962890625,0,0
6.474347352981567,-0.12198536098003387,0.018299642950296402,-0.38129568099975586,-0.02204246291334481,0.5498142838478088,-0.035429682582616806,0.1443554311990738,0.029579700902104378,0.0,0.0,-0.9,0.0,0.0019989013671875,0.0019989013671875,0.015204191207885742,0,0
6.4911534786224365,-0.12198536098003387,0.018299642950296402,-0.38129568099975586,-0.02204246291334481,0.549811840057373,-0.03897840902209282,0.14249424636363983,0.029538337141275406,0.0,0.0,-0.9,0.0,0.0016508102416992188,0.0016508102416992188,0.014655828475952148,0,0
6.510621070861816,-0.12018217891454697,0.018364017829298973,-0.38069579005241394,-0.02125458236227151,0.5498358607292175,-0.043268948793411255,0.12928858399391174,0.029143985360860825,0.0,0.0,-0.9,0.0,0.00257110595703125,0.00257110595703125,0.015512228012084961,0,0
6.5301995277404785,-0.118705153465271,0.018460603430867195,-0.3801906704902649,-0.02092658093569701,0.5498319864273071,-0.05029456317424774,0.11748416721820831,0.02883908338844776,0.0,0.0,-0.9,0.0,0.0028073787689208984,0.0028073787689208984,0.015252351760864258,0,0
6.548282861709595,-0.118705153465271,0.018460603430867195,-0.3801906704902649,-0.02092658093569701,0.5498314499855042,-0.05532275140285492,0.10903330147266388,0.028577594086527824,0.0,0.0,-0.9,0.0,0.0022246837615966797,0.0022246837615966797,0.013867855072021484,0,0
6.567217111587524,-0.11722490936517715,0.018526067957282066,-0.3795170187950134,-0.020306791172368943,0.5499311089515686,-0.05545318126678467,0.08724988996982574,0.027782483026385307,0.0,0.0,-0.9,0.0,0.0023758411407470703,0.0023758411407470703,0.015178203582763672,0,0
6.585230112075806,-0.11722490936517715,0.018526067957282066,-0.3795170187950134,-0.020306791172368943,0.5500168800354004,-0.055538907647132874,0.07167404145002365,0.027216250076889992,0.0,0.0,-0.9,0.0,0.001806497573852539,0.001806497573852539,0.013684511184692383,0,0
6.6029510498046875,-0.1158946305513382,0.018581481650471687,-0.37860342860221863,-0.01985398012530115,0.550037682056427,-0.05660567060112953,0.0474972128868103,0.026489833369851112,0.0,0.0,-0.9,0.0,0.0024187564849853516,0.0024187564849853516,0.015436649322509766,0,0
6.621031761169434,-0.1158946305513382,0.018581481650471687,-0.37860342860221863,-0.01985398012530115,0.5500621795654297,-0.057361405342817307,0.03019634261727333,0.025956591591238976,0.0,0.0,-0.9,0.0,0.002582073211669922,0.002582073211669922,0.015701770782470703,0,0
6.641536474227905,-0.11473695933818817,0.018627872690558434,-0.37761014699935913,-0.0196086924226753,0.5500824451446533,-0.05523363873362541,0.016084205359220505,0.025407034903764725,0.0,0.0,-0.9,0.0,0.002796649932861328,0.002796649932861328,0.015774250030517578,0,0
6.66004753112793,-0.11473695933818817,0.018627872690558434,-0.37761014699935913,-0.0196086924226753,0.5501012802124023,-0.053707581013441086,0.005985691212117672,0.025034785270690918,0.0,0.0,-0.9,0.0,0.0024323463439941406,0.0024323463439941406,0.015704631805419922,0,0
6.679761648178101,-0.1136346310377121,0.018669165670871735,-0.3766307532787323,-0.019294755138730343,0.550163745880127,-0.04507996514439583,-0.00517534464597702,0.024532152339816093,0.0,0.0,-0.9,0.0,0.0021567344665527344,0.0021567344665527344,0.015602827072143555,0,0
6.6975133419036865,-0.1136346310377121,0.018669165670871735,-0.3766307532787323,-0.019294755138730343,0.5502161979675293,-0.03890581801533699,-0.013157094828784466,0.024234101176261902,0.0,0.0,-0.9,0.0,0.001664876937866211,0.001664876937866211,0.014217376708984375,0,0
6.716291189193726,-0.11298853158950806,0.018742725253105164,-0.37591224908828735,-0.019253512446065494,0.5501841902732849,-0.029117899015545845,-0.027656979858875275,0.02385747618973255,0.0,0.0,-0.9,0.0,0.0030438899993896484,0.0030438899993896484,0.016753196716308594,0,0
6.738171815872192,-0.11265155673027039,0.018774237483739853,-0.37515848875045776,-0.01915720872385993,0.5501798391342163,-0.016838733106851578,-0.04409128427505493,0.023528199642896652,0.0,0.0,-0.9,0.0,0.002593517303466797,0.002593517303466797,0.015806198120117188,0,0
6.756758451461792,-0.11265155673027039,0.018774237483739853,-0.37515848875045776,-0.01915720872385993,0.5501821041107178,-0.008047923445701599,-0.05585333704948425,0.023415789008140564,0.0,0.0,-0.9,0.0,0.002156496047973633,0.002156496047973633,0.015537500381469727,0,0
6.77691125869751,-0.11252222955226898,0.01876327581703663,-0.37413275241851807,-0.019181278460943203,0.5502550601959229,0.003956562373787165,-0.07270195335149765,0.023323798552155495,0.0,0.0,-0.9,0.0,0.0022156238555908203,0.0022156238555908203,0.01578378677368164,0,0
6.795026063919067,-0.11252222955226898,0.01876327581703663,-0.37413275241851807,-0.019181278460943203,0.5503188967704773,0.01254292018711567,-0.08475488424301147,0.02338043972849846,0.0,0.0,-0.9,0.0,0.002202749252319336,0.002202749252319336,0.01470637321472168,0,0
