time,x,y,z,yaw,throttle,roll_rate,pitch_rate,yaw_rate,x_ref,y_ref,z_ref,yaw_ref,pred_time,nr_time,ctrl_callback_time,v_norm,metadata
2.384185791015625e-06,-0.06298843771219254,0.01243065856397152,-0.23778516054153442,-0.03028277083027986,0.49739396572113037,-0.010730334557592869,-0.028062855824828148,0.011417552828788757,0.0,0.0,-0.9,0.0,3.0742223262786865,3.0742223262786865,3.331108331680298,0,Hardware
3.3336806297302246,-0.06298843771219254,0.01243065856397152,-0.23778516054153442,-0.03028277083027986,0.5106314420700073,-0.01726425066590309,-0.04479893669486046,0.01924039050936699,0.0,0.0,-0.9,0.0,0.0015342235565185547,0.0015342235565185547,0.013292312622070312,0,jax_reg_wardi
3.3693673610687256,-0.06329907476902008,0.012605058029294014,-0.23503008484840393,-0.030340700159493816,0.5213115811347961,-0.022120509296655655,-0.05764087289571762,0.024662712588906288,0.0,0.0,-0.9,0.0,0.0018992424011230469,0.0018992424011230469,0.013498067855834961,0,1x Speed
3.3843791484832764,-0.06329907476902008,0.012605058029294014,-0.23503008484840393,-0.030340700159493816,0.5298068523406982,-0.02527950517833233,-0.06590782850980759,0.028427347540855408,0.0,0.0,-0.9,0.0,0.0014486312866210938,0.0014486312866210938,0.012083768844604492,0,helix_spin
3.3996593952178955,-0.06332507729530334,0.01257031224668026,-0.23502546548843384,-0.03035219487259644,0.5365502238273621,-0.02684735134243965,-0.07142683863639832,0.031066644936800003,0.0,0.0,-0.9,0.0,0.0016388893127441406,0.0016388893127441406,0.01249241828918457,0,0
3.4160351753234863,-0.06336711347103119,0.012568638660013676,-0.23503126204013824,-0.030374808373392858,0.5419114828109741,-0.028257712721824646,-0.07479436695575714,0.032913606613874435,0.0,0.0,-0.9,0.0,0.001550912857055664,0.001550912857055664,0.012724637985229492,0,0
3.430316686630249,-0.06336711347103119,0.012568638660013676,-0.23503126204013824,-0.030374808373392858,0.5461690425872803,-0.029221685603260994,-0.07708802819252014,0.03420444577932358,0.0,0.0,-0.9,0.0,0.0016934871673583984,0.0016934871673583984,0.012464761734008789,0,0
3.446704387664795,-0.06336351484060287,0.012549776583909988,-0.23504911363124847,-0.03072894788306565,0.5495476722717285,-0.030075760558247566,-0.07853283733129501,0.03523608669638634,0.0,0.0,-0.9,0.0,0.0017414093017578125,0.0017414093017578125,0.013471126556396484,0,0
3.4639902114868164,-0.06337035447359085,0.012564871460199356,-0.23511472344398499,-0.03045487319555584,0.5521538257598877,-0.031448401510715485,-0.07844912260770798,0.03584897890686989,0.0,0.0,-0.9,0.0,0.0014977455139160156,0.0014977455139160156,0.012383699417114258,0,0
3.480114221572876,-0.06335875391960144,0.012570144608616829,-0.2352207452058792,-0.029873655715497185,0.5541718006134033,-0.03191922605037689,-0.0767417699098587,0.03608790412545204,0.0,0.0,-0.9,0.0,0.0016336441040039062,0.0016336441040039062,0.012542486190795898,0,0
3.494169235229492,-0.06335875391960144,0.012570144608616829,-0.2352207452058792,-0.029873655715497185,0.5557736158370972,-0.032249920070171356,-0.07554194331169128,0.03625563904643059,0.0,0.0,-0.9,0.0,0.0017294883728027344,0.0017294883728027344,0.012203454971313477,0,0
3.5096404552459717,-0.06322972476482391,0.012570047751069069,-0.23541823029518127,-0.03011085027386281,0.5570728778839111,-0.0300610214471817,-0.07432439178228378,0.03652597963809967,0.0,0.0,-0.9,0.0,0.0014033317565917969,0.0014033317565917969,0.012147903442382812,0,0
3.52608323097229,-0.06317884474992752,0.012561723589897156,-0.23549693822860718,-0.030220343066162128,0.5580823421478271,-0.027368394657969475,-0.07423311471939087,0.03677544742822647,0.0,0.0,-0.9,0.0,0.0015971660614013672,0.0015971660614013672,0.011793851852416992,0,0
3.5411789417266846,-0.06307360529899597,0.01251361332833767,-0.23572003841400146,-0.029745304489603636,0.5587150454521179,-0.025447405874729156,-0.07267474383115768,0.03678782656788826,0.0,0.0,-0.9,0.0,0.0014019012451171875,0.0014019012451171875,0.013014078140258789,0,0
3.55757737159729,-0.06292203068733215,0.012403163127601147,-0.23621034622192383,-0.02885823669174596,0.5589954853057861,-0.023901846259832382,-0.07054358720779419,0.03647400066256523,0.0,0.0,-0.9,0.0,0.001565694808959961,0.001565694808959961,0.012703418731689453,0,0
3.5746982097625732,-0.06285400688648224,0.012211326509714127,-0.2369392067193985,-0.027977899912165153,0.5588438510894775,-0.02268175221979618,-0.059849824756383896,0.035981882363557816,0.0,0.0,-0.9,0.0,0.001546621322631836,0.001546621322631836,0.011848211288452148,0,0
3.5880472660064697,-0.06285400688648224,0.012211326509714127,-0.2369392067193985,-0.027977899912165153,0.558725118637085,-0.021810049191117287,-0.05219210311770439,0.03562979772686958,0.0,0.0,-0.9,0.0,0.0016336441040039062,0.0016336441040039062,0.012776613235473633,0,0
3.6047632694244385,-0.06287401169538498,0.011845596134662628,-0.23904548585414886,-0.02687562464366833,0.5579301714897156,-0.02251235395669937,-0.04224425554275513,0.03496604785323143,0.0,0.0,-0.9,0.0,0.0016245841979980469,0.0016245841979980469,0.012888908386230469,0,0
3.6192023754119873,-0.06287401169538498,0.011845596134662628,-0.23904548585414886,-0.02687562464366833,0.5572999119758606,-0.023020828142762184,-0.035079825669527054,0.03450563922524452,0.0,0.0,-0.9,0.0,0.001684427261352539,0.001684427261352539,0.013146638870239258,0,0
3.6361141204833984,-0.06293941289186478,0.011492318473756313,-0.2424030750989914,-0.025546233487877632,0.5560778379440308,-0.023216621950268745,-0.019299058243632317,0.033774033188819885,0.0,0.0,-0.9,0.0,0.0014886856079101562,0.0014886856079101562,0.012369155883789062,0,0
3.6519811153411865,-0.06298673897981644,0.011333002708852291,-0.24380367994308472,-0.02505079014668364,0.554864764213562,-0.020978381857275963,-0.0038794262800365686,0.033132459968328476,0.0,0.0,-0.9,0.0,0.0016903877258300781,0.0016903877258300781,0.013945341110229492,0,0
3.669774055480957,-0.06321676075458527,0.010951943695545197,-0.2489333152770996,-0.023738970074846433,0.5531702041625977,-0.010127359069883823,0.015604960732161999,0.03229566290974617,0.0,0.0,-0.9,0.0,0.0014615058898925781,0.0014615058898925781,0.012299060821533203,0,0
3.684140682220459,-0.06321676075458527,0.010951943695545197,-0.2489333152770996,-0.023738970074846433,0.5518286228179932,-0.002252343576401472,0.029760582372546196,0.03158248960971832,0.0,0.0,-0.9,0.0,0.0017824172973632812,0.0017824172973632812,0.012880563735961914,0,0
3.700068235397339,-0.06350109726190567,0.010612862184643745,-0.25536492466926575,-0.02226091230997812,0.5499549508094788,0.004802916198968887,0.04427473619580269,0.03049621731042862,0.0,0.0,-0.9,0.0,0.0016841888427734375,0.0016841888427734375,0.013034343719482422,0,0
3.7152462005615234,-0.06350109726190567,0.010612862184643745,-0.25536492466926575,-0.02226091230997812,0.5484663844108582,0.009931630454957485,0.05484200641512871,0.02967103011906147,0.0,0.0,-0.9,0.0,0.0014503002166748047,0.0014503002166748047,0.012193918228149414,0,0
3.7307255268096924,-0.06374999135732651,0.010174542665481567,-0.2632163465023041,-0.020808271033478622,0.546305239200592,0.015607730485498905,0.06998024135828018,0.0284979660063982,0.0,0.0,-0.9,0.0,0.0015549659729003906,0.0015549659729003906,0.012713432312011719,0,0
3.745694637298584,-0.06374999135732651,0.010174542665481567,-0.2632163465023041,-0.020808271033478622,0.5445860624313354,0.019744521006941795,0.08103550225496292,0.027619237080216408,0.0,0.0,-0.9,0.0,0.001489877700805664,0.001489877700805664,0.012283086776733398,0,0
3.761758327484131,-0.06398481875658035,0.009446012787520885,-0.2725059390068054,-0.019755701406698408,0.5422043800354004,0.02795940637588501,0.10302725434303284,0.02650497294962406,0.0,0.0,-0.9,0.0,0.001424551010131836,0.001424551010131836,0.011898517608642578,0,0
3.775825023651123,-0.06398481875658035,0.009446012787520885,-0.2725059390068054,-0.019755701406698408,0.5403113961219788,0.03396102413535118,0.11913014203310013,0.02560250461101532,0.0,0.0,-0.9,0.0,0.0015418529510498047,0.0015418529510498047,0.012661933898925781,0,0
3.7919323444366455,-0.06414754688739777,0.008597128093242645,-0.2842637002468109,-0.018512505243620758,0.5378272533416748,0.0408719927072525,0.13386927545070648,0.024375949054956436,0.0,0.0,-0.9,0.0,0.0015223026275634766,0.0015223026275634766,0.012827396392822266,0,0
3.8068645000457764,-0.06414754688739777,0.008597128093242645,-0.2842637002468109,-0.018512505243620758,0.5358464121818542,0.04593050479888916,0.14467915892601013,0.02344154380261898,0.0,0.0,-0.9,0.0,0.0016696453094482422,0.0016696453094482422,0.012938737869262695,0,0
3.822967767715454,-0.06417302042245865,0.007867438718676567,-0.2954000234603882,-0.017726608085346113,0.5334115028381348,0.050792280584573746,0.1585065722465515,0.022339461371302605,0.0,0.0,-0.9,0.0,0.001786947250366211,0.001786947250366211,0.013111114501953125,0,0
3.837644100189209,-0.06417302042245865,0.007867438718676567,-0.2954000234603882,-0.017726608085346113,0.5314672589302063,0.054350558668375015,0.16864852607250214,0.021513264626264572,0.0,0.0,-0.9,0.0,0.0018308162689208984,0.0018308162689208984,0.013019084930419922,0,0
3.8545799255371094,-0.06401711702346802,0.007020954508334398,-0.30871471762657166,-0.01707450274002201,0.5290395021438599,0.056898266077041626,0.18411603569984436,0.02051009237766266,0.0,0.0,-0.9,0.0,0.0016655921936035156,0.0016655921936035156,0.012634515762329102,0,0
3.869485855102539,-0.06401711702346802,0.007020954508334398,-0.30871471762657166,-0.01707450274002201,0.5270992517471313,0.05876097083091736,0.19546577334403992,0.019770629703998566,0.0,0.0,-0.9,0.0,0.001562356948852539,0.001562356948852539,0.012473106384277344,0,0
3.8855488300323486,-0.06379657238721848,0.006245436146855354,-0.321715772151947,-0.016607926151390624,0.5248798727989197,0.058400753885507584,0.20445093512535095,0.01906048133969307,0.0,0.0,-0.9,0.0,0.0016028881072998047,0.0016028881072998047,0.013024568557739258,0,0
3.9006810188293457,-0.06379657238721848,0.006245436146855354,-0.321715772151947,-0.016607926151390624,0.5231025218963623,0.05813518166542053,0.21103323996067047,0.018561270087957382,0.0,0.0,-0.9,0.0,0.0018248558044433594,0.0018248558044433594,0.013137340545654297,0,0
3.917062520980835,-0.06347203254699707,0.005420680157840252,-0.335403174161911,-0.016576536234963683,0.5210127830505371,0.055774789303541183,0.21568021178245544,0.018177300691604614,0.0,0.0,-0.9,0.0,0.0016434192657470703,0.0016434192657470703,0.012416601181030273,0,0
3.9335010051727295,-0.0631413459777832,0.0048026107251644135,-0.34581097960472107,-0.01679678152390794,0.5187647342681885,0.05282745137810707,0.22307030856609344,0.017878714948892593,0.0,0.0,-0.9,0.0,0.0016200542449951172,0.0016200542449951172,0.012653827667236328,0,0
3.9493660926818848,-0.06278754025697708,0.0042344038374722,-0.35512834787368774,-0.016989385388048808,0.5166158080101013,0.04684155061841011,0.22420740127563477,0.017970889806747437,0.0,0.0,-0.9,0.0,0.0017042160034179688,0.0017042160034179688,0.012614011764526367,0,0
3.964698076248169,-0.06278754025697708,0.0042344038374722,-0.35512834787368774,-0.016989385388048808,0.5148906111717224,0.04245631396770477,0.22504061460494995,0.018054239451885223,0.0,0.0,-0.9,0.0,0.0016405582427978516,0.0016405582427978516,0.013029098510742188,0,0
3.980816602706909,-0.06193140521645546,0.0029682570602744818,-0.3758341073989868,-0.017310774657679044,0.51267409324646,0.03585686534643173,0.22038933634757996,0.018370449542999268,0.0,0.0,-0.9,0.0,0.0016791820526123047,0.0016791820526123047,0.012103796005249023,0,0
3.9951083660125732,-0.06193140521645546,0.0029682570602744818,-0.3758341073989868,-0.017310774657679044,0.510892927646637,0.03101559728384018,0.21697883307933807,0.018593311309814453,0.0,0.0,-0.9,0.0,0.0017199516296386719,0.0017199516296386719,0.013186216354370117,0,0
4.011406660079956,-0.06106987223029137,0.002029634080827236,-0.3930247724056244,-0.017750452494581737,0.5088251233100891,0.024997049942612648,0.2137148380279541,0.01896890625357628,0.0,0.0,-0.9,0.0,0.0018894672393798828,0.0018894672393798828,0.01300954818725586,0,0
4.026583433151245,-0.06106987223029137,0.002029634080827236,-0.3930247724056244,-0.017750452494581737,0.507161557674408,0.02058635652065277,0.21132418513298035,0.019236689433455467,0.0,0.0,-0.9,0.0,0.0016856193542480469,0.0016856193542480469,0.012799978256225586,0,0
4.042769908905029,-0.060048241168260574,0.0012268926948308945,-0.41040754318237305,-0.018352914433036077,0.5053419470787048,0.01344179268926382,0.2060602605342865,0.019835850223898888,0.0,0.0,-0.9,0.0,0.0018439292907714844,0.0018439292907714844,0.012461662292480469,0,0
4.0568766593933105,-0.060048241168260574,0.0012268926948308945,-0.41040754318237305,-0.018352914433036077,0.5038772225379944,0.008215721696615219,0.20221316814422607,0.020251518115401268,0.0,0.0,-0.9,0.0,0.0017247200012207031,0.0017247200012207031,0.013028621673583984,0,0
4.074300289154053,-0.05894950032234192,0.0003594671725295484,-0.42784762382507324,-0.019086464207260442,0.5023654103279114,0.0034181249793618917,0.1923402100801468,0.020932817831635475,0.0,0.0,-0.9,0.0,0.0016410350799560547,0.0016410350799560547,0.01226806640625,0,0
4.08814001083374,-0.05894950032234192,0.0003594671725295484,-0.42784762382507324,-0.019086464207260442,0.5011482238769531,-8.371607691515237e-05,0.18514318764209747,0.021394457668066025,0.0,0.0,-0.9,0.0,0.0017609596252441406,0.0017609596252441406,0.012778043746948242,0,0
4.10419774055481,-0.05786243453621864,-0.0005944474833086133,-0.4451190233230591,-0.020067761223345023,0.4998463988304138,-0.0018741097301244736,0.17170467972755432,0.022160479798913002,0.0,0.0,-0.9,0.0,0.0016062259674072266,0.0016062259674072266,0.012423515319824219,0,0
4.118779182434082,-0.05786243453621864,-0.0005944474833086133,-0.4451190233230591,-0.020067761223345023,0.4987986087799072,-0.003181847045198083,0.1619262546300888,0.022688817232847214,0.0,0.0,-0.9,0.0,0.0018100738525390625,0.0018100738525390625,0.01384592056274414,0,0
4.136658430099487,-0.05682602897286415,-0.0014786346582695842,-0.46222439408302307,-0.020867223622279742,0.49774423241615295,-0.00762593001127243,0.14828245341777802,0.023634284734725952,0.0,0.0,-0.9,0.0,0.0017209053039550781,0.0017209053039550781,0.013927221298217773,0,0
4.152591943740845,-0.05682602897286415,-0.0014786346582695842,-0.46222439408302307,-0.020867223622279742,0.4968958795070648,-0.010858766734600067,0.13837863504886627,0.024268366396427155,0.0,0.0,-0.9,0.0,0.0016112327575683594,0.0016112327575683594,0.013562679290771484,0,0
4.1698853969573975,-0.05550958588719368,-0.002485891804099083,-0.4845160245895386,-0.0225514969894981,0.49599215388298035,-0.011875512078404427,0.12297897785902023,0.025329500436782837,0.0,0.0,-0.9,0.0,0.0017092227935791016,0.0017092227935791016,0.013029336929321289,0,0
4.185005187988281,-0.05550958588719368,-0.002485891804099083,-0.4845160245895386,-0.0225514969894981,0.49526548385620117,-0.01261958945542574,0.11181503534317017,0.026065822690725327,0.0,0.0,-0.9,0.0,0.0016837120056152344,0.0016837120056152344,0.012082815170288086,0,0
4.200432300567627,-0.05490035191178322,-0.002990201348438859,-0.49681296944618225,-0.02357669456875428,0.4945007264614105,-0.016616178676486015,0.10644206404685974,0.027067771181464195,0.0,0.0,-0.9,0.0,0.0018894672393798828,0.0018894672393798828,0.01305079460144043,0,0
4.2149553298950195,-0.05490035191178322,-0.002990201348438859,-0.49681296944618225,-0.02357669456875428,0.49388357996940613,-0.01951291784644127,0.10255290567874908,0.027760688215494156,0.0,0.0,-0.9,0.0,0.0016465187072753906,0.0016465187072753906,0.012768268585205078,0,0
4.231414318084717,-0.0539991594851017,-0.0037577596958726645,-0.5140812993049622,-0.025204152814744987,0.4933185577392578,-0.020462119951844215,0.0756063312292099,0.028917642310261726,0.0,0.0,-0.9,0.0,0.001481771469116211,0.001481771469116211,0.012319087982177734,0,0
4.2453649044036865,-0.0539991594851017,-0.0037577596958726645,-0.5140812993049622,-0.025204152814744987,0.49287086725234985,-0.0211598239839077,0.056137099862098694,0.02971011772751808,0.0,0.0,-0.9,0.0,0.0016093254089355469,0.0016093254089355469,0.013029336929321289,0,0
4.262340784072876,-0.05325032398104668,-0.004270926583558321,-0.528279185295105,-0.02674260600692963,0.4923081398010254,-0.021751726046204567,0.04410321265459061,0.030834922567009926,0.0,0.0,-0.9,0.0,0.0015001296997070312,0.0015001296997070312,0.012527704238891602,0,0
4.278568983078003,-0.05278319865465164,-0.00460785860195756,-0.5384073853492737,-0.027690938759540207,0.49186110496520996,-0.021061399951577187,0.02961028553545475,0.03195997700095177,0.0,0.0,-0.9,0.0,0.0016846656799316406,0.0016846656799316406,0.012686729431152344,0,0
4.292789936065674,-0.05278319865465164,-0.00460785860195756,-0.5384073853492737,-0.027690938759540207,0.4915023744106293,-0.020569343119859695,0.019148649647831917,0.032751720398664474,0.0,0.0,-0.9,0.0,0.001524209976196289,0.001524209976196289,0.011774539947509766,0,0
4.307804346084595,-0.052269693464040756,-0.00509669492021203,-0.5519214868545532,-0.029292941776444172,0.49127763509750366,-0.009406451135873795,0.007039020769298077,0.03382854536175728,0.0,0.0,-0.9,0.0,0.0014545917510986328,0.0014545917510986328,0.012796878814697266,0,0
4.322918891906738,-0.052269693464040756,-0.00509669492021203,-0.5519214868545532,-0.029292941776444172,0.4910992383956909,-0.0013718783156946301,-0.0016866635996848345,0.03466207534074783,0.0,0.0,-0.9,0.0,0.0016736984252929688,0.0016736984252929688,0.013276338577270508,0,0
4.339211463928223,-0.05182987451553345,-0.005855921655893326,-0.5698390007019043,-0.03140529232208982,0.4908141493797302,0.0061340914107859135,-0.012055179104208946,0.0360877625644207,0.0,0.0,-0.9,0.0,0.0015218257904052734,0.0015218257904052734,0.012505769729614258,0,0
4.353934288024902,-0.05182987451553345,-0.005855921655893326,-0.5698390007019043,-0.03140529232208982,0.49058568477630615,0.011537749320268631,-0.019531717523932457,0.03713320940732956,0.0,0.0,-0.9,0.0,0.0016028881072998047,0.0016028881072998047,0.013064384460449219,0,0
4.370911359786987,-0.051705215126276016,-0.006302644032984972,-0.5824664831161499,-0.03294100799679912,0.4905003607273102,0.012974852696061134,-0.027056332677602768,0.038457877933979034,0.0,0.0,-0.9,0.0,0.0018854141235351562,0.0018854141235351562,0.012914419174194336,0,0
4.385953903198242,-0.051705215126276016,-0.006302644032984972,-0.5824664831161499,-0.03294100799679912,0.49043208360671997,0.014004693366587162,-0.032468780875205994,0.03939221054315567,0.0,0.0,-0.9,0.0,0.001550436019897461,0.001550436019897461,0.012701988220214844,0,0
4.402237892150879,-0.051831167191267014,-0.006815505214035511,-0.5957796573638916,-0.03437900122877027,0.4904029965400696,0.016904035583138466,-0.04477555677294731,0.04067173972725868,0.0,0.0,-0.9,0.0,0.00179290771484375,0.00179290771484375,0.012935638427734375,0,0
4.416800498962402,-0.051831167191267014,-0.006815505214035511,-0.5957796573638916,-0.03437900122877027,0.4903814196586609,0.0189820509403944,-0.053623221814632416,0.04158945009112358,0.0,0.0,-0.9,0.0,0.0017211437225341797,0.0017211437225341797,0.01208043098449707,0,0
4.4327332973480225,-0.05224158614873886,-0.007337422575801611,-0.6074913740158081,-0.03591916530977592,0.490409255027771,0.02189216949045658,-0.06606965512037277,0.042901430279016495,0.0,0.0,-0.9,0.0,0.0016722679138183594,0.0016722679138183594,0.013108491897583008,0,0
4.4473161697387695,-0.05224158614873886,-0.007337422575801611,-0.6074913740158081,-0.03591916530977592,0.4904337525367737,0.02397652342915535,-0.07501272112131119,0.04384254291653633,0.0,0.0,-0.9,0.0,0.0021915435791015625,0.0021915435791015625,0.012900829315185547,0,0
4.464755535125732,-0.052885692566633224,-0.007953725755214691,-0.619792103767395,-0.03727027334186204,0.49047014117240906,0.024279361590743065,-0.0850176066160202,0.04500064253807068,0.0,0.0,-0.9,0.0,0.0017559528350830078,0.0017559528350830078,0.012882232666015625,0,0
4.47918176651001,-0.052885692566633224,-0.007953725755214691,-0.619792103767395,-0.03727027334186204,0.4905007481575012,0.024492770433425903,-0.09220457077026367,0.04581322893500328,0.0,0.0,-0.9,0.0,0.0016200542449951172,0.0016200542449951172,0.012477874755859375,0,0
4.495461702346802,-0.05381017550826073,-0.008539281785488129,-0.6315313577651978,-0.038936421656783585,0.4905538558959961,0.0233916025608778,-0.09723253548145294,0.04691038653254509,0.0,0.0,-0.9,0.0,0.001569986343383789,0.001569986343383789,0.012636184692382812,0,0
4.509706974029541,-0.05381017550826073,-0.008539281785488129,-0.6315313577651978,-0.038936421656783585,0.49059709906578064,0.022599123418331146,-0.10084300488233566,0.04767439141869545,0.0,0.0,-0.9,0.0,0.0017085075378417969,0.0017085075378417969,0.012527227401733398,0,0
4.5255653858184814,-0.05500118434429169,-0.008890723809599876,-0.6427096724510193,-0.04055776818974442,0.490713506937027,0.022880079224705696,-0.0987682193517685,0.04878045246005058,0.0,0.0,-0.9,0.0,0.001667022705078125,0.001667022705078125,0.012928247451782227,0,0
4.542302846908569,-0.05592314526438713,-0.009067359380424023,-0.6498766541481018,-0.04171108772034093,0.4909117817878723,0.024896161630749702,-0.09568048268556595,0.05003536120057106,0.0,0.0,-0.9,0.0,0.0014767646789550781,0.0014767646789550781,0.012239694595336914,0,0
4.558007001876831,-0.056905630975961685,-0.009243966080248356,-0.6568707823753357,-0.042923184581823995,0.49110329151153564,0.030070951208472252,-0.09261608123779297,0.051480844616889954,0.0,0.0,-0.9,0.0,0.0016362667083740234,0.0016362667083740234,0.01256704330444336,0,0
4.573556184768677,-0.056905630975961685,-0.009243966080248356,-0.6568707823753357,-0.042923184581823995,0.491258442401886,0.03378425911068916,-0.09042118489742279,0.05248618870973587,0.0,0.0,-0.9,0.0,0.0016047954559326172,0.0016047954559326172,0.012930154800415039,0,0
4.589735746383667,-0.05846092477440834,-0.00947667844593525,-0.6669149398803711,-0.04483677745685683,0.4914681911468506,0.0380878746509552,-0.08595241606235504,0.053922250866889954,0.0,0.0,-0.9,0.0,0.001768350601196289,0.001768350601196289,0.012590169906616211,0,0
4.604374408721924,-0.05846092477440834,-0.00947667844593525,-0.6669149398803711,-0.04483677745685683,0.4916381239891052,0.041176579892635345,-0.08275046199560165,0.054917894303798676,0.0,0.0,-0.9,0.0,0.0015821456909179688,0.0015821456909179688,0.012704133987426758,0,0
4.62040901184082,-0.060100801289081573,-0.009651285596191883,-0.6764657497406006,-0.04667001171108287,0.49199438095092773,0.04685823991894722,-0.08180644363164902,0.056402064859867096,0.0,0.0,-0.9,0.0,0.0015835762023925781,0.0015835762023925781,0.013013601303100586,0,0
4.634913921356201,-0.060100801289081573,-0.009651285596191883,-0.6764657497406006,-0.04667001171108287,0.49228253960609436,0.0509268157184124,-0.08113359659910202,0.057440709322690964,0.0,0.0,-0.9,0.0,0.0015375614166259766,0.0015375614166259766,0.012540340423583984,0,0
4.651250839233398,-0.061911582946777344,-0.009854032658040524,-0.6853972673416138,-0.04850271458241591,0.49264687299728394,0.05421295017004013,-0.08317862451076508,0.05889466032385826,0.0,0.0,-0.9,0.0,0.001638650894165039,0.001638650894165039,0.013068437576293945,0,0
4.66650390625,-0.061911582946777344,-0.009854032658040524,-0.6853972673416138,-0.04850271458241591,0.49294131994247437,0.056564562022686005,-0.08464423567056656,0.0599183663725853,0.0,0.0,-0.9,0.0,0.00164031982421875,0.00164031982421875,0.012483835220336914,0,0
4.682893991470337,-0.06411243230104446,-0.010119518265128136,-0.6944105625152588,-0.050483426084848675,0.49338990449905396,0.06014333292841911,-0.07680167257785797,0.06127867102622986,0.0,0.0,-0.9,0.0,0.001744985580444336,0.001744985580444336,0.013045310974121094,0,0
4.697463512420654,-0.06411243230104446,-0.010119518265128136,-0.6944105625152588,-0.050483426084848675,0.49375295639038086,0.06270748376846313,-0.07119406759738922,0.06221383064985275,0.0,0.0,-0.9,0.0,0.0015485286712646484,0.0015485286712646484,0.011735677719116211,0,0
4.713212966918945,-0.0663507729768753,-0.010345850139856339,-0.7025470733642578,-0.0523504226813247,0.49435722827911377,0.05368513986468315,-0.07093806564807892,0.06337141990661621,0.0,0.0,-0.9,0.0,0.001628875732421875,0.001628875732421875,0.01215672492980957,0,0
4.726932048797607,-0.0663507729768753,-0.010345850139856339,-0.7025470733642578,-0.0523504226813247,0.4948458671569824,0.04724334552884102,-0.07075104117393494,0.06418038159608841,0.0,0.0,-0.9,0.0,0.0016322135925292969,0.0016322135925292969,0.012886285781860352,0,0
4.743195295333862,-0.06845743954181671,-0.010617892257869244,-0.7093599438667297,-0.05389408465190214,0.4955348074436188,0.04424887150526047,-0.07131854444742203,0.0653947964310646,0.0,0.0,-0.9,0.0,0.001707315444946289,0.001707315444946289,0.013010978698730469,0,0
4.758252143859863,-0.06845743954181671,-0.010617892257869244,-0.7093599438667297,-0.05389408465190214,0.4960906505584717,0.04211254417896271,-0.07172183692455292,0.06624291837215424,0.0,0.0,-0.9,0.0,0.0015015602111816406,0.0015015602111816406,0.01317453384399414,0,0
4.775404453277588,-0.07054870575666428,-0.010834109038114548,-0.7149795293807983,-0.0556843332696017,0.4966898262500763,0.03697114437818527,-0.07027938961982727,0.06740470975637436,0.0,0.0,-0.9,0.0,0.0016143321990966797,0.0016143321990966797,0.012553930282592773,0,0
4.78957724571228,-0.07054870575666428,-0.010834109038114548,-0.7149795293807983,-0.0556843332696017,0.4971733093261719,0.03330070897936821,-0.06924698501825333,0.06822063028812408,0.0,0.0,-0.9,0.0,0.0017278194427490234,0.0017278194427490234,0.012431621551513672,0,0
4.8059351444244385,-0.07276615500450134,-0.01087241806089878,-0.7200875878334045,-0.05764162518446424,0.49773335456848145,0.02806117758154869,-0.061464451253414154,0.06939322501420975,0.0,0.0,-0.9,0.0,0.0015151500701904297,0.0015151500701904297,0.012960195541381836,0,0
4.822141408920288,-0.07441996783018112,-0.010925178416073322,-0.7235351800918579,-0.05892804512413825,0.49835604429244995,0.024342328310012817,-0.057204604148864746,0.0707356408238411,0.0,0.0,-0.9,0.0,0.0017964839935302734,0.0017964839935302734,0.01260519027709961,0,0
4.838538646697998,-0.07587996125221252,-0.01095561683177948,-0.7263365983963013,-0.06028063546277402,0.4990086555480957,0.024209925904870033,-0.05124805495142937,0.07222001254558563,0.0,0.0,-0.9,0.0,0.001581430435180664,0.001581430435180664,0.012415170669555664,0,0
4.853148698806763,-0.07587996125221252,-0.01095561683177948,-0.7263365983963013,-0.06028063546277402,0.4995349049568176,0.02411908097565174,-0.04699695110321045,0.07325882464647293,0.0,0.0,-0.9,0.0,0.0015590190887451172,0.0015590190887451172,0.012897729873657227,0,0
4.869731664657593,-0.0788438692688942,-0.010897035710513592,-0.7318291664123535,-0.0630445759772023,0.5001382827758789,0.01714175194501877,-0.036619700491428375,0.07483234256505966,0.0,0.0,-0.9,0.0,0.0016584396362304688,0.0016584396362304688,0.01269221305847168,0,0
4.884450674057007,-0.0788438692688942,-0.010897035710513592,-0.7318291664123535,-0.0630445759772023,0.500626266002655,0.012166299857199192,-0.02920646034181118,0.07597396522760391,0.0,0.0,-0.9,0.0,0.0016546249389648438,0.0016546249389648438,0.012622594833374023,0,0
4.900752782821655,-0.08038394898176193,-0.010864272713661194,-0.7344219088554382,-0.06435820456052452,0.5011662244796753,0.007545883301645517,-0.022016076371073723,0.0772571936249733,0.0,0.0,-0.9,0.0,0.0016760826110839844,0.0016760826110839844,0.012529373168945312,0,0
4.916526556015015,-0.08189842849969864,-0.010809818282723427,-0.7368083596229553,-0.06581610891570146,0.5017601847648621,0.005401299800723791,-0.015445173718035221,0.07871638983488083,0.0,0.0,-0.9,0.0,0.0016145706176757812,0.0016145706176757812,0.01274728775024414,0,0
4.931409597396851,-0.08189842849969864,-0.010809818282723427,-0.7368083596229553,-0.06581610891570146,0.502238929271698,0.0038737209979444742,-0.010751958936452866,0.07974522560834885,0.0,0.0,-0.9,0.0,0.0016875267028808594,0.0016875267028808594,0.012426137924194336,0,0
4.947551012039185,-0.08417830616235733,-0.010679046623408794,-0.7400335669517517,-0.0679764737395719,0.5028458833694458,0.002066976623609662,-0.007311354391276836,0.08127221465110779,0.0,0.0,-0.9,0.0,0.0016276836395263672,0.0016276836395263672,0.012306690216064453,0,0
4.962033271789551,-0.08417830616235733,-0.010679046623408794,-0.7400335669517517,-0.0679764737395719,0.5033345818519592,0.0007791154203005135,-0.004853872116655111,0.08234452456235886,0.0,0.0,-0.9,0.0,0.001581430435180664,0.001581430435180664,0.012172222137451172,0,0
4.977751731872559,-0.0864114835858345,-0.01049881987273693,-0.7428012490272522,-0.06996196132532372,0.5039712190628052,-0.004082865081727505,-0.005202417261898518,0.08384609967470169,0.0,0.0,-0.9,0.0,0.0015742778778076172,0.0015742778778076172,0.012618064880371094,0,0
4.9920899868011475,-0.0864114835858345,-0.01049881987273693,-0.7428012490272522,-0.06996196132532372,0.504483699798584,-0.007553135044872761,-0.005448376759886742,0.08489631861448288,0.0,0.0,-0.9,0.0,0.0015947818756103516,0.0015947818756103516,0.012500762939453125,0,0
5.008251905441284,-0.08854924142360687,-0.010280074551701546,-0.7452097535133362,-0.07196234949440748,0.5049636960029602,-0.012626834213733673,-0.004521756898611784,0.08636926859617233,0.0,0.0,-0.9,0.0,0.0014576911926269531,0.0014576911926269531,0.0127716064453125,0,0
5.022641658782959,-0.08854924142360687,-0.010280074551701546,-0.7452097535133362,-0.07196234949440748,0.5053501129150391,-0.016253089532256126,-0.0038565602153539658,0.08740337193012238,0.0,0.0,-0.9,0.0,0.0016794204711914062,0.0016794204711914062,0.01324915885925293,0,0
5.0395753383636475,-0.09058059006929398,-0.010000921785831451,-0.7473069429397583,-0.07413976168887496,0.5057523250579834,-0.019297096878290176,0.0035295728594064713,0.08893541991710663,0.0,0.0,-0.9,0.0,0.0017824172973632812,0.0017824172973632812,0.012676715850830078,0,0
5.053984880447388,-0.09058059006929398,-0.010000921785831451,-0.7473069429397583,-0.07413976168887496,0.5060766339302063,-0.02147023193538189,0.00881509855389595,0.09002084285020828,0.0,0.0,-0.9,0.0,0.0016286373138427734,0.0016286373138427734,0.01254725456237793,0,0
5.070303678512573,-0.09276176244020462,-0.009608244523406029,-0.7492817044258118,-0.07671291806154226,0.5063707828521729,-0.023134194314479828,0.014800447970628738,0.09175329655408859,0.0,0.0,-0.9,0.0,0.001672506332397461,0.001672506332397461,0.012731075286865234,0,0
5.085105657577515,-0.09276176244020462,-0.009608244523406029,-0.7492817044258118,-0.07671291806154226,0.5066077709197998,-0.024321814998984337,0.019087688997387886,0.09297198057174683,0.0,0.0,-0.9,0.0,0.0016682147979736328,0.0016682147979736328,0.012238025665283203,0,0
5.100694417953491,-0.09506767243146896,-0.008936182595789433,-0.7513806223869324,-0.07950156834250127,0.5069000124931335,-0.02471013553440571,0.02398812212049961,0.09487627446651459,0.0,0.0,-0.9,0.0,0.0015566349029541016,0.0015566349029541016,0.012083768844604492,0,0
5.114804744720459,-0.09506767243146896,-0.008936182595789433,-0.7513806223869324,-0.07950156834250127,0.507135272026062,-0.024984747171401978,0.0274975448846817,0.0962105318903923,0.0,0.0,-0.9,0.0,0.0015995502471923828,0.0015995502471923828,0.012807846069335938,0,0
5.130994558334351,-0.09622407704591751,-0.008531947620213032,-0.7523808479309082,-0.08089364449356441,0.507453203201294,-0.027437731623649597,0.026394981890916824,0.09768497198820114,0.0,0.0,-0.9,0.0,0.0017173290252685547,0.0017173290252685547,0.012960195541381836,0,0
5.14762282371521,-0.09727095812559128,-0.008096841163933277,-0.7532100677490234,-0.08232282462675823,0.5076794028282166,-0.02825888618826866,0.025600170716643333,0.09923847764730453,0.0,0.0,-0.9,0.0,0.0016951560974121094,0.0016951560974121094,0.012474775314331055,0,0
5.162241220474243,-0.09727095812559128,-0.008096841163933277,-0.7532100677490234,-0.08232282462675823,0.5078612565994263,-0.028847919777035713,0.02503097802400589,0.1003255620598793,0.0,0.0,-0.9,0.0,0.0019500255584716797,0.0019500255584716797,0.013077735900878906,0,0
5.178452730178833,-0.09922967106103897,-0.007045395206660032,-0.7547380328178406,-0.08475043190104777,0.5081255435943604,-0.0379207581281662,0.031110854819417,0.1020917221903801,0.0,0.0,-0.9,0.0,0.0014743804931640625,0.0014743804931640625,0.011991739273071289,0,0
5.192742824554443,-0.09922967106103897,-0.007045395206660032,-0.7547380328178406,-0.08475043190104777,0.5083394050598145,-0.044415418058633804,0.03547224774956703,0.10336393117904663,0.0,0.0,-0.9,0.0,0.0016210079193115234,0.0016210079193115234,0.0128631591796875,0,0
5.208836317062378,-0.1005876213312149,-0.00627159234136343,-0.7556961178779602,-0.08654377921061213,0.5085732340812683,-0.04336666315793991,0.03354455158114433,0.10482720285654068,0.0,0.0,-0.9,0.0,0.0016722679138183594,0.0016722679138183594,0.012534379959106445,0,0
5.223451137542725,-0.1005876213312149,-0.00627159234136343,-0.7556961178779602,-0.08654377921061213,0.5087612271308899,-0.042616527527570724,0.03216259181499481,0.10585200786590576,0.0,0.0,-0.9,0.0,0.00154876708984375,0.00154876708984375,0.012734651565551758,0,0
5.239537715911865,-0.10196401178836823,-0.005335270892828703,-0.7565793991088867,-0.08794645895597998,0.5090051889419556,-0.042737264186143875,0.031524885445833206,0.10709995031356812,0.0,0.0,-0.9,0.0,0.0016384124755859375,0.0016384124755859375,0.012388944625854492,0,0
5.253500938415527,-0.10196401178836823,-0.005335270892828703,-0.7565793991088867,-0.08794645895597998,0.5092012882232666,-0.042824216187000275,0.03106790781021118,0.1079733744263649,0.0,0.0,-0.9,0.0,0.0014553070068359375,0.0014553070068359375,0.012203216552734375,0,0
5.2701215744018555,-0.10316372662782669,-0.004464144818484783,-0.7572188377380371,-0.08957857929519203,0.5094073414802551,-0.04935073480010033,0.035850416868925095,0.10931345820426941,0.0,0.0,-0.9,0.0,0.0017158985137939453,0.0017158985137939453,0.01233816146850586,0,0
5.284059762954712,-0.10316372662782669,-0.004464144818484783,-0.7572188377380371,-0.08957857929519203,0.509573757648468,-0.05402562767267227,0.039281368255615234,0.11027263104915619,0.0,0.0,-0.9,0.0,0.001630544662475586,0.001630544662475586,0.01267385482788086,0,0
5.299896717071533,-0.10420823842287064,-0.003550708992406726,-0.7576430439949036,-0.09113484283279862,0.5099210143089294,-0.05268564447760582,0.03896941989660263,0.11144721508026123,0.0,0.0,-0.9,0.0,0.001585245132446289,0.001585245132446289,0.012177228927612305,0,0
5.3141865730285645,-0.10420823842287064,-0.003550708992406726,-0.7576430439949036,-0.09113484283279862,0.5101999640464783,-0.051727019250392914,0.038745347410440445,0.11226929724216461,0.0,0.0,-0.9,0.0,0.0014309883117675781,0.0014309883117675781,0.012612342834472656,0,0
5.32992959022522,-0.10543464124202728,-0.0022907110396772623,-0.7578595280647278,-0.09317240156198674,0.510499894618988,-0.05361021310091019,0.04086102172732353,0.11368462443351746,0.0,0.0,-0.9,0.0,0.0017247200012207031,0.0017247200012207031,0.011935234069824219,0,0
5.344101428985596,-0.10543464124202728,-0.0022907110396772623,-0.7578595280647278,-0.09317240156198674,0.5107408761978149,-0.054957520216703415,0.0423765629529953,0.11467866599559784,0.0,0.0,-0.9,0.0,0.001699209213256836,0.001699209213256836,0.01300668716430664,0,0
5.361058473587036,-0.10621241480112076,-0.0012254506582394242,-0.7577406167984009,-0.09487223017625118,0.5111163258552551,-0.05856667459011078,0.0414968878030777,0.1160484105348587,0.0,0.0,-0.9,0.0,0.0014874935150146484,0.0014874935150146484,0.012270212173461914,0,0
5.3753931522369385,-0.10621241480112076,-0.0012254506582394242,-0.7577406167984009,-0.09487223017625118,0.5114179849624634,-0.06114935874938965,0.04086916148662567,0.11700626462697983,0.0,0.0,-0.9,0.0,0.0015320777893066406,0.0015320777893066406,0.01243734359741211,0,0
5.391129016876221,-0.10691700130701065,-0.00016471068374812603,-0.7574341893196106,-0.09665571537758194,0.5117533802986145,-0.05972512438893318,0.0398896299302578,0.11829356849193573,0.0,0.0,-0.9,0.0,0.001934051513671875,0.001934051513671875,0.012172460556030273,0,0
5.405492067337036,-0.10691700130701065,-0.00016471068374812603,-0.7574341893196106,-0.09665571537758194,0.5120226740837097,-0.05870654061436653,0.039187658578157425,0.11919484287500381,0.0,0.0,-0.9,0.0,0.0017161369323730469,0.0017161369323730469,0.01297450065612793,0,0
5.422151565551758,-0.10753524303436279,0.0010204700520262122,-0.7569990158081055,-0.09840093657333557,0.5122278928756714,-0.056556038558483124,0.039654672145843506,0.1204981654882431,0.0,0.0,-0.9,0.0,0.0016872882843017578,0.0016872882843017578,0.012535572052001953,0,0
5.436354160308838,-0.10753524303436279,0.0010204700520262122,-0.7569990158081055,-0.09840093657333557,0.5123926997184753,-0.05501507222652435,0.03998793661594391,0.12140952795743942,0.0,0.0,-0.9,0.0,0.0017118453979492188,0.0017118453979492188,0.012480497360229492,0,0
5.45205545425415,-0.10813278704881668,0.0023291059769690037,-0.7565075755119324,-0.10017529007034738,0.5126248002052307,-0.05682693049311638,0.0350196436047554,0.12267674505710602,0.0,0.0,-0.9,0.0,0.0015120506286621094,0.0015120506286621094,0.012581110000610352,0,0
5.467364072799683,-0.10813278704881668,0.0023291059769690037,-0.7565075755119324,-0.10017529007034738,0.5128114223480225,-0.058127447962760925,0.03146113082766533,0.12355648726224899,0.0,0.0,-0.9,0.0,0.0016260147094726562,0.0016260147094726562,0.01241445541381836,0,0
5.483116149902344,-0.10864825546741486,0.003690816694870591,-0.7559323906898499,-0.10164506315312505,0.5129680633544922,-0.05919664353132248,0.027891669422388077,0.12471048533916473,0.0,0.0,-0.9,0.0,0.0015711784362792969,0.0015711784362792969,0.012140512466430664,0,0
5.497432708740234,-0.10864825546741486,0.003690816694870591,-0.7559323906898499,-0.10164506315312505,0.5130940079689026,-0.059964828193187714,0.025332992896437645,0.12551447749137878,0.0,0.0,-0.9,0.0,0.0016336441040039062,0.0016336441040039062,0.012406587600708008,0,0
5.513111352920532,-0.10915329307317734,0.005018615163862705,-0.7553034424781799,-0.10296471632766445,0.5131816267967224,-0.057295650243759155,0.028249336406588554,0.1266515702009201,0.0,0.0,-0.9,0.0,0.0015459060668945312,0.0015459060668945312,0.012302398681640625,0,0
5.527461290359497,-0.10915329307317734,0.005018615163862705,-0.7553034424781799,-0.10296471632766445,0.5132521390914917,-0.05537980794906616,0.030339814722537994,0.1274433434009552,0.0,0.0,-0.9,0.0,0.001603841781616211,0.001603841781616211,0.012166023254394531,0,0
5.543058156967163,-0.10952164232730865,0.00633234204724431,-0.7546131610870361,-0.10426035686482679,0.5133545994758606,-0.054308515042066574,0.03069877438247204,0.1284840852022171,0.0,0.0,-0.9,0.0,0.0017533302307128906,0.0017533302307128906,0.012146711349487305,0,0
5.55680251121521,-0.10952164232730865,0.00633234204724431,-0.7546131610870361,-0.10426035686482679,0.5134368538856506,-0.05354013666510582,0.030955573543906212,0.12921229004859924,0.0,0.0,-0.9,0.0,0.0017468929290771484,0.0017468929290771484,0.012456178665161133,0,0
5.573817014694214,-0.10973972827196121,0.007647148799151182,-0.7538581490516663,-0.10547110490318308,0.5136135220527649,-0.04843166470527649,0.0268368199467659,0.1300375908613205,0.0,0.0,-0.9,0.0,0.0017673969268798828,0.0017673969268798828,0.012391805648803711,0,0
5.5876970291137695,-0.10973972827196121,0.007647148799151182,-0.7538581490516663,-0.10547110490318308,0.5137557983398438,-0.04477187618613243,0.023883389309048653,0.13062505424022675,0.0,0.0,-0.9,0.0,0.001682281494140625,0.001682281494140625,0.012467622756958008,0,0
5.603313207626343,-0.10990682989358902,0.009112968109548092,-0.7529236674308777,-0.10713257053174445,0.5139015913009644,-0.03873389586806297,0.026821883395314217,0.13175751268863678,0.0,0.0,-0.9,0.0,0.001760721206665039,0.001760721206665039,0.012757539749145508,0,0
5.618181228637695,-0.10990682989358902,0.009112968109548092,-0.7529236674308777,-0.10713257053174445,0.5140191316604614,-0.03440418839454651,0.028925519436597824,0.13253997266292572,0.0,0.0,-0.9,0.0,0.0017554759979248047,0.0017554759979248047,0.0132598876953125,0,0
5.634873867034912,-0.1101335659623146,0.010524887591600418,-0.7520369291305542,-0.10836290170658629,0.514158308506012,-0.03007690981030464,0.023284876719117165,0.1334039717912674,0.0,0.0,-0.9,0.0,0.0017011165618896484,0.0017011165618896484,0.012747526168823242,0,0
5.649778127670288,-0.1101335659623146,0.010524887591600418,-0.7520369291305542,-0.10836290170658629,0.514270544052124,-0.026976492255926132,0.019239550456404686,0.1340196579694748,0.0,0.0,-0.9,0.0,0.0016775131225585938,0.0016775131225585938,0.012265443801879883,0,0
5.665998220443726,-0.1104118824005127,0.011722438968718052,-0.7512087821960449,-0.10971256126668458,0.5143322944641113,-0.024950047954916954,0.016584159806370735,0.13497039675712585,0.0,0.0,-0.9,0.0,0.0016148090362548828,0.0016148090362548828,0.01253652572631836,0,0
5.680726528167725,-0.1104118824005127,0.011722438968718052,-0.7512087821960449,-0.10971256126668458,0.514382004737854,-0.023497169837355614,0.014678173698484898,0.13563768565654755,0.0,0.0,-0.9,0.0,0.0018134117126464844,0.0018134117126464844,0.013170242309570312,0,0
5.697381258010864,-0.11063573509454727,0.012953856028616428,-0.7503675222396851,-0.11100853726261116,0.5144528746604919,-0.022722583264112473,0.01511667761951685,0.13663828372955322,0.0,0.0,-0.9,0.0,0.0016434192657470703,0.0016434192657470703,0.012663602828979492,0,0
5.71312141418457,-0.11079091578722,0.013788050971925259,-0.7497370839118958,-0.11170660817543321,0.5146266222000122,-0.020951298996806145,0.017056360840797424,0.1376267373561859,0.0,0.0,-0.9,0.0,0.001735687255859375,0.001735687255859375,0.012740373611450195,0,0
5.72953987121582,-0.11089751869440079,0.014509735628962517,-0.7491252422332764,-0.1124227956098451,0.5147855877876282,-0.013686900958418846,0.01348481047898531,0.1384495049715042,0.0,0.0,-0.9,0.0,0.0016465187072753906,0.0016465187072753906,0.012417793273925781,0,0
5.74360728263855,-0.11089751869440079,0.014509735628962517,-0.7491252422332764,-0.1124227956098451,0.5149139165878296,-0.008481180295348167,0.010922569781541824,0.13903942704200745,0.0,0.0,-0.9,0.0,0.0017359256744384766,0.0017359256744384766,0.012725114822387695,0,0
5.760264873504639,-0.11105873435735703,0.015579906292259693,-0.7481112480163574,-0.11319323770854715,0.5150325298309326,-0.009821342304348946,0.01264172699302435,0.13982577621936798,0.0,0.0,-0.9,0.0,0.001733541488647461,0.001733541488647461,0.012554645538330078,0,0
5.776484966278076,-0.11118021607398987,0.01627838797867298,-0.7473359704017639,-0.1135960220834003,0.5151756405830383,-0.009536156430840492,0.012111608870327473,0.14049722254276276,0.0,0.0,-0.9,0.0,0.0015020370483398438,0.0015020370483398438,0.012886285781860352,0,0
5.791043281555176,-0.11118021607398987,0.01627838797867298,-0.7473359704017639,-0.1135960220834003,0.515290379524231,-0.009331882931292057,0.011731481179594994,0.14096713066101074,0.0,0.0,-0.9,0.0,0.0018985271453857422,0.0018985271453857422,0.012203216552734375,0,0
5.80703067779541,-0.11137637495994568,0.017130116000771523,-0.7462184429168701,-0.11405308276224195,0.5154288411140442,-0.003194926306605339,0.008285248652100563,0.14138732850551605,0.0,0.0,-0.9,0.0,0.0018336772918701172,0.0018336772918701172,0.012838602066040039,0,0
5.821530103683472,-0.11137637495994568,0.017130116000771523,-0.7462184429168701,-0.11405308276224195,0.5155405402183533,0.0012040266301482916,0.005813706666231155,0.14169298112392426,0.0,0.0,-0.9,0.0,0.0018422603607177734,0.0018422603607177734,0.01263880729675293,0,0
5.837987661361694,-0.11151860654354095,0.01821639947593212,-0.7446113228797913,-0.11436526370636516,0.5156230926513672,0.002889887895435095,0.007625934202224016,0.14208416640758514,0.0,0.0,-0.9,0.0,0.0016252994537353516,0.0016252994537353516,0.012490034103393555,0,0
5.852084398269653,-0.11151860654354095,0.01821639947593212,-0.7446113228797913,-0.11436526370636516,0.5156893730163574,0.004099373240023851,0.008925543166697025,0.14235647022724152,0.0,0.0,-0.9,0.0,0.001859426498413086,0.001859426498413086,0.012906312942504883,0,0
5.868838548660278,-0.11158068478107452,0.018985984846949577,-0.7433165907859802,-0.11472104145720684,0.5158755779266357,0.008447104133665562,0.00858901534229517,0.14265277981758118,0.0,0.0,-0.9,0.0,0.0016586780548095703,0.0016586780548095703,0.012274742126464844,0,0
5.883051633834839,-0.11158068478107452,0.018985984846949577,-0.7433165907859802,-0.11472104145720684,0.516025185585022,0.011562399566173553,0.008347381837666035,0.14286109805107117,0.0,0.0,-0.9,0.0,0.0016026496887207031,0.0016026496887207031,0.012646913528442383,0,0
5.89902925491333,-0.11167702823877335,0.01971094310283661,-0.7418685555458069,-0.11491844136320188,0.5161619186401367,0.01816939003765583,0.010354121215641499,0.14309164881706238,0.0,0.0,-0.9,0.0,0.0016884803771972656,0.0016884803771972656,0.012537956237792969,0,0
5.914179563522339,-0.11167702823877335,0.01971094310283661,-0.7418685555458069,-0.11491844136320188,0.5162721872329712,0.022905971854925156,0.01179217267781496,0.14324583113193512,0.0,0.0,-0.9,0.0,0.001667022705078125,0.001667022705078125,0.012696027755737305,0,0
5.9301841259002686,-0.11186037212610245,0.020197657868266106,-0.7403692603111267,-0.11501942876279314,0.5164207816123962,0.023046912625432014,0.009753841906785965,0.14337778091430664,0.0,0.0,-0.9,0.0,0.0015108585357666016,0.0015108585357666016,0.013535261154174805,0,0
5.945743560791016,-0.11186037212610245,0.020197657868266106,-0.7403692603111267,-0.11501942876279314,0.516539990901947,0.0231478214263916,0.008292806334793568,0.1434698849916458,0.0,0.0,-0.9,0.0,0.0014824867248535156,0.0014824867248535156,0.012370586395263672,0,0
5.96218466758728,-0.11207114905118942,0.020546969026327133,-0.7388201951980591,-0.11496692517820829,0.5165885090827942,0.026314089074730873,0.009207583963871002,0.14351871609687805,0.0,0.0,-0.9,0.0,0.0017414093017578125,0.0017414093017578125,0.012531518936157227,0,0
5.977655410766602,-0.11227262020111084,0.020751040428876877,-0.7377845644950867,-0.11495910471278098,0.516701340675354,0.028691057115793228,0.011735049076378345,0.14356370270252228,0.0,0.0,-0.9,0.0,0.0016775131225585938,0.0016775131225585938,0.012593984603881836,0,0
5.992530107498169,-0.11227262020111084,0.020751040428876877,-0.7377845644950867,-0.11495910471278098,0.5167919397354126,0.030395423993468285,0.013547305017709732,0.14359158277511597,0.0,0.0,-0.9,0.0,0.0016493797302246094,0.0016493797302246094,0.012555360794067383,0,0
6.008054256439209,-0.11260367184877396,0.0208993311971426,-0.7361785173416138,-0.11460459144952417,0.5168760418891907,0.03239232674241066,0.008652065880596638,0.14344407618045807,0.0,0.0,-0.9,0.0,0.00176239013671875,0.00176239013671875,0.012685775756835938,0,0
6.023051500320435,-0.11260367184877396,0.0208993311971426,-0.7361785173416138,-0.11460459144952417,0.5169438123703003,0.03382478281855583,0.005141200497746468,0.143345445394516,0.0,0.0,-0.9,0.0,0.001695394515991211,0.001695394515991211,0.012351751327514648,0,0
6.0385353565216064,-0.11293496936559677,0.020778857171535492,-0.7345612645149231,-0.11447845479840896,0.5171008110046387,0.03906003385782242,-6.203947123140097e-06,0.14322012662887573,0.0,0.0,-0.9,0.0,0.0016727447509765625,0.0016727447509765625,0.01273202896118164,0,0
6.0532450675964355,-0.11293496936559677,0.020778857171535492,-0.7345612645149231,-0.11447845479840896,0.5172273516654968,0.042812373489141464,-0.0036953117232769728,0.14314788579940796,0.0,0.0,-0.9,0.0,0.0018162727355957031,0.0018162727355957031,0.012501239776611328,0,0
6.069716930389404,-0.11329986155033112,0.020578812807798386,-0.7329682111740112,-0.11406242414671398,0.5174163579940796,0.04799714684486389,-0.004970948211848736,0.14295704662799835,0.0,0.0,-0.9,0.0,0.0015976428985595703,0.0015976428985595703,0.012227773666381836,0,0
6.083930730819702,-0.11329986155033112,0.020578812807798386,-0.7329682111740112,-0.11406242414671398,0.5175682306289673,0.05171198770403862,-0.005884628742933273,0.14282815158367157,0.0,0.0,-0.9,0.0,0.0015988349914550781,0.0015988349914550781,0.012857675552368164,0,0
6.099955320358276,-0.11370749771595001,0.02023615501821041,-0.7312224507331848,-0.11363604150182155,0.5176399946212769,0.05332041531801224,-0.009325383231043816,0.14259739220142365,0.0,0.0,-0.9,0.0,0.001665353775024414,0.001665353775024414,0.012433528900146484,0,0
6.114738464355469,-0.11370749771595001,0.02023615501821041,-0.7312224507331848,-0.11363604150182155,0.5176977515220642,0.0544743612408638,-0.01179328840225935,0.14243926107883453,0.0,0.0,-0.9,0.0,0.0017383098602294922,0.0017383098602294922,0.015918254852294922,0,0
6.1355366706848145,-0.11416012793779373,0.019773142412304878,-0.7297104001045227,-0.11313193787504669,0.5177774429321289,0.05097418650984764,-0.011589914560317993,0.14211271703243256,0.0,0.0,-0.9,0.0,0.0015878677368164062,0.0015878677368164062,0.013836383819580078,0,0
6.15393853187561,-0.11446090787649155,0.019400563091039658,-0.7286152243614197,-0.1128241920774711,0.5178183913230896,0.047213248908519745,-0.008034760132431984,0.14173968136310577,0.0,0.0,-0.9,0.0,0.002254009246826172,0.002254009246826172,0.015632152557373047,0,0
6.172427177429199,-0.11446090787649155,0.019400563091039658,-0.7286152243614197,-0.1128241920774711,0.5178515911102295,0.044514406472444534,-0.005484819412231445,0.14148560166358948,0.0,0.0,-0.9,0.0,0.0018153190612792969,0.0018153190612792969,0.014755725860595703,0,0
6.191359758377075,-0.11503061652183533,0.01861284114420414,-0.7266324758529663,-0.11226514953711274,0.5178553462028503,0.043259039521217346,-0.006326488684862852,0.14112326502799988,0.0,0.0,-0.9,0.0,0.002328634262084961,0.002328634262084961,0.016162872314453125,0,0
6.2093987464904785,-0.11503061652183533,0.01861284114420414,-0.7266324758529663,-0.11226514953711274,0.5178583860397339,0.042358145117759705,-0.006930799223482609,0.14086906611919403,0.0,0.0,-0.9,0.0,0.0019326210021972656,0.0019326210021972656,0.01502847671508789,0,0
6.228859901428223,-0.1155853122472763,0.017718344926834106,-0.7247923016548157,-0.1118365621270596,0.517856240272522,0.041108693927526474,-0.006210285238921642,0.14052145183086395,0.0,0.0,-0.9,0.0,0.0024547576904296875,0.0024547576904296875,0.01498556137084961,0,0
6.245843887329102,-0.1155853122472763,0.017718344926834106,-0.7247923016548157,-0.1118365621270596,0.5178545713424683,0.04021178185939789,-0.0056933569721877575,0.14027850329875946,0.0,0.0,-0.9,0.0,0.0017688274383544922,0.0017688274383544922,0.014892339706420898,0,0
6.266404151916504,-0.11607541888952255,0.016963345929980278,-0.7229993939399719,-0.11120871899649282,0.5178551077842712,0.03308837115764618,-0.0009378951508551836,0.13981705904006958,0.0,0.0,-0.9,0.0,0.0025048255920410156,0.0025048255920410156,0.015377283096313477,0,0
6.283337831497192,-0.11607541888952255,0.016963345929980278,-0.7229993939399719,-0.11120871899649282,0.5178564786911011,0.02797485701739788,0.002473712433129549,0.1395135372877121,0.0,0.0,-0.9,0.0,0.0018990039825439453,0.0018990039825439453,0.014359712600708008,0,0
6.3027238845825195,-0.11676990985870361,0.015955962240695953,-0.7213786840438843,-0.11058989501164114,0.5177982449531555,0.031678102910518646,0.0013785207411274314,0.13909626007080078,0.0,0.0,-0.9,0.0,0.0019676685333251953,0.0019676685333251953,0.014166831970214844,0,0
6.319026947021484,-0.11676990985870361,0.015955962240695953,-0.7213786840438843,-0.11058989501164114,0.5177517533302307,0.034337811172008514,0.0005925258155912161,0.138807013630867,0.0,0.0,-0.9,0.0,0.0025949478149414062,0.0025949478149414062,0.015634775161743164,0,0
6.338444709777832,-0.11744251847267151,0.014891562983393669,-0.7198280096054077,-0.10974165059840627,0.5177077651023865,0.028600886464118958,-0.0034514088183641434,0.13832953572273254,0.0,0.0,-0.9,0.0,0.0018727779388427734,0.0018727779388427734,0.01630854606628418,0,0
6.356882810592651,-0.11744251847267151,0.014891562983393669,-0.7198280096054077,-0.10974165059840627,0.5176730751991272,0.024482248350977898,-0.00635614525526762,0.1379823386669159,0.0,0.0,-0.9,0.0,0.0017681121826171875,0.0017681121826171875,0.014416217803955078,0,0
6.3763511180877686,-0.11795544624328613,0.014139020815491676,-0.7187572121620178,-0.10899001993388069,0.5175521969795227,0.01888902485370636,-0.004008694086223841,0.13740435242652893,0.0,0.0,-0.9,0.0,0.0018253326416015625,0.0018253326416015625,0.01372218132019043,0,0
6.394495725631714,-0.11831255257129669,0.013727390207350254,-0.718061089515686,-0.10839107589709775,0.5174933671951294,0.011575727723538876,-0.0001540785888209939,0.1367553323507309,0.0,0.0,-0.9,0.0,0.0019125938415527344,0.0019125938415527344,0.013583660125732422,0,0
6.410064697265625,-0.11831255257129669,0.013727390207350254,-0.718061089515686,-0.10839107589709775,0.5174470543861389,0.006322626490145922,0.0026122601702809334,0.13631761074066162,0.0,0.0,-0.9,0.0,0.0018167495727539062,0.0018167495727539062,0.01283717155456543,0,0
6.427398204803467,-0.11882255226373672,0.013094300404191017,-0.7170562148094177,-0.10733713170451985,0.5174007415771484,-0.0007681261049583554,-0.0006072642281651497,0.13565780222415924,0.0,0.0,-0.9,0.0,0.0014026165008544922,0.0014026165008544922,0.012574434280395508,0,0
6.443715333938599,-0.11911243200302124,0.01272558607161045,-0.7163915634155273,-0.10677842260772868,0.5174294114112854,-0.0047833845019340515,-0.0028436623979359865,0.1349758505821228,0.0,0.0,-0.9,0.0,0.0014758110046386719,0.0014758110046386719,0.01301431655883789,0,0
6.461041688919067,-0.1194038987159729,0.012381993234157562,-0.7157672047615051,-0.10614224806967142,0.517471194267273,-0.006038885563611984,-0.00134563900064677,0.13424663245677948,0.0,0.0,-0.9,0.0,0.0014374256134033203,0.0014374256134033203,0.012904644012451172,0,0
6.475669860839844,-0.1194038987159729,0.012381993234157562,-0.7157672047615051,-0.10614224806967142,0.5175047516822815,-0.006940104998648167,-0.00027116434648633003,0.13373710215091705,0.0,0.0,-0.9,0.0,0.002867460250854492,0.002867460250854492,0.015380382537841797,0,0
6.494774341583252,-0.11979639530181885,0.011906848289072514,-0.7143992185592651,-0.10470313371285382,0.5174859762191772,-0.01228942908346653,0.00032917276257649064,0.13283942639827728,0.0,0.0,-0.9,0.0,0.0015876293182373047,0.0015876293182373047,0.01233220100402832,0,0
6.508748769760132,-0.11979639530181885,0.011906848289072514,-0.7143992185592651,-0.10470313371285382,0.5174713134765625,-0.016129905357956886,0.0007583586266264319,0.13221348822116852,0.0,0.0,-0.9,0.0,0.0016541481018066406,0.0016541481018066406,0.012291908264160156,0,0
6.524756193161011,-0.11996378004550934,0.011676413007080555,-0.7137569785118103,-0.10406699757982979,0.5174662470817566,-0.02146317809820175,0.002051296178251505,0.13153916597366333,0.0,0.0,-0.9,0.0,0.0017719268798828125,0.0017719268798828125,0.013792276382446289,0,0
6.540483236312866,-0.11996378004550934,0.011676413007080555,-0.7137569785118103,-0.10406699757982979,0.5174625515937805,-0.025291768833994865,0.002978084608912468,0.1310717910528183,0.0,0.0,-0.9,0.0,0.0014495849609375,0.0014495849609375,0.011995553970336914,0,0
6.555829286575317,-0.12019684910774231,0.011356901377439499,-0.7128071188926697,-0.10294484773517797,0.5174136757850647,-0.024234093725681305,0.005173226818442345,0.1303296983242035,0.0,0.0,-0.9,0.0,0.0016779899597167969,0.0016779899597167969,0.014993429183959961,0,0
6.573672771453857,-0.12019684910774231,0.011356901377439499,-0.7128071188926697,-0.10294484773517797,0.517374575138092,-0.02347518317401409,0.006749937776476145,0.12980875372886658,0.0,0.0,-0.9,0.0,0.00164794921875,0.00164794921875,0.014993667602539062,0,0
6.593073129653931,-0.12053187191486359,0.011269052512943745,-0.7118887901306152,-0.10161526082930418,0.5172523260116577,-0.02827269956469536,0.010704242624342442,0.12897264957427979,0.0,0.0,-0.9,0.0,0.001634836196899414,0.001634836196899414,0.014764547348022461,0,0
6.609405994415283,-0.12053187191486359,0.011269052512943745,-0.7118887901306152,-0.10161526082930418,0.5171547532081604,-0.03172154724597931,0.013544609770178795,0.12839911878108978,0.0,0.0,-0.9,0.0,0.0018742084503173828,0.0018742084503173828,0.013955116271972656,0,0
6.627570390701294,-0.12082363665103912,0.011222715489566326,-0.7111843228340149,-0.10011304286762769,0.517076313495636,-0.02767053060233593,0.010410080663859844,0.1273709386587143,0.0,0.0,-0.9,0.0,0.0016658306121826172,0.0016658306121826172,0.014272689819335938,0,0
6.644092321395874,-0.12082363665103912,0.011222715489566326,-0.7111843228340149,-0.10011304286762769,0.5170137882232666,-0.024759303778409958,0.008160300552845001,0.12665827572345734,0.0,0.0,-0.9,0.0,0.0018391609191894531,0.0018391609191894531,0.01349782943725586,0,0
6.662412166595459,-0.12113767117261887,0.01115114800632,-0.7107651829719543,-0.09880127869673926,0.5168641805648804,-0.026595642790198326,0.008414930664002895,0.12569154798984528,0.0,0.0,-0.9,0.0,0.002223491668701172,0.002223491668701172,0.016266822814941406,0,0
6.680224418640137,-0.12113767117261887,0.01115114800632,-0.7107651829719543,-0.09880127869673926,0.5167443156242371,-0.027915731072425842,0.008597391657531261,0.1250152885913849,0.0,0.0,-0.9,0.0,0.002624034881591797,0.002624034881591797,0.014418601989746094,0,0
6.69891881942749,-0.12156625837087631,0.01111321710050106,-0.7102937698364258,-0.09690800130826727,0.5166588425636292,-0.024145787581801414,0.008176295086741447,0.1238192468881607,0.0,0.0,-0.9,0.0,0.0022644996643066406,0.0022644996643066406,0.016809701919555664,0,0
6.717571496963501,-0.12156625837087631,0.01111321710050106,-0.7102937698364258,-0.09690800130826727,0.5165904760360718,-0.02143726870417595,0.00787567812949419,0.12298301607370377,0.0,0.0,-0.9,0.0,0.0022153854370117188,0.0022153854370117188,0.014609575271606445,0,0
6.736310720443726,-0.1218661367893219,0.011235077865421772,-0.7097011208534241,-0.09493006756072105,0.5165514349937439,-0.019576014950871468,0.0067585851065814495,0.1216564029455185,0.0,0.0,-0.9,0.0,0.0016436576843261719,0.0016436576843261719,0.015169620513916016,0,0
6.753257751464844,-0.1218661367893219,0.011235077865421772,-0.7097011208534241,-0.09493006756072105,0.5165202021598816,-0.018238887190818787,0.005957513581961393,0.12072890996932983,0.0,0.0,-0.9,0.0,0.0017354488372802734,0.0017354488372802734,0.014321565628051758,0,0
6.771592855453491,-0.12196908891201019,0.011461109854280949,-0.7094224095344543,-0.09386871882258029,0.5163729190826416,-0.018901603296399117,0.00681568356230855,0.11969736963510513,0.0,0.0,-0.9,0.0,0.0018589496612548828,0.0018589496612548828,0.013459205627441406,0,0
6.787744045257568,-0.12196908891201019,0.011461109854280949,-0.7094224095344543,-0.09386871882258029,0.5162547826766968,-0.019378304481506348,0.0074324109591543674,0.11897570639848709,0.0,0.0,-0.9,0.0,0.0029153823852539062,0.0029153823852539062,0.015903234481811523,0,0
6.8066301345825195,-0.12206414341926575,0.011754550039768219,-0.7091667056083679,-0.09283406482959511,0.5161651968955994,-0.0193262230604887,0.010953238233923912,0.11811116337776184,0.0,0.0,-0.9,0.0,0.0019488334655761719,0.0019488334655761719,0.013625144958496094,0,0
6.824746131896973,-0.12211128324270248,0.012042229063808918,-0.7089741826057434,-0.09204840829428439,0.516112208366394,-0.022849293425679207,0.012739107012748718,0.11722321063280106,0.0,0.0,-0.9,0.0,0.001811981201171875,0.001811981201171875,0.016409635543823242,0,0
6.846022129058838,-0.12206891179084778,0.012424311600625515,-0.708828330039978,-0.0913557615087234,0.5160235166549683,-0.025576449930667877,0.011083961464464664,0.11632318794727325,0.0,0.0,-0.9,0.0,0.0019025802612304688,0.0019025802612304688,0.013302087783813477,0,0
6.863563299179077,-0.12200509756803513,0.012830671854317188,-0.7086809277534485,-0.09043625678482296,0.5160074234008789,-0.025007424876093864,0.008822943083941936,0.11532364040613174,0.0,0.0,-0.9,0.0,0.0018157958984375,0.0018157958984375,0.01488804817199707,0,0
