time,x,y,z,yaw,throttle,roll_rate,pitch_rate,yaw_rate,x_ref,y_ref,z_ref,yaw_ref,pred_time,nr_time,ctrl_callback_time,v_norm,metadata
4.291534423828125e-06,-0.1025572195649147,0.039099663496017456,-0.23955723643302917,-0.011033676084161186,0.4973461627960205,-0.022473488003015518,-0.057274624705314636,0.004228532779961824,0.0,0.0,-0.9,0.0,2.6962478160858154,2.6962478160858154,2.9401016235351562,0,Hardware
2.9424078464508057,-0.1025572195649147,0.039099663496017456,-0.23955723643302917,-0.011033676084161186,0.5105773210525513,-0.035999611020088196,-0.09151125699281693,0.006498802453279495,0.0,0.0,-0.9,0.0,0.0015780925750732422,0.0015780925750732422,0.012071371078491211,0,jax_reg_wardi
2.9820308685302734,-0.1001681238412857,0.04003070294857025,-0.23757633566856384,-0.011193342175961825,0.5212750434875488,-0.046901363879442215,-0.1071719080209732,0.00793761108070612,0.0,0.0,-0.9,0.0,0.001931905746459961,0.001931905746459961,0.013930082321166992,0,1x Speed
2.9976749420166016,-0.1001681238412857,0.04003070294857025,-0.23757633566856384,-0.011193342175961825,0.5297863483428955,-0.053936298936605453,-0.11726023256778717,0.008876178413629532,0.0,0.0,-0.9,0.0,0.0015785694122314453,0.0015785694122314453,0.01257777214050293,0,helix
3.013632297515869,-0.10008539259433746,0.0401337631046772,-0.2376224845647812,-0.011208494719466193,0.5364576578140259,-0.05929333716630936,-0.12418705970048904,0.009478099644184113,0.0,0.0,-0.9,0.0,0.0017218589782714844,0.0017218589782714844,0.013227701187133789,0,0
3.029303550720215,-0.10008539259433746,0.0401337631046772,-0.2376224845647812,-0.011208494719466193,0.5417582988739014,-0.06289906799793243,-0.12884610891342163,0.009886717423796654,0.0,0.0,-0.9,0.0,0.0014810562133789062,0.0014810562133789062,0.012872457504272461,0,0
3.0454299449920654,-0.09996971487998962,0.04023178666830063,-0.23766617476940155,-0.011102705630825013,0.5460084080696106,-0.06488489359617233,-0.13168857991695404,0.010155043564736843,0.0,0.0,-0.9,0.0,0.0016641616821289062,0.0016641616821289062,0.012929439544677734,0,0
3.060518264770508,-0.09996971487998962,0.04023178666830063,-0.23766617476940155,-0.011102705630825013,0.5493830442428589,-0.06625283509492874,-0.1336459517478943,0.01034111250191927,0.0,0.0,-0.9,0.0,0.0017750263214111328,0.0017750263214111328,0.012658119201660156,0,0
3.0764830112457275,-0.0998522937297821,0.04030599072575569,-0.23767739534378052,-0.011165407020193615,0.5520379543304443,-0.0676179975271225,-0.1339339315891266,0.01050002034753561,0.0,0.0,-0.9,0.0,0.001744985580444336,0.001744985580444336,0.012532472610473633,0,0
3.0921647548675537,-0.09972453862428665,0.040396686643362045,-0.23767517507076263,-0.011189278411476893,0.5541398525238037,-0.06862189620733261,-0.13416646420955658,0.01061633974313736,0.0,0.0,-0.9,0.0,0.0015261173248291016,0.0015261173248291016,0.013184309005737305,0,0
3.10740065574646,-0.09972453862428665,0.040396686643362045,-0.23767517507076263,-0.011189278411476893,0.5558081865310669,-0.06932682543992996,-0.13432970643043518,0.010697511956095695,0.0,0.0,-0.9,0.0,0.0016286373138427734,0.0016286373138427734,0.013145923614501953,0,0
3.1239070892333984,-0.09959360212087631,0.04050200432538986,-0.23773986101150513,-0.011169681694977143,0.5570629835128784,-0.07018823176622391,-0.1339719444513321,0.010740559548139572,0.0,0.0,-0.9,0.0,0.0016257762908935547,0.0016257762908935547,0.01302647590637207,0,0
3.1395726203918457,-0.09959360212087631,0.04050200432538986,-0.23773986101150513,-0.011169681694977143,0.5580588579177856,-0.07079757750034332,-0.13371886312961578,0.010770644061267376,0.0,0.0,-0.9,0.0,0.0017261505126953125,0.0017261505126953125,0.012842178344726562,0,0
3.1557488441467285,-0.09950147569179535,0.04062458500266075,-0.23790478706359863,-0.010966065868299197,0.5588212609291077,-0.07142462581396103,-0.13371561467647552,0.010700792074203491,0.0,0.0,-0.9,0.0,0.0017125606536865234,0.0017125606536865234,0.013212442398071289,0,0
3.171394109725952,-0.09950147569179535,0.04062458500266075,-0.23790478706359863,-0.010966065868299197,0.5594263672828674,-0.07187008857727051,-0.13371331989765167,0.010651592165231705,0.0,0.0,-0.9,0.0,0.0017457008361816406,0.0017457008361816406,0.012660026550292969,0,0
3.1872942447662354,-0.09922892600297928,0.04070478305220604,-0.23815466463565826,-0.011110912855279806,0.5598747134208679,-0.07192959636449814,-0.1295599788427353,0.010779974050819874,0.0,0.0,-0.9,0.0,0.0014271736145019531,0.0014271736145019531,0.012392997741699219,0,0
3.2030577659606934,-0.0989236906170845,0.04072670266032219,-0.23835434019565582,-0.010866553504731914,0.560165286064148,-0.07345210015773773,-0.12349940836429596,0.010778645984828472,0.0,0.0,-0.9,0.0,0.0015418529510498047,0.0015418529510498047,0.012789487838745117,0,0
3.219538450241089,-0.09859737753868103,0.04074327275156975,-0.2386002391576767,-0.010671240081475002,0.5602584481239319,-0.0692751556634903,-0.11479762941598892,0.011039786040782928,0.0,0.0,-0.9,0.0,0.0016167163848876953,0.0016167163848876953,0.012459993362426758,0,0
3.2342276573181152,-0.09859737753868103,0.04074327275156975,-0.2386002391576767,-0.010671240081475002,0.5603337287902832,-0.06628970801830292,-0.1085820272564888,0.011205869726836681,0.0,0.0,-0.9,0.0,0.0016314983367919922,0.0016314983367919922,0.013049125671386719,0,0
3.2505528926849365,-0.09796931594610214,0.04055795073509216,-0.23931950330734253,-0.009203786398124834,0.5600957870483398,-0.06177230551838875,-0.10073878616094589,0.010937212035059929,0.0,0.0,-0.9,0.0,0.001636505126953125,0.001636505126953125,0.012847185134887695,0,0
3.267019748687744,-0.09742431342601776,0.04030352085828781,-0.2401919662952423,-0.007663563268392102,0.5596126317977905,-0.056120865046978,-0.08603741228580475,0.010410293005406857,0.0,0.0,-0.9,0.0,0.0016775131225585938,0.0016775131225585938,0.013233661651611328,0,0
3.281885862350464,-0.09742431342601776,0.04030352085828781,-0.2401919662952423,-0.007663563268392102,0.5592324137687683,-0.052065160125494,-0.07548101991415024,0.00999833457171917,0.0,0.0,-0.9,0.0,0.001718282699584961,0.001718282699584961,0.013749837875366211,0,0
3.299344301223755,-0.0966067686676979,0.03975134715437889,-0.24241521954536438,-0.005339107770670132,0.5583124756813049,-0.039572376757860184,-0.05234900861978531,0.009347332641482353,0.0,0.0,-0.9,0.0,0.0016734600067138672,0.0016734600067138672,0.012559652328491211,0,0
3.3134632110595703,-0.0966067686676979,0.03975134715437889,-0.24241521954536438,-0.005339107770670132,0.5575911998748779,-0.030571067705750465,-0.03567339852452278,0.008729659020900726,0.0,0.0,-0.9,0.0,0.001583099365234375,0.001583099365234375,0.012273550033569336,0,0
3.329481601715088,-0.09577030688524246,0.03895123302936554,-0.24574144184589386,-0.002873787049484059,0.5563085079193115,-0.013769479468464851,-0.012975115329027176,0.007643390912562609,0.0,0.0,-0.9,0.0,0.001615762710571289,0.001615762710571289,0.012352228164672852,0,0
3.3438308238983154,-0.09577030688524246,0.03895123302936554,-0.24574144184589386,-0.002873787049484059,0.5552997589111328,-0.0016249215696007013,0.0034503014758229256,0.006662912666797638,0.0,0.0,-0.9,0.0,0.0015285015106201172,0.0015285015106201172,0.011632680892944336,0,0
3.3585526943206787,-0.09517031162977219,0.03797423467040062,-0.25021567940711975,-0.000501364590647031,0.5538843870162964,0.013553410768508911,0.023170579224824905,0.005119116976857185,0.0,0.0,-0.9,0.0,0.00142669677734375,0.00142669677734375,0.011735677719116211,0,0
3.3720505237579346,-0.09517031162977219,0.03797423467040062,-0.25021567940711975,-0.000501364590647031,0.5527669787406921,0.024537572637200356,0.03746815025806427,0.0038598142564296722,0.0,0.0,-0.9,0.0,0.0018532276153564453,0.0018532276153564453,0.01267862319946289,0,0
3.3880889415740967,-0.09471797198057175,0.03673172369599342,-0.25590571761131287,0.0017226660432814022,0.5510284900665283,0.03893927484750748,0.06173175573348999,0.002156711183488369,0.0,0.0,-0.9,0.0,0.001470327377319336,0.001470327377319336,0.011607646942138672,0,0
3.401110887527466,-0.09471797198057175,0.03673172369599342,-0.25590571761131287,0.0017226660432814022,0.5496553778648376,0.04938898980617523,0.07938160002231598,0.0007488536648452282,0.0,0.0,-0.9,0.0,0.0014684200286865234,0.0014684200286865234,0.011915922164916992,0,0
3.4164156913757324,-0.09425364434719086,0.03517504408955574,-0.2626921236515045,0.003984498438864279,0.5478096008300781,0.07052753120660782,0.10986125469207764,-0.0013253785436972976,0.0,0.0,-0.9,0.0,0.0018804073333740234,0.0018804073333740234,0.012969493865966797,0,0
3.4320807456970215,-0.09425364434719086,0.03517504408955574,-0.2626921236515045,0.003984498438864279,0.5463579297065735,0.08588271588087082,0.13207772374153137,-0.003186889225617051,0.0,0.0,-0.9,0.0,0.0016155242919921875,0.0016155242919921875,0.012772560119628906,0,0
3.448091745376587,-0.09356743097305298,0.033483993262052536,-0.2703249752521515,0.006020255485017381,0.5447942018508911,0.10361765325069427,0.1528414487838745,-0.005655498709529638,0.0,0.0,-0.9,0.0,0.0014574527740478516,0.0014574527740478516,0.012286663055419922,0,0
3.462562322616577,-0.09356743097305298,0.033483993262052536,-0.2703249752521515,0.006020255485017381,0.5435579419136047,0.11647641658782959,0.1679515689611435,-0.007634736597537994,0.0,0.0,-0.9,0.0,0.0013968944549560547,0.0013968944549560547,0.011804819107055664,0,0
3.478243827819824,-0.09259088337421417,0.03162837401032448,-0.2792860269546509,0.0082430831594341,0.5420366525650024,0.11945295333862305,0.18450398743152618,-0.009798732586205006,0.0,0.0,-0.9,0.0,0.0015170574188232422,0.0015170574188232422,0.012176990509033203,0,0
3.492924690246582,-0.09259088337421417,0.03162837401032448,-0.2792860269546509,0.0082430831594341,0.5408271551132202,0.12160099297761917,0.19653180241584778,-0.011355273425579071,0.0,0.0,-0.9,0.0,0.0015633106231689453,0.0015633106231689453,0.011479854583740234,0,0
3.507459878921509,-0.0917166918516159,0.030042124912142754,-0.2857777774333954,0.00960409457064114,0.5396364331245422,0.13277983665466309,0.21413826942443848,-0.01386705506592989,0.0,0.0,-0.9,0.0,0.0016164779663085938,0.0016164779663085938,0.011612892150878906,0,0
3.521261692047119,-0.0917166918516159,0.030042124912142754,-0.2857777774333954,0.00960409457064114,0.5386922359466553,0.14085838198661804,0.226911723613739,-0.015773210674524307,0.0,0.0,-0.9,0.0,0.001512765884399414,0.001512765884399414,0.012246131896972656,0,0
3.5373690128326416,-0.09054280817508698,0.02785833179950714,-0.2940497398376465,0.011123882865393692,0.5375187993049622,0.1490708589553833,0.24070332944393158,-0.01819409802556038,0.0,0.0,-0.9,0.0,0.001531362533569336,0.001531362533569336,0.011824607849121094,0,0
3.552690267562866,-0.08955103904008865,0.026134805753827095,-0.3004491925239563,0.01202613551620007,0.5362354516983032,0.15694139897823334,0.253638356924057,-0.02069695293903351,0.0,0.0,-0.9,0.0,0.001413106918334961,0.001413106918334961,0.011710405349731445,0,0
3.5661449432373047,-0.08955103904008865,0.026134805753827095,-0.3004491925239563,0.01202613551620007,0.5352137684822083,0.16263702511787415,0.26303237676620483,-0.022538702934980392,0.0,0.0,-0.9,0.0,0.0016660690307617188,0.0016660690307617188,0.01165914535522461,0,0
3.5808026790618896,-0.08805987983942032,0.023533357307314873,-0.30970844626426697,0.013435651428333542,0.5338686108589172,0.1660456359386444,0.27079203724861145,-0.02454329840838909,0.0,0.0,-0.9,0.0,0.0015761852264404297,0.0015761852264404297,0.012819051742553711,0,0
3.595738172531128,-0.08805987983942032,0.023533357307314873,-0.30970844626426697,0.013435651428333542,0.5327947735786438,0.16851532459259033,0.2764278054237366,-0.025978369638323784,0.0,0.0,-0.9,0.0,0.001644134521484375,0.001644134521484375,0.012606143951416016,0,0
3.6115639209747314,-0.08579510450363159,0.01988382451236248,-0.3228147327899933,0.015304981735953894,0.5314112305641174,0.16564348340034485,0.2822047472000122,-0.027693230658769608,0.0,0.0,-0.9,0.0,0.0014564990997314453,0.0014564990997314453,0.012266159057617188,0,0
3.6260385513305664,-0.08579510450363159,0.01988382451236248,-0.3228147327899933,0.015304981735953894,0.5303056240081787,0.1635570377111435,0.2863968014717102,-0.02888181060552597,0.0,0.0,-0.9,0.0,0.0014705657958984375,0.0014705657958984375,0.01273345947265625,0,0
3.64241361618042,-0.08399579674005508,0.01718498021364212,-0.33284276723861694,0.016384762350318497,0.5289673209190369,0.15776212513446808,0.2898179590702057,-0.03013530559837818,0.0,0.0,-0.9,0.0,0.0015482902526855469,0.0015482902526855469,0.01262521743774414,0,0
3.657231569290161,-0.08399579674005508,0.01718498021364212,-0.33284276723861694,0.016384762350318497,0.527897298336029,0.15355585515499115,0.29229736328125,-0.03098869137465954,0.0,0.0,-0.9,0.0,0.0014743804931640625,0.0014743804931640625,0.01278829574584961,0,0
3.6731555461883545,-0.08176378160715103,0.014089303091168404,-0.3441446125507355,0.017013499925916543,0.5266364812850952,0.14634011685848236,0.2971997857093811,-0.031925737857818604,0.0,0.0,-0.9,0.0,0.0015997886657714844,0.0015997886657714844,0.012601852416992188,0,0
3.6872904300689697,-0.08176378160715103,0.014089303091168404,-0.3441446125507355,0.017013499925916543,0.5256282687187195,0.14110447466373444,0.3007533550262451,-0.03254583850502968,0.0,0.0,-0.9,0.0,0.0014023780822753906,0.0014023780822753906,0.012315988540649414,0,0
3.7033298015594482,-0.07961610704660416,0.011172836646437645,-0.35461264848709106,0.017729477217712043,0.5245205760002136,0.1334792971611023,0.29793089628219604,-0.03301370143890381,0.0,0.0,-0.9,0.0,0.0015709400177001953,0.0015709400177001953,0.012454986572265625,0,0
3.717287302017212,-0.07961610704660416,0.011172836646437645,-0.35461264848709106,0.017729477217712043,0.5236344933509827,0.12795431911945343,0.2958831787109375,-0.033331312239170074,0.0,0.0,-0.9,0.0,0.0014667510986328125,0.0014667510986328125,0.012816429138183594,0,0
3.7340903282165527,-0.07742779701948166,0.008283027447760105,-0.3651168644428253,0.018775764491105573,0.5227934718132019,0.11994240432977676,0.28991660475730896,-0.03377103805541992,0.0,0.0,-0.9,0.0,0.0019102096557617188,0.0019102096557617188,0.01312398910522461,0,0
3.749253034591675,-0.07742779701948166,0.008283027447760105,-0.3651168644428253,0.018775764491105573,0.5221210718154907,0.11415068060159683,0.28560104966163635,-0.03408296778798103,0.0,0.0,-0.9,0.0,0.0014886856079101562,0.0014886856079101562,0.012229204177856445,0,0
3.7648565769195557,-0.07432377338409424,0.0042827376164495945,-0.3794330656528473,0.02077599755472585,0.5213863849639893,0.10357107222080231,0.2728535234928131,-0.03453143313527107,0.0,0.0,-0.9,0.0,0.001500844955444336,0.001500844955444336,0.011851072311401367,0,0
3.7788004875183105,-0.07432377338409424,0.0042827376164495945,-0.3794330656528473,0.02077599755472585,0.520801305770874,0.09592962265014648,0.26364564895629883,-0.03489191085100174,0.0,0.0,-0.9,0.0,0.0014996528625488281,0.0014996528625488281,0.012672901153564453,0,0
3.7947704792022705,-0.07181376218795776,0.001091953250579536,-0.39069893956184387,0.022436056406094747,0.5200899243354797,0.08364490419626236,0.2501763105392456,-0.03512382134795189,0.0,0.0,-0.9,0.0,0.0015316009521484375,0.0015316009521484375,0.012212753295898438,0,0
3.809006690979004,-0.07181376218795776,0.001091953250579536,-0.39069893956184387,0.022436056406094747,0.5195240378379822,0.07477089762687683,0.24044901132583618,-0.035349346697330475,0.0,0.0,-0.9,0.0,0.0016889572143554688,0.0016889572143554688,0.012456417083740234,0,0
3.8246796131134033,-0.06930244714021683,-0.0020755636505782604,-0.4018439054489136,0.023893063797089744,0.5188095569610596,0.0634305402636528,0.22711065411567688,-0.03559241071343422,0.0,0.0,-0.9,0.0,0.001575469970703125,0.001575469970703125,0.012071609497070312,0,0
3.8389227390289307,-0.06930244714021683,-0.0020755636505782604,-0.4018439054489136,0.023893063797089744,0.5182406306266785,0.05523759499192238,0.2174755334854126,-0.03582140430808067,0.0,0.0,-0.9,0.0,0.001649618148803711,0.001649618148803711,0.012916088104248047,0,0
3.855600118637085,-0.06687402725219727,-0.005108476150780916,-0.41295021772384644,0.02542410490473549,0.5176076889038086,0.04352879896759987,0.1975715309381485,-0.0357542484998703,0.0,0.0,-0.9,0.0,0.001703500747680664,0.001703500747680664,0.012182950973510742,0,0
3.8694419860839844,-0.06687402725219727,-0.005108476150780916,-0.41295021772384644,0.02542410490473549,0.5171068906784058,0.03507294878363609,0.18320629000663757,-0.035812243819236755,0.0,0.0,-0.9,0.0,0.001651763916015625,0.001651763916015625,0.012286663055419922,0,0
3.8848462104797363,-0.06456764787435532,-0.007896935567259789,-0.4239944517612457,0.027257974133378955,0.516570508480072,0.024478789418935776,0.15609271824359894,-0.035789716988801956,0.0,0.0,-0.9,0.0,0.0017426013946533203,0.0017426013946533203,0.011792421340942383,0,0
3.898782253265381,-0.06456764787435532,-0.007896935567259789,-0.4239944517612457,0.027257974133378955,0.5161510705947876,0.016835415735840797,0.13654005527496338,-0.03591011092066765,0.0,0.0,-0.9,0.0,0.0016753673553466797,0.0016753673553466797,0.012292623519897461,0,0
3.914311408996582,-0.06246422976255417,-0.010583415627479553,-0.4349598288536072,0.02930800833621872,0.5157306790351868,0.005034126341342926,0.10196503251791,-0.03583259880542755,0.0,0.0,-0.9,0.0,0.0014684200286865234,0.0014684200286865234,0.011373519897460938,0,0
3.927213191986084,-0.06246422976255417,-0.010583415627479553,-0.4349598288536072,0.02930800833621872,0.5154103636741638,-0.0034701202530413866,0.07705619931221008,-0.03598256781697273,0.0,0.0,-0.9,0.0,0.0019063949584960938,0.0019063949584960938,0.012931585311889648,0,0
3.9444315433502197,-0.06068854033946991,-0.013002565130591393,-0.4457973539829254,0.03134351145979105,0.5149206519126892,-0.018223538994789124,0.04916965961456299,-0.036384809762239456,0.0,0.0,-0.9,0.0,0.0016498565673828125,0.0016498565673828125,0.011431217193603516,0,0
3.957253932952881,-0.06068854033946991,-0.013002565130591393,-0.4457973539829254,0.03134351145979105,0.5145402550697327,-0.028858071193099022,0.02905561588704586,-0.03688342124223709,0.0,0.0,-0.9,0.0,0.0015039443969726562,0.0015039443969726562,0.012339115142822266,0,0
3.97291898727417,-0.05961441248655319,-0.014491635374724865,-0.4529450535774231,0.032725274161007255,0.5141260623931885,-0.04186275973916054,0.010403694584965706,-0.037673983722925186,0.0,0.0,-0.9,0.0,0.00148773193359375,0.00148773193359375,0.012167692184448242,0,0
3.988800525665283,-0.058650001883506775,-0.015941619873046875,-0.46000611782073975,0.034216058597903526,0.5137273073196411,-0.055882181972265244,-0.006795656401664019,-0.03878406435251236,0.0,0.0,-0.9,0.0,0.001569986343383789,0.001569986343383789,0.01284027099609375,0,0
4.003750324249268,-0.058650001883506775,-0.015941619873046875,-0.46000611782073975,0.034216058597903526,0.5134134292602539,-0.06597772240638733,-0.019200073555111885,-0.03969552740454674,0.0,0.0,-0.9,0.0,0.0016508102416992188,0.0016508102416992188,0.012269258499145508,0,0
4.019523859024048,-0.057413700968027115,-0.018188050016760826,-0.47118696570396423,0.03623897222432076,0.5130513310432434,-0.07331528514623642,-0.040098030120134354,-0.040960296988487244,0.0,0.0,-0.9,0.0,0.002203226089477539,0.002203226089477539,0.013149023056030273,0,0
4.0349204540252686,-0.057413700968027115,-0.018188050016760826,-0.47118696570396423,0.03623897222432076,0.5127668380737305,-0.0785895362496376,-0.05516120418906212,-0.04192764684557915,0.0,0.0,-0.9,0.0,0.0015909671783447266,0.0015909671783447266,0.012652873992919922,0,0
4.051306962966919,-0.0566774345934391,-0.02016165852546692,-0.48200973868370056,0.038352701665854846,0.5125592947006226,-0.07684150338172913,-0.07936643809080124,-0.043236203491687775,0.0,0.0,-0.9,0.0,0.001577615737915039,0.001577615737915039,0.012147665023803711,0,0
4.0650475025177,-0.0566774345934391,-0.02016165852546692,-0.48200973868370056,0.038352701665854846,0.5124000906944275,-0.07556971162557602,-0.09678023308515549,-0.044112566858530045,0.0,0.0,-0.9,0.0,0.0016334056854248047,0.0016334056854248047,0.012774229049682617,0,0
4.080893278121948,-0.05660126358270645,-0.021669277921319008,-0.49066367745399475,0.03997780703456966,0.5124503970146179,-0.07890457659959793,-0.12320820242166519,-0.04534657299518585,0.0,0.0,-0.9,0.0,0.0015201568603515625,0.0015201568603515625,0.01272130012512207,0,0
4.095687389373779,-0.05660126358270645,-0.021669277921319008,-0.49066367745399475,0.03997780703456966,0.5124997496604919,-0.08128200471401215,-0.14218078553676605,-0.04625009372830391,0.0,0.0,-0.9,0.0,0.001687765121459961,0.001687765121459961,0.012309551239013672,0,0
4.1112284660339355,-0.056994255632162094,-0.022947458550333977,-0.4988470673561096,0.04150120097072031,0.5125279426574707,-0.08170714229345322,-0.16076309978961945,-0.047422587871551514,0.0,0.0,-0.9,0.0,0.0015141963958740234,0.0015141963958740234,0.012002229690551758,0,0
4.126984357833862,-0.05738191679120064,-0.0237727053463459,-0.5046020150184631,0.04257308170444984,0.5127262473106384,-0.0810757428407669,-0.1777496635913849,-0.04862714931368828,0.0,0.0,-0.9,0.0,0.00174713134765625,0.00174713134765625,0.012763500213623047,0,0
4.141940593719482,-0.05738191679120064,-0.0237727053463459,-0.5046020150184631,0.04257308170444984,0.5128890872001648,-0.08061530441045761,-0.18992389738559723,-0.04945514351129532,0.0,0.0,-0.9,0.0,0.0014472007751464844,0.0014472007751464844,0.011914730072021484,0,0
4.157647609710693,-0.05826276168227196,-0.02486978843808174,-0.5121132731437683,0.0442671003599929,0.5129621028900146,-0.07804934680461884,-0.19367988407611847,-0.050668131560087204,0.0,0.0,-0.9,0.0,0.0016133785247802734,0.0016133785247802734,0.012353181838989258,0,0
4.171815633773804,-0.05826276168227196,-0.02486978843808174,-0.5121132731437683,0.0442671003599929,0.513020932674408,-0.07620782405138016,-0.19637297093868256,-0.05150725692510605,0.0,0.0,-0.9,0.0,0.001646280288696289,0.001646280288696289,0.01289820671081543,0,0
4.187622308731079,-0.05932692810893059,-0.02569144032895565,-0.5193358063697815,0.0459815600025649,0.5130223631858826,-0.08437883853912354,-0.19479721784591675,-0.05350261554121971,0.0,0.0,-0.9,0.0,0.0015408992767333984,0.0015408992767333984,0.012684106826782227,0,0
4.20409369468689,-0.0601896271109581,-0.026132352650165558,-0.5243515968322754,0.04707266793494517,0.5131502747535706,-0.09018547087907791,-0.19360317289829254,-0.05538109689950943,0.0,0.0,-0.9,0.0,0.0015528202056884766,0.0015528202056884766,0.012334585189819336,0,0
4.217933893203735,-0.0601896271109581,-0.026132352650165558,-0.5243515968322754,0.04707266793494517,0.513253390789032,-0.0943513885140419,-0.19275055825710297,-0.05669928342103958,0.0,0.0,-0.9,0.0,0.0016741752624511719,0.0016741752624511719,0.012004375457763672,0,0
4.233784437179565,-0.061552975326776505,-0.026543689891695976,-0.5309150218963623,0.04875134393554447,0.5134311318397522,-0.09497711807489395,-0.1892412155866623,-0.05824211612343788,0.0,0.0,-0.9,0.0,0.0016164779663085938,0.0016164779663085938,0.013040304183959961,0,0
4.248838424682617,-0.061552975326776505,-0.026543689891695976,-0.5309150218963623,0.04875134393554447,0.513573944568634,-0.0954287052154541,-0.18672603368759155,-0.05932188779115677,0.0,0.0,-0.9,0.0,0.001462697982788086,0.001462697982788086,0.011515378952026367,0,0
4.263523817062378,-0.06331924349069595,-0.026962967589497566,-0.5377984642982483,0.050194028242037045,0.513678789138794,-0.09194327145814896,-0.1813390552997589,-0.060505397617816925,0.0,0.0,-0.9,0.0,0.0016379356384277344,0.0016379356384277344,0.01203155517578125,0,0
4.276986122131348,-0.06331924349069595,-0.026962967589497566,-0.5377984642982483,0.050194028242037045,0.5137633681297302,-0.08944672346115112,-0.1774742156267166,-0.06134142726659775,0.0,0.0,-0.9,0.0,0.0014812946319580078,0.0014812946319580078,0.012080192565917969,0,0
4.2928125858306885,-0.0652700886130333,-0.027263810858130455,-0.5443509221076965,0.05163195680796232,0.5139092803001404,-0.08275434374809265,-0.17208637297153473,-0.062311697751283646,0.0,0.0,-0.9,0.0,0.0016052722930908203,0.0016052722930908203,0.012647151947021484,0,0
4.307008266448975,-0.0652700886130333,-0.027263810858130455,-0.5443509221076965,0.05163195680796232,0.5140272974967957,-0.07795926928520203,-0.16822198033332825,-0.0630059465765953,0.0,0.0,-0.9,0.0,0.0015361309051513672,0.0015361309051513672,0.012069463729858398,0,0
4.322310447692871,-0.06745526939630508,-0.02741243503987789,-0.5505596995353699,0.053033144833081046,0.5143926739692688,-0.06980712711811066,-0.16735835373401642,-0.0639115422964096,0.0,0.0,-0.9,0.0,0.001500844955444336,0.001500844955444336,0.012455940246582031,0,0
4.339053153991699,-0.06825372576713562,-0.02745860442519188,-0.552467405796051,0.05352072697359772,0.514756977558136,-0.06257020682096481,-0.16583313047885895,-0.0646897554397583,0.0,0.0,-0.9,0.0,0.0017197132110595703,0.0017197132110595703,0.012172698974609375,0,0
4.354450702667236,-0.07077498733997345,-0.027608823031187057,-0.5579907894134521,0.05500714174650615,0.5151236653327942,-0.049858927726745605,-0.15937228500843048,-0.06550135463476181,0.0,0.0,-0.9,0.0,0.0014481544494628906,0.0014481544494628906,0.0114288330078125,0,0
4.368078231811523,-0.07077498733997345,-0.027608823031187057,-0.5579907894134521,0.05500714174650615,0.5154203176498413,-0.040768977254629135,-0.15474802255630493,-0.06610949337482452,0.0,0.0,-0.9,0.0,0.0016179084777832031,0.0016179084777832031,0.012593984603881836,0,0
4.383795499801636,-0.07348999381065369,-0.027736952528357506,-0.5631911754608154,0.05650700615275697,0.515776515007019,-0.027898594737052917,-0.1429210752248764,-0.06691128760576248,0.0,0.0,-0.9,0.0,0.001430511474609375,0.001430511474609375,0.011159181594848633,0,0
4.396957635879517,-0.07348999381065369,-0.027736952528357506,-0.5631911754608154,0.05650700615275697,0.5160660147666931,-0.01869502104818821,-0.13445895910263062,-0.06755513697862625,0.0,0.0,-0.9,0.0,0.0019478797912597656,0.0019478797912597656,0.012978792190551758,0,0
4.411572456359863,-0.07348999381065369,-0.027736952528357506,-0.5631911754608154,0.05650700615275697,0.5163000822067261,-0.012109042145311832,-0.1284003108739853,-0.06804674118757248,0.0,0.0,-0.9,0.0,0.0015215873718261719,0.0015215873718261719,0.01223301887512207,0,0
4.427465915679932,-0.07626853138208389,-0.027830274775624275,-0.5680370926856995,0.057986377103736414,0.5165734887123108,-0.003660532645881176,-0.11254733800888062,-0.06893453001976013,0.0,0.0,-0.9,0.0,0.0015149116516113281,0.0015149116516113281,0.0125732421875,0,0
4.443837881088257,-0.07815825194120407,-0.027902912348508835,-0.5710967183113098,0.058931847281959784,0.5168013572692871,0.005973478313535452,-0.09542212635278702,-0.06990689039230347,0.0,0.0,-0.9,0.0,0.0016255378723144531,0.0016255378723144531,0.013173341751098633,0,0
4.460737943649292,-0.0800848975777626,-0.028002843260765076,-0.574036180973053,0.05979293369757714,0.5169901847839355,0.01532631553709507,-0.07945307344198227,-0.07096754014492035,0.0,0.0,-0.9,0.0,0.0016627311706542969,0.0016627311706542969,0.012229442596435547,0,0
4.474557161331177,-0.0800848975777626,-0.028002843260765076,-0.574036180973053,0.05979293369757714,0.5171459317207336,0.02202099747955799,-0.06800888478755951,-0.07179540395736694,0.0,0.0,-0.9,0.0,0.0013835430145263672,0.0013835430145263672,0.012111425399780273,0,0
4.490628480911255,-0.082918182015419,-0.028186844661831856,-0.5782630443572998,0.060864315183263934,0.5173352956771851,0.030355017632246017,-0.054457973688840866,-0.07280606776475906,0.0,0.0,-0.9,0.0,0.0015797615051269531,0.0015797615051269531,0.012342691421508789,0,0
4.505410671234131,-0.082918182015419,-0.028186844661831856,-0.5782630443572998,0.060864315183263934,0.5174902677536011,0.03632071614265442,-0.04474613070487976,-0.0735795721411705,0.0,0.0,-0.9,0.0,0.0014836788177490234,0.0014836788177490234,0.011737585067749023,0,0
4.520454406738281,-0.08559265732765198,-0.028422731906175613,-0.5824543833732605,0.061891953114588956,0.5176565647125244,0.04367579147219658,-0.031774427741765976,-0.07457473874092102,0.0,0.0,-0.9,0.0,0.0016944408416748047,0.0016944408416748047,0.012015342712402344,0,0
4.535474538803101,-0.08559265732765198,-0.028422731906175613,-0.5824543833732605,0.061891953114588956,0.5177926421165466,0.04894140362739563,-0.02247561700642109,-0.075328528881073,0.0,0.0,-0.9,0.0,0.0013647079467773438,0.0013647079467773438,0.011206626892089844,0,0
4.550546884536743,-0.08728962391614914,-0.028587233275175095,-0.5852207541465759,0.0625251397855062,0.5178782343864441,0.0545610673725605,-0.012005900032818317,-0.07617101818323135,0.0,0.0,-0.9,0.0,0.0016360282897949219,0.0016360282897949219,0.012380599975585938,0,0
4.566056489944458,-0.0896592065691948,-0.02886222116649151,-0.5892893075942993,0.06368827298418869,0.517896831035614,0.05931902304291725,0.0028453620616346598,-0.07737160474061966,0.0,0.0,-0.9,0.0,0.0014078617095947266,0.0014078617095947266,0.012572526931762695,0,0
4.58066725730896,-0.0896592065691948,-0.02886222116649151,-0.5892893075942993,0.06368827298418869,0.5179148316383362,0.06272619962692261,0.013505739159882069,-0.07825642079114914,0.0,0.0,-0.9,0.0,0.0016007423400878906,0.0016007423400878906,0.012305498123168945,0,0
4.5961713790893555,-0.0912945345044136,-0.029168760403990746,-0.5922861695289612,0.06446900157753963,0.5177490711212158,0.05897613242268562,0.026629235595464706,-0.07927771657705307,0.0,0.0,-0.9,0.0,0.001744985580444336,0.001744985580444336,0.01297140121459961,0,0
4.6124584674835205,-0.09197482466697693,-0.02930154651403427,-0.5936204791069031,0.06478990084349262,0.5176048278808594,0.05747918784618378,0.03933596983551979,-0.08015837520360947,0.0,0.0,-0.9,0.0,0.0016329288482666016,0.0016329288482666016,0.01252603530883789,0,0
4.628606557846069,-0.09338939189910889,-0.02962815947830677,-0.5965546369552612,0.06556690756327103,0.5176580548286438,0.05593259632587433,0.05272435396909714,-0.08113356679677963,0.0,0.0,-0.9,0.0,0.0017843246459960938,0.0017843246459960938,0.012807607650756836,0,0
4.64366888999939,-0.09338939189910889,-0.02962815947830677,-0.5965546369552612,0.06556690756327103,0.5177030563354492,0.0548180416226387,0.06232840567827225,-0.08180440962314606,0.0,0.0,-0.9,0.0,0.0016760826110839844,0.0016760826110839844,0.01275944709777832,0,0
4.660038709640503,-0.09545578062534332,-0.030219879001379013,-0.6013017296791077,0.06656279256320059,0.5177651643753052,0.06290541589260101,0.08374535292387009,-0.0830514058470726,0.0,0.0,-0.9,0.0,0.0016918182373046875,0.0016918182373046875,0.012709856033325195,0,0
4.674391269683838,-0.09545578062534332,-0.030219879001379013,-0.6013017296791077,0.06656279256320059,0.5178216099739075,0.068695068359375,0.09911639243364334,-0.084030382335186,0.0,0.0,-0.9,0.0,0.00159454345703125,0.00159454345703125,0.012785673141479492,0,0
4.690746545791626,-0.09674199670553207,-0.03067474253475666,-0.6046398282051086,0.06723288729475013,0.51788729429245,0.07289570569992065,0.11837364733219147,-0.0852685421705246,0.0,0.0,-0.9,0.0,0.0015940666198730469,0.0015940666198730469,0.012233495712280273,0,0
4.704586744308472,-0.09674199670553207,-0.03067474253475666,-0.6046398282051086,0.06723288729475013,0.5179449319839478,0.07589878141880035,0.13219231367111206,-0.08618684113025665,0.0,0.0,-0.9,0.0,0.0016815662384033203,0.0016815662384033203,0.01263570785522461,0,0
4.7203528881073,-0.09798596799373627,-0.03126458078622818,-0.608178436756134,0.06781077260424875,0.5180135369300842,0.07588007301092148,0.14486317336559296,-0.08715510368347168,0.0,0.0,-0.9,0.0,0.0015404224395751953,0.0015404224395751953,0.012612104415893555,0,0
4.735658168792725,-0.09798596799373627,-0.03126458078622818,-0.608178436756134,0.06781077260424875,0.5180705785751343,0.0758621022105217,0.1539526730775833,-0.08783494681119919,0.0,0.0,-0.9,0.0,0.0015039443969726562,0.0015039443969726562,0.012054681777954102,0,0
4.751007080078125,-0.0990634560585022,-0.03191746026277542,-0.6113542318344116,0.06846644902715496,0.5181930661201477,0.0687079206109047,0.15505900979042053,-0.08807670325040817,0.0,0.0,-0.9,0.0,0.001928091049194336,0.001928091049194336,0.01316690444946289,0,0
4.765769004821777,-0.0990634560585022,-0.03191746026277542,-0.6113542318344116,0.06846644902715496,0.5182918906211853,0.0635797381401062,0.15585115551948547,-0.08823554217815399,0.0,0.0,-0.9,0.0,0.0016598701477050781,0.0016598701477050781,0.012421131134033203,0,0
4.781857252120972,-0.09997718781232834,-0.03259017691016197,-0.6143273115158081,0.06906424593796864,0.5185503959655762,0.06591419875621796,0.15624061226844788,-0.08897995948791504,0.0,0.0,-0.9,0.0,0.0014719963073730469,0.0014719963073730469,0.012343168258666992,0,0
4.797466039657593,-0.10051731765270233,-0.03312813490629196,-0.6163319945335388,0.06956205456184976,0.5187907218933105,0.06592229008674622,0.15610161423683167,-0.08965091407299042,0.0,0.0,-0.9,0.0,0.0016167163848876953,0.0016167163848876953,0.012463569641113281,0,0
4.8120810985565186,-0.10051731765270233,-0.03312813490629196,-0.6163319945335388,0.06956205456184976,0.5189833045005798,0.06592850387096405,0.15600194036960602,-0.09012054651975632,0.0,0.0,-0.9,0.0,0.001641988754272461,0.001641988754272461,0.012501716613769531,0,0
4.8277997970581055,-0.101073257625103,-0.03390461206436157,-0.6191832423210144,0.07006325211313406,0.5191112160682678,0.06358906626701355,0.1531299650669098,-0.09053191542625427,0.0,0.0,-0.9,0.0,0.001676797866821289,0.001676797866821289,0.012445926666259766,0,0
4.843043804168701,-0.101073257625103,-0.03390461206436157,-0.6191832423210144,0.07006325211313406,0.5192139148712158,0.06191291660070419,0.1510709673166275,-0.0908203050494194,0.0,0.0,-0.9,0.0,0.0014407634735107422,0.0014407634735107422,0.012360095977783203,0,0
4.858689308166504,-0.10142116993665695,-0.0347730852663517,-0.6218763589859009,0.07040462674270896,0.5193948149681091,0.061202261596918106,0.14278356730937958,-0.09103356301784515,0.0,0.0,-0.9,0.0,0.0016825199127197266,0.0016825199127197266,0.012964248657226562,0,0
4.873093128204346,-0.10142116993665695,-0.0347730852663517,-0.6218763589859009,0.07040462674270896,0.5195406675338745,0.06069400906562805,0.13684679567813873,-0.09118053317070007,0.0,0.0,-0.9,0.0,0.0015001296997070312,0.0015001296997070312,0.012653589248657227,0,0
4.889469623565674,-0.10154777765274048,-0.03561319038271904,-0.6244023442268372,0.07070764424829339,0.5197644829750061,0.06157099828124046,0.1252434104681015,-0.09126456826925278,0.0,0.0,-0.9,0.0,0.0016443729400634766,0.0016443729400634766,0.012860536575317383,0,0
4.9038426876068115,-0.10154777765274048,-0.03561319038271904,-0.6244023442268372,0.07070764424829339,0.519945502281189,0.06219961866736412,0.11693494766950607,-0.09130965918302536,0.0,0.0,-0.9,0.0,0.0014939308166503906,0.0014939308166503906,0.012442588806152344,0,0
4.919664144515991,-0.10157851129770279,-0.036466822028160095,-0.6267366409301758,0.0709731289050393,0.5202184319496155,0.059786051511764526,0.10553663223981857,-0.09118654578924179,0.0,0.0,-0.9,0.0,0.0015783309936523438,0.0015783309936523438,0.01238703727722168,0,0
4.934748411178589,-0.10157851129770279,-0.036466822028160095,-0.6267366409301758,0.0709731289050393,0.5204387903213501,0.05805795639753342,0.09737960249185562,-0.09110710024833679,0.0,0.0,-0.9,0.0,0.0016582012176513672,0.0016582012176513672,0.012500524520874023,0,0
4.950684309005737,-0.10149967670440674,-0.037241656333208084,-0.628838837146759,0.0714189192223085,0.5205515027046204,0.05299222096800804,0.08942058682441711,-0.09104682505130768,0.0,0.0,-0.9,0.0,0.0016765594482421875,0.0016765594482421875,0.012107372283935547,0,0
4.966043710708618,-0.10138242691755295,-0.0377601683139801,-0.6301206946372986,0.0715228270504409,0.5206218957901001,0.051533184945583344,0.08169224113225937,-0.09108848869800568,0.0,0.0,-0.9,0.0,0.0016734600067138672,0.0016734600067138672,0.012709856033325195,0,0
4.980796813964844,-0.10138242691755295,-0.0377601683139801,-0.6301206946372986,0.0715228270504409,0.5206790566444397,0.050487056374549866,0.07615038752555847,-0.0911184623837471,0.0,0.0,-0.9,0.0,0.0015742778778076172,0.0015742778778076172,0.012667417526245117,0,0
4.996704578399658,-0.10097739100456238,-0.038589127361774445,-0.631918728351593,0.07190227021633087,0.5210663080215454,0.04809986799955368,0.05952777341008186,-0.09087800234556198,0.0,0.0,-0.9,0.0,0.0015742778778076172,0.0015742778778076172,0.012415647506713867,0,0
5.011658430099487,-0.10097739100456238,-0.038589127361774445,-0.631918728351593,0.07190227021633087,0.5213799476623535,0.04639165475964546,0.04764560982584953,-0.09071913361549377,0.0,0.0,-0.9,0.0,0.0017075538635253906,0.0017075538635253906,0.012223482131958008,0,0
5.027171850204468,-0.10071098059415817,-0.039068661630153656,-0.6330304145812988,0.07196744586492912,0.5214917063713074,0.03756193071603775,0.03593780845403671,-0.09041748195886612,0.0,0.0,-0.9,0.0,0.0015597343444824219,0.0015597343444824219,0.012639760971069336,0,0
5.04272198677063,-0.10071098059415817,-0.039068661630153656,-0.6330304145812988,0.07196744586492912,0.5215839743614197,0.031231511384248734,0.027548065409064293,-0.09025845676660538,0.0,0.0,-0.9,0.0,0.001651763916015625,0.001651763916015625,0.012755393981933594,0,0
5.058565616607666,-0.10031528770923615,-0.0399586446583271,-0.6348556876182556,0.07177229335038013,0.52171391248703,0.03331630676984787,0.01838953047990799,-0.0900978147983551,0.0,0.0,-0.9,0.0,0.0015270709991455078,0.0015270709991455078,0.012093067169189453,0,0
5.072838068008423,-0.10031528770923615,-0.0399586446583271,-0.6348556876182556,0.07177229335038013,0.5218191146850586,0.034809909760951996,0.01182570680975914,-0.08996855467557907,0.0,0.0,-0.9,0.0,0.001692056655883789,0.001692056655883789,0.013049602508544922,0,0
5.089075565338135,-0.10005941241979599,-0.04061347618699074,-0.6359455585479736,0.0716168949034978,0.5220102667808533,0.03455771133303642,0.0037989518605172634,-0.08971858024597168,0.0,0.0,-0.9,0.0,0.001529693603515625,0.001529693603515625,0.011948823928833008,0,0
5.1031904220581055,-0.10005941241979599,-0.04061347618699074,-0.6359455585479736,0.0716168949034978,0.5221641063690186,0.03437632694840431,-0.0019500326598063111,-0.08953985571861267,0.0,0.0,-0.9,0.0,0.0017511844635009766,0.0017511844635009766,0.012830734252929688,0,0
5.119186162948608,-0.09978124499320984,-0.04125063121318817,-0.6367517709732056,0.0715257849562971,0.522375762462616,0.03179677575826645,-0.008066220209002495,-0.08931843936443329,0.0,0.0,-0.9,0.0,0.0015978813171386719,0.0015978813171386719,0.012450933456420898,0,0
5.134321451187134,-0.09978124499320984,-0.04125063121318817,-0.6367517709732056,0.0715257849562971,0.5225457549095154,0.02994912676513195,-0.012445551343262196,-0.08916948735713959,0.0,0.0,-0.9,0.0,0.0016088485717773438,0.0016088485717773438,0.012577533721923828,0,0
5.150008678436279,-0.09950470924377441,-0.04179508611559868,-0.6373457908630371,0.07155412387585937,0.5227972865104675,0.023583661764860153,-0.01889837719500065,-0.08899906277656555,0.0,0.0,-0.9,0.0,0.00164031982421875,0.00164031982421875,0.012220621109008789,0,0
5.164524078369141,-0.09950470924377441,-0.04179508611559868,-0.6373457908630371,0.07155412387585937,0.52299964427948,0.01902708224952221,-0.0235165823251009,-0.08890173584222794,0.0,0.0,-0.9,0.0,0.0015857219696044922,0.0015857219696044922,0.012532234191894531,0,0
5.1802661418914795,-0.09930882602930069,-0.0422772541642189,-0.6377436518669128,0.07123414404684578,0.5232422351837158,0.013796219602227211,-0.032715849578380585,-0.08860006928443909,0.0,0.0,-0.9,0.0,0.001650094985961914,0.001650094985961914,0.012411832809448242,0,0
5.196587562561035,-0.09917356073856354,-0.04267404228448868,-0.6378917694091797,0.07091384538563471,0.5233821272850037,0.011298312805593014,-0.03907308354973793,-0.0882917121052742,0.0,0.0,-0.9,0.0,0.0022020339965820312,0.0022020339965820312,0.012954235076904297,0,0
5.2128071784973145,-0.09913483262062073,-0.042964909225702286,-0.6380907297134399,0.0704951241571045,0.5235727429389954,0.013112864457070827,-0.04151717200875282,-0.08792314678430557,0.0,0.0,-0.9,0.0,0.0016796588897705078,0.0016796588897705078,0.012535333633422852,0,0
5.2274744510650635,-0.09913483262062073,-0.042964909225702286,-0.6380907297134399,0.0704951241571045,0.5237253904342651,0.014412075281143188,-0.04326781630516052,-0.08766117691993713,0.0,0.0,-0.9,0.0,0.0016827583312988281,0.0016827583312988281,0.012513160705566406,0,0
5.243818998336792,-0.0990835428237915,-0.04325159266591072,-0.6382732391357422,0.06983944488030436,0.5238822102546692,0.013585307635366917,-0.04517814517021179,-0.08722629398107529,0.0,0.0,-0.9,0.0,0.0015063285827636719,0.0015063285827636719,0.012939453125,0,0
5.260409355163574,-0.09913146495819092,-0.04337594285607338,-0.6382727026939392,0.06944363574866852,0.5240110754966736,0.009045599028468132,-0.04663783684372902,-0.08681435883045197,0.0,0.0,-0.9,0.0,0.0016570091247558594,0.0016570091247558594,0.011931419372558594,0,0
5.274097919464111,-0.09913146495819092,-0.04337594285607338,-0.6382727026939392,0.06944363574866852,0.5241145491600037,0.005792486481368542,-0.04768304154276848,-0.08653087168931961,0.0,0.0,-0.9,0.0,0.001739501953125,0.001739501953125,0.012323617935180664,0,0
5.289550542831421,-0.09928826987743378,-0.043560486286878586,-0.6380332708358765,0.06887781246913809,0.52448570728302,0.0009686086559668183,-0.053357478231191635,-0.08603037893772125,0.0,0.0,-0.9,0.0,0.0017497539520263672,0.0017497539520263672,0.012411832809448242,0,0
5.304131269454956,-0.09928826987743378,-0.043560486286878586,-0.6380332708358765,0.06887781246913809,0.5247833728790283,-0.0024808133020997047,-0.05741322785615921,-0.0856955423951149,0.0,0.0,-0.9,0.0,0.0015413761138916016,0.0015413761138916016,0.012101888656616211,0,0
5.3194897174835205,-0.09947597980499268,-0.04368025064468384,-0.6377412676811218,0.06838637833142053,0.5250995755195618,-0.005885177757591009,-0.06319567561149597,-0.08522924035787582,0.0,0.0,-0.9,0.0,0.0016274452209472656,0.0016274452209472656,0.01238870620727539,0,0
5.33460545539856,-0.09947597980499268,-0.04368025064468384,-0.6377412676811218,0.06838637833142053,0.5253531336784363,-0.008320930413901806,-0.06733103841543198,-0.0849134549498558,0.0,0.0,-0.9,0.0,0.001455545425415039,0.001455545425415039,0.012093782424926758,0,0
5.349966526031494,-0.0998811274766922,-0.043817661702632904,-0.6372162699699402,0.06760685724435622,0.5255486965179443,-0.012045925483107567,-0.0682462826371193,-0.08448944985866547,0.0,0.0,-0.9,0.0,0.0015821456909179688,0.0015821456909179688,0.012531757354736328,0,0
5.364656686782837,-0.0998811274766922,-0.043817661702632904,-0.6372162699699402,0.06760685724435622,0.5257053375244141,-0.014713170938193798,-0.06890105456113815,-0.08419602364301682,0.0,0.0,-0.9,0.0,0.0014955997467041016,0.0014955997467041016,0.012388467788696289,0,0
5.380737781524658,-0.10035683214664459,-0.043872129172086716,-0.6365662217140198,0.06673368474248381,0.5258141756057739,-0.01945675164461136,-0.06302110850811005,-0.08382848650217056,0.0,0.0,-0.9,0.0,0.0015685558319091797,0.0015685558319091797,0.0125274658203125,0,0
5.394907712936401,-0.10035683214664459,-0.043872129172086716,-0.6365662217140198,0.06673368474248381,0.5259019136428833,-0.022855134680867195,-0.05880687013268471,-0.08355716615915298,0.0,0.0,-0.9,0.0,0.0014414787292480469,0.0014414787292480469,0.012810468673706055,0,0
5.411546468734741,-0.10092666745185852,-0.043852996081113815,-0.6358737945556641,0.0658595206722373,0.5260278582572937,-0.025243131443858147,-0.0513165220618248,-0.08309188485145569,0.0,0.0,-0.9,0.0,0.001871347427368164,0.001871347427368164,0.013203144073486328,0,0
5.426324844360352,-0.10092666745185852,-0.043852996081113815,-0.6358737945556641,0.0658595206722373,0.526129424571991,-0.026952581480145454,-0.0459495410323143,-0.08275645226240158,0.0,0.0,-0.9,0.0,0.0014312267303466797,0.0014312267303466797,0.012477397918701172,0,0
5.442525386810303,-0.10149780660867691,-0.04371851310133934,-0.6351451277732849,0.06501193751923784,0.526327908039093,-0.027829105034470558,-0.044674452394247055,-0.08216537535190582,0.0,0.0,-0.9,0.0,0.0014946460723876953,0.0014946460723876953,0.012627124786376953,0,0
5.457304000854492,-0.10149780660867691,-0.04371851310133934,-0.6351451277732849,0.06501193751923784,0.5264866948127747,-0.02845628932118416,-0.04376138001680374,-0.08175133913755417,0.0,0.0,-0.9,0.0,0.0013988018035888672,0.0013988018035888672,0.012187004089355469,0,0
5.472742557525635,-0.10195343941450119,-0.043349266052246094,-0.6343958973884583,0.06412857168454705,0.5266551971435547,-0.02891584299504757,-0.04064216464757919,-0.08116310834884644,0.0,0.0,-0.9,0.0,0.0014998912811279297,0.0014998912811279297,0.012422561645507812,0,0
5.487233638763428,-0.10195343941450119,-0.043349266052246094,-0.6343958973884583,0.06412857168454705,0.5267900824546814,-0.02924414537847042,-0.038408275693655014,-0.08075081557035446,0.0,0.0,-0.9,0.0,0.001638174057006836,0.001638174057006836,0.011942625045776367,0,0
5.502551078796387,-0.10235146433115005,-0.04283890873193741,-0.6334163546562195,0.06321362348760574,0.5267817378044128,-0.036560818552970886,-0.025836525484919548,-0.0803299993276596,0.0,0.0,-0.9,0.0,0.0022978782653808594,0.0022978782653808594,0.01345515251159668,0,0
5.517604112625122,-0.10235146433115005,-0.04283890873193741,-0.6334163546562195,0.06321362348760574,0.5267778038978577,-0.04180716723203659,-0.016816655173897743,-0.07998038083314896,0.0,0.0,-0.9,0.0,0.0016422271728515625,0.0016422271728515625,0.012571573257446289,0,0
5.5354204177856445,-0.10287296026945114,-0.042383965104818344,-0.6322455406188965,0.06222966294354955,0.5269806385040283,-0.038019899278879166,-0.012209601700305939,-0.07928164303302765,0.0,0.0,-0.9,0.0,0.001819610595703125,0.001819610595703125,0.012838125228881836,0,0
5.549728631973267,-0.10287296026945114,-0.042383965104818344,-0.6322455406188965,0.06222966294354955,0.5271432995796204,-0.03530726581811905,-0.008912652730941772,-0.07880251854658127,0.0,0.0,-0.9,0.0,0.0016238689422607422,0.0016238689422607422,0.012555122375488281,0,0
5.566067218780518,-0.10331028699874878,-0.041840724647045135,-0.6312555074691772,0.061131060278842304,0.5272035002708435,-0.03301543369889259,0.0005876538925804198,-0.07808760553598404,0.0,0.0,-0.9,0.0,0.0017189979553222656,0.0017189979553222656,0.012469291687011719,0,0
5.580061197280884,-0.10331028699874878,-0.041840724647045135,-0.6312555074691772,0.061131060278842304,0.5272529125213623,-0.03136973828077316,0.007397166918963194,-0.07759864628314972,0.0,0.0,-0.9,0.0,0.0014948844909667969,0.0014948844909667969,0.012774467468261719,0,0
5.596594333648682,-0.1037355437874794,-0.041248220950365067,-0.6304327249526978,0.05988668109340908,0.5273199677467346,-0.03238621726632118,0.011062747798860073,-0.07677493989467621,0.0,0.0,-0.9,0.0,0.0016231536865234375,0.0016231536865234375,0.012349605560302734,0,0
5.610592603683472,-0.1037355437874794,-0.041248220950365067,-0.6304327249526978,0.05988668109340908,0.5273737907409668,-0.033113691955804825,0.013690553605556488,-0.0761958584189415,0.0,0.0,-0.9,0.0,0.0016717910766601562,0.0016717910766601562,0.011990070343017578,0,0
5.625879764556885,-0.10417977720499039,-0.04054277017712593,-0.6295858025550842,0.0587863472883441,0.5274398326873779,-0.03424759954214096,0.012638350017368793,-0.07536240667104721,0.0,0.0,-0.9,0.0,0.0015683174133300781,0.0015683174133300781,0.012589216232299805,0,0
5.641083002090454,-0.10417977720499039,-0.04054277017712593,-0.6295858025550842,0.0587863472883441,0.5274926424026489,-0.035060781985521317,0.011884376406669617,-0.07477962225675583,0.0,0.0,-0.9,0.0,0.0015935897827148438,0.0015935897827148438,0.012642860412597656,0,0
5.6569602489471436,-0.1047324389219284,-0.03959900140762329,-0.6283816695213318,0.05761096559255447,0.527565598487854,-0.027373576536774635,0.015439312905073166,-0.07396302372217178,0.0,0.0,-0.9,0.0,0.0016021728515625,0.0016021728515625,0.012470006942749023,0,0
5.671623229980469,-0.1047324389219284,-0.03959900140762329,-0.6283816695213318,0.05761096559255447,0.5276248455047607,-0.021862778812646866,0.017984645441174507,-0.07340877503156662,0.0,0.0,-0.9,0.0,0.0017676353454589844,0.0017676353454589844,0.012935400009155273,0,0
5.687743425369263,-0.10502192378044128,-0.0389244370162487,-0.6274338364601135,0.05652374442617219,0.527756929397583,-0.01827840693295002,0.01987764984369278,-0.0726141482591629,0.0,0.0,-0.9,0.0,0.001567840576171875,0.001567840576171875,0.012194633483886719,0,0
5.702099800109863,-0.10502192378044128,-0.0389244370162487,-0.6274338364601135,0.05652374442617219,0.5278627276420593,-0.015710249543190002,0.02123253047466278,-0.07206250727176666,0.0,0.0,-0.9,0.0,0.0015995502471923828,0.0015995502471923828,0.012758970260620117,0,0
5.718017816543579,-0.10526536405086517,-0.03817936033010483,-0.626278281211853,0.05549424166451708,0.5279504656791687,-0.014289398677647114,0.028987953439354897,-0.07131636142730713,0.0,0.0,-0.9,0.0,0.0016112327575683594,0.0016112327575683594,0.011722564697265625,0,0
5.73194694519043,-0.10526536405086517,-0.03817936033010483,-0.626278281211853,0.05549424166451708,0.5280213952064514,-0.01326896995306015,0.03454539179801941,-0.07080017030239105,0.0,0.0,-0.9,0.0,0.0016021728515625,0.0016021728515625,0.012623071670532227,0,0
5.748154163360596,-0.1053171381354332,-0.037481121718883514,-0.6251029968261719,0.054146372528953164,0.5281539559364319,-0.016206800937652588,0.03249590843915939,-0.06985146552324295,0.0,0.0,-0.9,0.0,0.0016379356384277344,0.0016379356384277344,0.012070894241333008,0,0
5.761858224868774,-0.1053171381354332,-0.037481121718883514,-0.6251029968261719,0.054146372528953164,0.5282601118087769,-0.0183121170848608,0.031028836965560913,-0.0691903606057167,0.0,0.0,-0.9,0.0,0.0014455318450927734,0.0014455318450927734,0.011899709701538086,0,0
5.777107000350952,-0.10538093000650406,-0.036759696900844574,-0.6237375736236572,0.052784060854326235,0.5283113718032837,-0.018276695162057877,0.035033296793699265,-0.0682373121380806,0.0,0.0,-0.9,0.0,0.0015866756439208984,0.0015866756439208984,0.012606143951416016,0,0
5.791821002960205,-0.10538093000650406,-0.036759696900844574,-0.6237375736236572,0.052784060854326235,0.5283524990081787,-0.018249938264489174,0.037903912365436554,-0.06756998598575592,0.0,0.0,-0.9,0.0,0.001791238784790039,0.001791238784790039,0.011696100234985352,0,0
5.806770324707031,-0.1054338812828064,-0.03595970571041107,-0.622341513633728,0.05152364829759661,0.5284562110900879,-0.01542585901916027,0.038827039301395416,-0.06665915250778198,0.0,0.0,-0.9,0.0,0.0016226768493652344,0.0016226768493652344,0.012563943862915039,0,0
5.820858716964722,-0.1054338812828064,-0.03595970571041107,-0.622341513633728,0.05152364829759661,0.5285391807556152,-0.013402225449681282,0.03948741406202316,-0.0660238265991211,0.0,0.0,-0.9,0.0,0.001485586166381836,0.001485586166381836,0.012431144714355469,0,0
5.837583065032959,-0.10533756017684937,-0.03516833484172821,-0.6209612488746643,0.05044803403154616,0.5287638306617737,-0.006362625397741795,0.035370826721191406,-0.0652415007352829,0.0,0.0,-0.9,0.0,0.00173187255859375,0.00173187255859375,0.012645959854125977,0,0
5.851736307144165,-0.10533756017684937,-0.03516833484172821,-0.6209612488746643,0.05044803403154616,0.5289442539215088,-0.0013259113766252995,0.03242265805602074,-0.06467793136835098,0.0,0.0,-0.9,0.0,0.0016536712646484375,0.0016536712646484375,0.011507272720336914,0,0
5.866835832595825,-0.10513537377119064,-0.03441488742828369,-0.6195383071899414,0.0496103466920827,0.5291006565093994,0.0031987871043384075,0.029420657083392143,-0.0639650747179985,0.0,0.0,-0.9,0.0,0.0020265579223632812,0.0020265579223632812,0.01302647590637207,0,0
5.881490707397461,-0.10513537377119064,-0.03441488742828369,-0.6195383071899414,0.0496103466920827,0.5292260646820068,0.006438099313527346,0.027269665151834488,-0.06345842778682709,0.0,0.0,-0.9,0.0,0.001779317855834961,0.001779317855834961,0.012105941772460938,0,0
5.897265672683716,-0.10486448556184769,-0.033769913017749786,-0.6180766224861145,0.048523421210674135,0.5293587446212769,0.007969411090016365,0.027571942657232285,-0.06269882619380951,0.0,0.0,-0.9,0.0,0.0017070770263671875,0.0017070770263671875,0.012298583984375,0,0
5.911146402359009,-0.10486448556184769,-0.033769913017749786,-0.6180766224861145,0.048523421210674135,0.529464840888977,0.009066235274076462,0.027788033708930016,-0.06216767430305481,0.0,0.0,-0.9,0.0,0.0017316341400146484,0.0017316341400146484,0.012826681137084961,0,0
5.927209854125977,-0.10455133020877838,-0.03316377103328705,-0.6164325475692749,0.046977002883624434,0.5295566916465759,0.01176415104418993,0.02453082799911499,-0.06119513139128685,0.0,0.0,-0.9,0.0,0.0016567707061767578,0.0016567707061767578,0.012730836868286133,0,0
5.94273567199707,-0.10455133020877838,-0.03316377103328705,-0.6164325475692749,0.046977002883624434,0.5296303033828735,0.013695971108973026,0.022195996716618538,-0.06050894781947136,0.0,0.0,-0.9,0.0,0.00145721435546875,0.00145721435546875,0.012033700942993164,0,0
5.957942008972168,-0.10427276045084,-0.0324876569211483,-0.6147840619087219,0.045445307315794894,0.5297448039054871,0.006965469568967819,0.012144451029598713,-0.059301573783159256,0.0,0.0,-0.9,0.0,0.0014870166778564453,0.0014870166778564453,0.012387752532958984,0,0
5.971885681152344,-0.10427276045084,-0.0324876569211483,-0.6147840619087219,0.045445307315794894,0.5298382043838501,0.0021393289789557457,0.004947419743984938,-0.05849400907754898,0.0,0.0,-0.9,0.0,0.0016016960144042969,0.0016016960144042969,0.011889934539794922,0,0
5.987589597702026,-0.1041557788848877,-0.03202538192272186,-0.6137729287147522,0.044560179247990966,0.5298284292221069,-0.0028385764453560114,0.002093025017529726,-0.05762847140431404,0.0,0.0,-0.9,0.0,0.0015857219696044922,0.0015857219696044922,0.0117950439453125,0,0
6.000819206237793,-0.1041557788848877,-0.03202538192272186,-0.6137729287147522,0.044560179247990966,0.5298210382461548,-0.006409636233001947,4.754924157168716e-05,-0.05703093111515045,0.0,0.0,-0.9,0.0,0.0015246868133544922,0.0015246868133544922,0.012268543243408203,0,0
6.016204833984375,-0.10398942977190018,-0.031321629881858826,-0.6122488379478455,0.043054123394478935,0.5297955870628357,-0.0035327053628861904,-0.004285682924091816,-0.05603942647576332,0.0,0.0,-0.9,0.0,0.0019063949584960938,0.0019063949584960938,0.013684272766113281,0,0
6.0331666469573975,-0.10398942977190018,-0.031321629881858826,-0.6122488379478455,0.043054123394478935,0.5297756195068359,-0.0014707352966070175,-0.0073950039222836494,-0.055337414145469666,0.0,0.0,-0.9,0.0,0.0015871524810791016,0.0015871524810791016,0.012475013732910156,0,0
6.0488440990448,-0.10375349223613739,-0.030470827594399452,-0.610761821269989,0.04141029466531186,0.529676079750061,-0.000667947402689606,-0.011568013578653336,-0.054211683571338654,0.0,0.0,-0.9,0.0,0.0016400814056396484,0.0016400814056396484,0.012120485305786133,0,0
6.0631115436553955,-0.10375349223613739,-0.030470827594399452,-0.610761821269989,0.04141029466531186,0.529596745967865,-9.346616570837796e-05,-0.014563769102096558,-0.0534210205078125,0.0,0.0,-0.9,0.0,0.0017666816711425781,0.0017666816711425781,0.013039588928222656,0,0
6.079347133636475,-0.10358541458845139,-0.029841717332601547,-0.6097562909126282,0.04012777003650343,0.5295050144195557,-0.004272134974598885,-0.0194722767919302,-0.05238478630781174,0.0,0.0,-0.9,0.0,0.0016710758209228516,0.0016710758209228516,0.012466192245483398,0,0
6.094059944152832,-0.10358541458845139,-0.029841717332601547,-0.6097562909126282,0.04012777003650343,0.5294322371482849,-0.00727325864136219,-0.022993776947259903,-0.05167162045836449,0.0,0.0,-0.9,0.0,0.0015957355499267578,0.0015957355499267578,0.01244807243347168,0,0
6.109673261642456,-0.10350288450717926,-0.029155010357499123,-0.6088362336158752,0.038816658395318365,0.5292840003967285,-0.011382699944078922,-0.024399815127253532,-0.05070755258202553,0.0,0.0,-0.9,0.0,0.001537322998046875,0.001537322998046875,0.01239466667175293,0,0
6.125849723815918,-0.10342498868703842,-0.028697317466139793,-0.6081905961036682,0.037921337481312545,0.5291615724563599,-0.012829630635678768,-0.027384867891669273,-0.04967901110649109,0.0,0.0,-0.9,0.0,0.0016412734985351562,0.0016412734985351562,0.012791156768798828,0,0
6.140769958496094,-0.10342498868703842,-0.028697317466139793,-0.6081905961036682,0.037921337481312545,0.529063880443573,-0.013869569636881351,-0.029527587816119194,-0.04896171763539314,0.0,0.0,-0.9,0.0,0.0018625259399414062,0.0018625259399414062,0.012334585189819336,0,0
6.156717777252197,-0.10336066037416458,-0.02812885493040085,-0.6073986887931824,0.036483074541802225,0.5289437174797058,-0.008020940236747265,-0.0237711351364851,-0.04788077250123024,0.0,0.0,-0.9,0.0,0.0017049312591552734,0.0017049312591552734,0.012623786926269531,0,0
6.171128273010254,-0.10336066037416458,-0.02812885493040085,-0.6073986887931824,0.036483074541802225,0.5288485288619995,-0.0038191895000636578,-0.019640713930130005,-0.04714320972561836,0.0,0.0,-0.9,0.0,0.001819610595703125,0.001819610595703125,0.013360738754272461,0,0
6.187965393066406,-0.1033174991607666,-0.027428243309259415,-0.6064431667327881,0.03484726899332629,0.5287458896636963,-0.0008736426825635135,-0.015963619574904442,-0.046032216399908066,0.0,0.0,-0.9,0.0,0.001495361328125,0.001495361328125,0.012438058853149414,0,0
6.202022552490234,-0.1033174991607666,-0.027428243309259415,-0.6064431667327881,0.03484726899332629,0.5286641120910645,0.0012425599852576852,-0.013325193896889687,-0.04526069387793541,0.0,0.0,-0.9,0.0,0.0017631053924560547,0.0017631053924560547,0.011525869369506836,0,0
6.217465877532959,-0.10341848433017731,-0.027011143043637276,-0.6058647036552429,0.0339601522686522,0.5287314653396606,0.003922560252249241,-0.017895441502332687,-0.04435407370328903,0.0,0.0,-0.9,0.0,0.0016252994537353516,0.0016252994537353516,0.012441873550415039,0,0
6.2320380210876465,-0.10341848433017731,-0.027011143043637276,-0.6058647036552429,0.0339601522686522,0.5287857055664062,0.005841851234436035,-0.02117203176021576,-0.043711379170417786,0.0,0.0,-0.9,0.0,0.0018014907836914062,0.0018014907836914062,0.01305079460144043,0,0
6.248802423477173,-0.10359209030866623,-0.026314355432987213,-0.6048411726951599,0.03261391694343446,0.5287309288978577,0.004369255620986223,-0.02081659995019436,-0.04279780760407448,0.0,0.0,-0.9,0.0,0.0016710758209228516,0.0016710758209228516,0.012244701385498047,0,0
6.262624740600586,-0.10359209030866623,-0.026314355432987213,-0.6048411726951599,0.03261391694343446,0.5286872386932373,0.0033127865754067898,-0.020561017096042633,-0.04215821996331215,0.0,0.0,-0.9,0.0,0.0015690326690673828,0.0015690326690673828,0.01286172866821289,0,0
6.278681516647339,-0.10372276604175568,-0.026015648618340492,-0.6043210625648499,0.031705608222417705,0.5285924673080444,0.003905683755874634,-0.020585788413882256,-0.04136461764574051,0.0,0.0,-0.9,0.0,0.0013957023620605469,0.0013957023620605469,0.013104915618896484,0,0
6.295781135559082,-0.10386817157268524,-0.0257224440574646,-0.6038291454315186,0.030912549324439566,0.5285376310348511,0.005591882858425379,-0.021489398553967476,-0.040503013879060745,0.0,0.0,-0.9,0.0,0.0016925334930419922,0.0016925334930419922,0.012226104736328125,0,0
6.3096184730529785,-0.10386817157268524,-0.0257224440574646,-0.6038291454315186,0.030912549324439566,0.5284938216209412,0.006801614537835121,-0.022138338536024094,-0.03989873453974724,0.0,0.0,-0.9,0.0,0.0014431476593017578,0.0014431476593017578,0.012180805206298828,0,0
6.325129508972168,-0.10407263040542603,-0.025298815220594406,-0.6030958890914917,0.02950986257402563,0.5285471081733704,0.011990503408014774,-0.024604540318250656,-0.038919683545827866,0.0,0.0,-0.9,0.0,0.0015835762023925781,0.0015835762023925781,0.012593507766723633,0,0
6.340388059616089,-0.10407263040542603,-0.025298815220594406,-0.6030958890914917,0.02950986257402563,0.5285900831222534,0.015709245577454567,-0.026374375447630882,-0.038225967437028885,0.0,0.0,-0.9,0.0,0.0016705989837646484,0.0016705989837646484,0.01254725456237793,0,0
