time,x,y,z,yaw,throttle,roll_rate,pitch_rate,yaw_rate,x_ref,y_ref,z_ref,yaw_ref,mpc_time,metadata
2.86102294921875e-06,-0.0695384219288826,-0.07102645188570023,-0.24316127598285675,-0.017283003515077083,-0.5690203394658242,0.502801977805495,-0.3850939243461516,0.11086260251956595,0.0,0.0,-0.6,0.0,0.012865781784057617,Hardware
0.01917552947998047,-0.0694858729839325,-0.0710979700088501,-0.24313275516033173,-0.017228807635279526,-0.568858475060962,0.505045337274727,-0.38652107683457326,0.1105215421567532,0.0,0.0,-0.6,0.0,0.005194425582885742,Horizon:3.0
0.030534744262695312,-0.0694858729839325,-0.0710979700088501,-0.24313275516033173,-0.017228807635279526,-0.568858475060962,0.505045337274727,-0.38652107683457326,0.1105215421567532,0.0,0.0,-0.6,0.0,0.0010929107666015625,Num Steps:20
0.03914141654968262,-0.0694052129983902,-0.07119801640510559,-0.24309268593788147,-0.017297463227911234,-0.569065308538613,0.502856704830568,-0.387223667212352,0.11095482969655224,0.0,0.0,-0.6,0.0,0.0051271915435791016,No Pyjoules
0.04942774772644043,-0.0694052129983902,-0.07119801640510559,-0.24309268593788147,-0.017297463227911234,-0.569065308538613,0.502856704830568,-0.387223667212352,0.11095482969655224,0.0,0.0,-0.6,0.0,0.001119375228881836,0
0.058518409729003906,-0.06938733160495758,-0.07123133540153503,-0.24309593439102173,-0.017298110422684008,-0.5689894271041053,0.5055084320055393,-0.38935272357739237,0.11096029383343062,0.0,0.0,-0.6,0.0,0.0051727294921875,0
0.06909370422363281,-0.06938733160495758,-0.07123133540153503,-0.24309593439102173,-0.017298110422684008,-0.5689894271041053,0.5055084320055393,-0.38935272357739237,0.11096029383343062,0.0,0.0,-0.6,0.0,0.0010979175567626953,0
0.07847166061401367,-0.06934209167957306,-0.0712851732969284,-0.24309711158275604,-0.01718666550164912,-0.5692043216599657,0.5067701062614726,-0.3919993554586791,0.11025968303817381,0.0,0.0,-0.6,0.0,0.005919456481933594,0
0.0901482105255127,-0.06934209167957306,-0.0712851732969284,-0.24309711158275604,-0.01718666550164912,-0.5692043216599657,0.5067701062614726,-0.3919993554586791,0.11025968303817381,0.0,0.0,-0.6,0.0,0.0012979507446289062,0
0.09898924827575684,-0.06932267546653748,-0.07134968787431717,-0.2431349754333496,-0.017268783786898938,-0.56847424572014,0.49574376830656713,-0.3936656091617118,0.11075936701664102,0.0,0.0,-0.6,0.0,0.005490303039550781,0
0.10931944847106934,-0.06932267546653748,-0.07134968787431717,-0.2431349754333496,-0.017268783786898938,-0.56847424572014,0.49574376830656713,-0.3936656091617118,0.11075936701664102,0.0,0.0,-0.6,0.0,0.0010578632354736328,0
0.11841440200805664,-0.06924263387918472,-0.07137559354305267,-0.24321027100086212,-0.016946703181619543,-0.5681043118996297,0.49960796410773417,-0.33846416725591494,0.10872740949117442,0.0,0.0,-0.6,0.0,0.006539821624755859,0
0.1309647560119629,-0.06924263387918472,-0.07137559354305267,-0.24321027100086212,-0.016946703181619543,-0.5681043118996297,0.49960796410773417,-0.33846416725591494,0.10872740949117442,0.0,0.0,-0.6,0.0,0.0011067390441894531,0
0.13900446891784668,-0.06896477192640305,-0.07140812277793884,-0.24323183298110962,-0.01663136603416463,-0.5682268174718995,0.498169268765951,-0.28792203100333347,0.10676589365484451,0.0,0.0,-0.6,0.0,0.005343437194824219,0
0.14952564239501953,-0.06896477192640305,-0.07140812277793884,-0.24323183298110962,-0.01663136603416463,-0.5682268174718995,0.498169268765951,-0.28792203100333347,0.10676589365484451,0.0,0.0,-0.6,0.0,0.0010721683502197266,0
0.15838861465454102,-0.06850168108940125,-0.07143320143222809,-0.2433982789516449,-0.016788122867344393,-0.5670947079135492,0.47727106593798496,-0.2581835111637619,0.10780310251187288,0.0,0.0,-0.6,0.0,0.005807399749755859,0
0.16974711418151855,-0.06850168108940125,-0.07143320143222809,-0.2433982789516449,-0.016788122867344393,-0.5670947079135492,0.47727106593798496,-0.2581835111637619,0.10780310251187288,0.0,0.0,-0.6,0.0,0.0011565685272216797,0
0.17844223976135254,-0.06792981922626495,-0.07142268866300583,-0.2437441349029541,-0.0166338752661528,-0.5641949133139169,0.4637169714551673,-0.1433397423086458,0.1069128662051122,0.0,0.0,-0.6,0.0,0.0070836544036865234,0
0.19114089012145996,-0.06792981922626495,-0.07142268866300583,-0.2437441349029541,-0.0166338752661528,-0.5641949133139169,0.4637169714551673,-0.1433397423086458,0.1069128662051122,0.0,0.0,-0.6,0.0,0.0011785030364990234,0
0.19909429550170898,-0.06699145585298538,-0.07122817635536194,-0.24455998837947845,-0.015937305248559762,-0.5604051990170007,0.37612697285652624,-0.06578297299897595,0.1024761051981704,0.0,0.0,-0.6,0.0,0.005486011505126953,0
0.20969247817993164,-0.06699145585298538,-0.07122817635536194,-0.24455998837947845,-0.015937305248559762,-0.5604051990170007,0.37612697285652624,-0.06578297299897595,0.1024761051981704,0.0,0.0,-0.6,0.0,0.0010371208190917969,0
0.21851611137390137,-0.06603070348501205,-0.07085272669792175,-0.24569882452487946,-0.014942770297046146,-0.5565063863321348,0.28086715562499937,0.013956282140608955,0.09612166655208719,0.0,0.0,-0.6,0.0,0.005265712738037109,0
0.2293245792388916,-0.06603070348501205,-0.07085272669792175,-0.24569882452487946,-0.014942770297046146,-0.5565063863321348,0.28086715562499937,0.013956282140608955,0.09612166655208719,0.0,0.0,-0.6,0.0,0.00113677978515625,0
0.23844003677368164,-0.06422156095504761,-0.06997678428888321,-0.24836385250091553,-0.012386418580783593,-0.5506064429423801,0.1608998229465422,0.18816202466589318,0.07991385748868589,0.0,0.0,-0.6,0.0,0.0067005157470703125,0
0.25057387351989746,-0.06422156095504761,-0.06997678428888321,-0.24836385250091553,-0.012386418580783593,-0.5506064429423801,0.1608998229465422,0.18816202466589318,0.07991385748868589,0.0,0.0,-0.6,0.0,0.001142740249633789,0
0.25867152214050293,-0.06274619698524475,-0.06904245913028717,-0.25089725852012634,-0.010127743692089748,-0.5474086094631658,0.016634764678505564,0.30426498430198834,0.06549389810847961,0.0,0.0,-0.6,0.0,0.006103992462158203,0
0.27020931243896484,-0.06274619698524475,-0.06904245913028717,-0.25089725852012634,-0.010127743692089748,-0.5474086094631658,0.016634764678505564,0.30426498430198834,0.06549389810847961,0.0,0.0,-0.6,0.0,0.001064300537109375,0
0.27841782569885254,-0.06126232445240021,-0.06798725575208664,-0.2538662552833557,-0.007498069808789527,-0.543018441468022,-0.11645742333368028,0.38881631301930186,0.048665314012832805,0.0,0.0,-0.6,0.0,0.0056612491607666016,0
0.28928542137145996,-0.06126232445240021,-0.06798725575208664,-0.2538662552833557,-0.007498069808789527,-0.543018441468022,-0.11645742333368028,0.38881631301930186,0.048665314012832805,0.0,0.0,-0.6,0.0,0.0010573863983154297,0
0.2989659309387207,-0.06053703650832176,-0.06741999834775925,-0.25553426146507263,-0.005862955379620311,-0.5403272432509475,-0.21213477303904535,0.4088025957605988,0.03804804876196491,0.0,0.0,-0.6,0.0,0.0053560733795166016,0
0.30945730209350586,-0.06053703650832176,-0.06741999834775925,-0.25553426146507263,-0.005862955379620311,-0.5403272432509475,-0.21213477303904535,0.4088025957605988,0.03804804876196491,0.0,0.0,-0.6,0.0,0.0011179447174072266,0
0.31851792335510254,-0.058377042412757874,-0.06544815748929977,-0.2612045705318451,-0.0006463276070931426,-0.5335331885658284,-0.40582962593032307,0.48435671439031847,0.004470047067558489,0.0,0.0,-0.6,0.0,0.006017923355102539,0
0.3297691345214844,-0.058377042412757874,-0.06544815748929977,-0.2612045705318451,-0.0006463276070931426,-0.5335331885658284,-0.40582962593032307,0.48435671439031847,0.004470047067558489,0.0,0.0,-0.6,0.0,0.0010952949523925781,0
0.3394289016723633,-0.056999970227479935,-0.06405173987150192,-0.26554539799690247,0.003108394299998955,-0.5287454727103483,-0.5012516144354026,0.5007788135386686,-0.01969561920773221,0.0,0.0,-0.6,0.0,0.0054166316986083984,0
0.35015368461608887,-0.056999970227479935,-0.06405173987150192,-0.26554539799690247,0.003108394299998955,-0.5287454727103483,-0.5012516144354026,0.5007788135386686,-0.01969561920773221,0.0,0.0,-0.6,0.0,0.0010845661163330078,0
0.3588142395019531,-0.05563246086239815,-0.06264892965555191,-0.27034202218055725,0.0070083122622216915,-0.5240616156473551,-0.586252950303993,0.5070297583052954,-0.04480027930318071,0.0,0.0,-0.6,0.0,0.006610870361328125,0
0.3709251880645752,-0.05563246086239815,-0.06264892965555191,-0.27034202218055725,0.0070083122622216915,-0.5240616156473551,-0.586252950303993,0.5070297583052954,-0.04480027930318071,0.0,0.0,-0.6,0.0,0.0011050701141357422,0
0.3782625198364258,-0.05423007532954216,-0.06117408350110054,-0.2755261957645416,0.011351013941602912,-0.5194836897832541,-0.6655704397637636,0.5202296086706258,-0.07266930622240433,0.0,0.0,-0.6,0.0,0.0064280033111572266,0
0.38995933532714844,-0.05423007532954216,-0.06117408350110054,-0.2755261957645416,0.011351013941602912,-0.5194836897832541,-0.6655704397637636,0.5202296086706258,-0.07266930622240433,0.0,0.0,-0.6,0.0,0.0010635852813720703,0
0.3997771739959717,-0.052760809659957886,-0.05965111777186394,-0.2810690701007843,0.01574258239964719,-0.516079539215874,-0.6834812590062774,0.502230652097202,-0.10081071912643039,0.0,0.0,-0.6,0.0,0.005734920501708984,0
0.4107644557952881,-0.052760809659957886,-0.05965111777186394,-0.2810690701007843,0.01574258239964719,-0.516079539215874,-0.6834812590062774,0.502230652097202,-0.10081071912643039,0.0,0.0,-0.6,0.0,0.0010721683502197266,0
0.4185628890991211,-0.052030034363269806,-0.058904796838760376,-0.28392207622528076,0.018064789329974726,-0.51463056586924,-0.6667238818107212,0.47384274124464276,-0.11570168915823263,0.0,0.0,-0.6,0.0,0.005192279815673828,0
0.42973899841308594,-0.05033379793167114,-0.05739202722907066,-0.2905583381652832,0.023806032685408235,-0.5118207924361734,-0.39722035429077046,0.4081418397335764,-0.15190168613620042,0.0,0.0,-0.6,0.0,0.006503582000732422,0
0.4419083595275879,-0.05033379793167114,-0.05739202722907066,-0.2905583381652832,0.023806032685408235,-0.5118207924361734,-0.39722035429077046,0.4081418397335764,-0.15190168613620042,0.0,0.0,-0.6,0.0,0.0010471343994140625,0
0.4491429328918457,-0.049568530172109604,-0.056750040501356125,-0.2935250699520111,0.02586229075003729,-0.5105207719578069,-0.3583980042097223,0.39037201452135933,-0.1650419673113263,0.0,0.0,-0.6,0.0,0.005209684371948242,0
0.45981669425964355,-0.049568530172109604,-0.056750040501356125,-0.2935250699520111,0.02586229075003729,-0.5105207719578069,-0.3583980042097223,0.39037201452135933,-0.1650419673113263,0.0,0.0,-0.6,0.0,0.0011034011840820312,0
0.4683265686035156,-0.04758300632238388,-0.05506092682480812,-0.30175334215164185,0.03225146918866403,-0.5079193432947705,-0.27320344930422097,0.23078657851084006,-0.20622902647386632,0.0,0.0,-0.6,0.0,0.005458354949951172,0
0.47889137268066406,-0.04758300632238388,-0.05506092682480812,-0.30175334215164185,0.03225146918866403,-0.5079193432947705,-0.27320344930422097,0.23078657851084006,-0.20622902647386632,0.0,0.0,-0.6,0.0,0.0010380744934082031,0
0.48934316635131836,-0.04611935839056969,-0.053891684859991074,-0.30783811211586,0.03603291459698109,-0.5067275929372134,-0.1714342689655578,0.20358376246115675,-0.2303310802256659,0.0,0.0,-0.6,0.0,0.005518913269042969,0
0.5008869171142578,-0.04611935839056969,-0.053891684859991074,-0.30783811211586,0.03603291459698109,-0.5067275929372134,-0.1714342689655578,0.20358376246115675,-0.2303310802256659,0.0,0.0,-0.6,0.0,0.001071929931640625,0
0.5088083744049072,-0.044867001473903656,-0.052890658378601074,-0.3130718171596527,0.039929109152594185,-0.5046827970174914,0.035359553853008256,0.19859560393145118,-0.25508388874346605,0.0,0.0,-0.6,0.0,0.0066471099853515625,0
0.5205056667327881,-0.044867001473903656,-0.052890658378601074,-0.3130718171596527,0.039929109152594185,-0.5046827970174914,0.035359553853008256,0.19859560393145118,-0.25508388874346605,0.0,0.0,-0.6,0.0,0.0011086463928222656,0
0.5289983749389648,-0.04346628859639168,-0.05173627287149429,-0.3190419673919678,0.043115193370911034,-0.5039251281572619,0.09625669657287676,0.12465494423595251,-0.2755525660026933,0.0,0.0,-0.6,0.0,0.005217790603637695,0
0.5396196842193604,-0.04346628859639168,-0.05173627287149429,-0.3190419673919678,0.043115193370911034,-0.5039251281572619,0.09625669657287676,0.12465494423595251,-0.2755525660026933,0.0,0.0,-0.6,0.0,0.0011103153228759766,0
0.5484318733215332,-0.0422833226621151,-0.050669554620981216,-0.3241497278213501,0.04632233748603583,-0.5027896121101703,0.15572712414982445,0.0602801560908161,-0.2961174886969342,0.0,0.0,-0.6,0.0,0.005356550216674805,0
0.5591123104095459,-0.0422833226621151,-0.050669554620981216,-0.3241497278213501,0.04632233748603583,-0.5027896121101703,0.15572712414982445,0.0602801560908161,-0.2961174886969342,0.0,0.0,-0.6,0.0,0.0011565685272216797,0
0.5686421394348145,-0.04082881659269333,-0.04959765076637268,-0.3299601972103119,0.048874622564772624,-0.5010521406737463,0.23443740920320888,0.047900318379482366,-0.3124980444718592,0.0,0.0,-0.6,0.0,0.006865739822387695,0
0.5824222564697266,-0.04082881659269333,-0.04959765076637268,-0.3299601972103119,0.048874622564772624,-0.5010521406737463,0.23443740920320888,0.047900318379482366,-0.3124980444718592,0.0,0.0,-0.6,0.0,0.0015614032745361328,0
0.5922122001647949,-0.03887386620044708,-0.04811748489737511,-0.33772557973861694,0.05257248896556613,-0.5001715112752032,0.3342725773745198,0.004551889064395191,-0.3362454474315477,0.0,0.0,-0.6,0.0,0.006436586380004883,0
0.6054103374481201,-0.03887386620044708,-0.04811748489737511,-0.33772557973861694,0.05257248896556613,-0.5001715112752032,0.3342725773745198,0.004551889064395191,-0.3362454474315477,0.0,0.0,-0.6,0.0,0.0011866092681884766,0
0.6141598224639893,-0.037531767040491104,-0.04705498367547989,-0.3432707190513611,0.05466337720535805,-0.49926711440339755,0.40019847906398875,-0.03473692941859284,-0.34967080452767685,0.0,0.0,-0.6,0.0,0.005885601043701172,0
0.626394510269165,-0.037531767040491104,-0.04705498367547989,-0.3432707190513611,0.05466337720535805,-0.49926711440339755,0.40019847906398875,-0.03473692941859284,-0.34967080452767685,0.0,0.0,-0.6,0.0,0.0011432170867919922,0
0.6350314617156982,-0.03626633435487747,-0.04603802412748337,-0.3486749231815338,0.05655508368586937,-0.4985338912781194,0.4090861360155601,-0.10084766283888515,-0.3617434185676044,0.0,0.0,-0.6,0.0,0.006253480911254883,0
0.648184061050415,-0.03626633435487747,-0.04603802412748337,-0.3486749231815338,0.05655508368586937,-0.4985338912781194,0.4090861360155601,-0.10084766283888515,-0.3617434185676044,0.0,0.0,-0.6,0.0,0.0011358261108398438,0
0.6570193767547607,-0.03501291573047638,-0.045055847615003586,-0.3539833128452301,0.058030206585884,-0.49832272401355315,0.37804655829262845,-0.11291657153790738,-0.3711840527409061,0.0,0.0,-0.6,0.0,0.0057065486907958984,0
0.668595552444458,-0.03501291573047638,-0.045055847615003586,-0.3539833128452301,0.058030206585884,-0.49832272401355315,0.37804655829262845,-0.11291657153790738,-0.3711840527409061,0.0,0.0,-0.6,0.0,0.0011990070343017578,0
0.6788456439971924,-0.033848751336336136,-0.04411076009273529,-0.3591865599155426,0.059267060017425856,-0.4977190524580717,0.2732741281217217,-0.11995856972817641,-0.3790431177584076,0.0,0.0,-0.6,0.0,0.005598783493041992,0
0.6913235187530518,-0.033848751336336136,-0.04411076009273529,-0.3591865599155426,0.059267060017425856,-0.4977190524580717,0.2732741281217217,-0.11995856972817641,-0.3790431177584076,0.0,0.0,-0.6,0.0,0.0013358592987060547,0
0.7011153697967529,-0.03274916484951973,-0.04321375861763954,-0.364315927028656,0.060464258057850356,-0.49697980580920476,0.21182803215478344,-0.1012327386105105,-0.38671452132772816,0.0,0.0,-0.6,0.0,0.005640745162963867,0
0.7134125232696533,-0.03274916484951973,-0.04321375861763954,-0.364315927028656,0.060464258057850356,-0.49697980580920476,0.21182803215478344,-0.1012327386105105,-0.38671452132772816,0.0,0.0,-0.6,0.0,0.0011665821075439453,0
0.7215173244476318,-0.03133181855082512,-0.04190722107887268,-0.3717173635959625,0.06175261128777524,-0.4961556055495264,0.14149886407829992,-0.140529139884085,-0.3949482896056398,0.0,0.0,-0.6,0.0,0.006903409957885742,0
0.7341206073760986,-0.03133181855082512,-0.04190722107887268,-0.3717173635959625,0.06175261128777524,-0.4961556055495264,0.14149886407829992,-0.140529139884085,-0.3949482896056398,0.0,0.0,-0.6,0.0,0.0011341571807861328,0
0.7415013313293457,-0.030456356704235077,-0.04110819473862648,-0.3764911890029907,0.06247290157345091,-0.496399771073779,0.10142536235407054,-0.12469351578785602,-0.39958467377972406,0.0,0.0,-0.6,0.0,0.005913257598876953,0
0.7523932456970215,-0.030456356704235077,-0.04110819473862648,-0.3764911890029907,0.06247290157345091,-0.496399771073779,0.10142536235407054,-0.12469351578785602,-0.39958467377972406,0.0,0.0,-0.6,0.0,0.0010216236114501953,0
0.7612884044647217,-0.030072512105107307,-0.04071437194943428,-0.3788314163684845,0.062851483681687,-0.4968938948906828,0.04297772574802363,-0.08840701802286677,-0.40199229786856394,0.0,0.0,-0.6,0.0,0.005964040756225586,0
0.7740640640258789,-0.030072512105107307,-0.04071437194943428,-0.3788314163684845,0.062851483681687,-0.4968938948906828,0.04297772574802363,-0.08840701802286677,-0.40199229786856394,0.0,0.0,-0.6,0.0,0.0013654232025146484,0
0.782996416091919,-0.029073283076286316,-0.03952875733375549,-0.3856612741947174,0.06358413442462846,-0.49536206583859466,-0.10511769490936963,-0.06452698519323503,-0.4067193491154219,0.0,0.0,-0.6,0.0,0.0062825679779052734,0
0.7955644130706787,-0.029073283076286316,-0.03952875733375549,-0.3856612741947174,0.06358413442462846,-0.49536206583859466,-0.10511769490936963,-0.06452698519323503,-0.4067193491154219,0.0,0.0,-0.6,0.0,0.0012142658233642578,0
0.8041338920593262,-0.02878507971763611,-0.039182148873806,-0.3878791034221649,0.0636911481230824,-0.49555102476510127,-0.13561517397277748,-0.07071918136368492,-0.4074397945199535,0.0,0.0,-0.6,0.0,0.0055315494537353516,0
0.8160233497619629,-0.028302723541855812,-0.03850959241390228,-0.39209482073783875,0.06370192687252346,-0.4955337908372792,-0.17905791629791015,-0.03770329169140858,-0.40752346810913587,0.0,0.0,-0.6,0.0,0.005077362060546875,0
0.8272244930267334,-0.028302723541855812,-0.03850959241390228,-0.39209482073783875,0.06370192687252346,-0.4955337908372792,-0.17905791629791015,-0.03770329169140858,-0.40752346810913587,0.0,0.0,-0.6,0.0,0.0011796951293945312,0
0.8341305255889893,-0.0278056338429451,-0.03780326992273331,-0.3966975212097168,0.06364262945241184,-0.49708052360671684,-0.19166829687701117,-0.03672516407576063,-0.407200077798646,0.0,0.0,-0.6,0.0,0.005777835845947266,0
0.8449611663818359,-0.0278056338429451,-0.03780326992273331,-0.3966975212097168,0.06364262945241184,-0.49708052360671684,-0.19166829687701117,-0.03672516407576063,-0.407200077798646,0.0,0.0,-0.6,0.0,0.0010330677032470703,0
0.8521125316619873,-0.02761870063841343,-0.0375274159014225,-0.39864853024482727,0.06356242162925363,-0.49681884352122996,-0.19992112018749422,-0.03591692361655784,-0.4067103278846482,0.0,0.0,-0.6,0.0,0.005354881286621094,0
0.8627405166625977,-0.02761870063841343,-0.0375274159014225,-0.39864853024482727,0.06356242162925363,-0.49681884352122996,-0.19992112018749422,-0.03591692361655784,-0.4067103278846482,0.0,0.0,-0.6,0.0,0.0010516643524169922,0
0.8692941665649414,-0.027200980111956596,-0.03693830221891403,-0.4028960168361664,0.06302412977869977,-0.4963797146039761,-0.23287894802384393,0.034388108698231855,-0.4031722029870615,0.0,0.0,-0.6,0.0,0.0051534175872802734,0
0.8793704509735107,-0.027200980111956596,-0.03693830221891403,-0.4028960168361664,0.06302412977869977,-0.4963797146039761,-0.23287894802384393,0.034388108698231855,-0.4031722029870615,0.0,0.0,-0.6,0.0,0.0010843276977539062,0
0.8883700370788574,-0.026916567236185074,-0.036499787122011185,-0.40638408064842224,0.062468898405965215,-0.4974331897323988,-0.1791147807504851,0.06002221333818862,-0.3995302374827317,0.0,0.0,-0.6,0.0,0.005326747894287109,0
0.8991951942443848,-0.026916567236185074,-0.036499787122011185,-0.40638408064842224,0.062468898405965215,-0.4974331897323988,-0.1791147807504851,0.06002221333818862,-0.3995302374827317,0.0,0.0,-0.6,0.0,0.0011010169982910156,0
0.9082832336425781,-0.026669053360819817,-0.03614126890897751,-0.40921759605407715,0.06179667259516737,-0.49818710098581265,-0.1974634624838149,0.08436374762445427,-0.3952199385851996,0.0,0.0,-0.6,0.0,0.005254030227661133,0
0.918205738067627,-0.026669053360819817,-0.03614126890897751,-0.40921759605407715,0.06179667259516737,-0.49818710098581265,-0.1974634624838149,0.08436374762445427,-0.3952199385851996,0.0,0.0,-0.6,0.0,0.0011096000671386719,0
0.9283080101013184,-0.02639341913163662,-0.03572574257850647,-0.41232916712760925,0.060999666377863256,-0.49879497320931665,-0.13163466193326448,0.09235391149995746,-0.3900439194845149,0.0,0.0,-0.6,0.0,0.006114959716796875,0
0.9403352737426758,-0.02639341913163662,-0.03572574257850647,-0.41232916712760925,0.060999666377863256,-0.49879497320931665,-0.13163466193326448,0.09235391149995746,-0.3900439194845149,0.0,0.0,-0.6,0.0,0.001119852066040039,0
0.9484498500823975,-0.02616497501730919,-0.03534156456589699,-0.41492900252342224,0.060096760753710565,-0.4990285546170684,-0.1584216520882796,0.10679376678468436,-0.38430510297272463,0.0,0.0,-0.6,0.0,0.005369424819946289,0
0.9590370655059814,-0.02616497501730919,-0.03534156456589699,-0.41492900252342224,0.060096760753710565,-0.4990285546170684,-0.1584216520882796,0.10679376678468436,-0.38430510297272463,0.0,0.0,-0.6,0.0,0.0011072158813476562,0
0.968876838684082,-0.02596138045191765,-0.03466585651040077,-0.41881880164146423,0.058687983716894904,-0.49896472454140883,-0.07760143575207236,0.12093750467852733,-0.3751691115730046,0.0,0.0,-0.6,0.0,0.005471944808959961,0
0.9794507026672363,-0.02596138045191765,-0.03466585651040077,-0.41881880164146423,0.058687983716894904,-0.49896472454140883,-0.07760143575207236,0.12093750467852733,-0.3751691115730046,0.0,0.0,-0.6,0.0,0.0011031627655029297,0
0.9884219169616699,-0.025926019996404648,-0.034387294203042984,-0.42017003893852234,0.05821224909368386,-0.4997942988548859,-0.07650747803696949,0.09561384632833925,-0.3721711706409591,0.0,0.0,-0.6,0.0,0.0055353641510009766,0
1.0000131130218506,-0.025926019996404648,-0.034387294203042984,-0.42017003893852234,0.05821224909368386,-0.4997942988548859,-0.07650747803696949,0.09561384632833925,-0.3721711706409591,0.0,0.0,-0.6,0.0,0.0012767314910888672,0
1.009357213973999,-0.025892332196235657,-0.0335809662938118,-0.42370879650115967,0.05661583985221368,-0.5007350521333035,-0.057276902665976875,0.08707956173869326,-0.36195511613122006,0.0,0.0,-0.6,0.0,0.004280567169189453,0
1.0188307762145996,-0.025892332196235657,-0.0335809662938118,-0.42370879650115967,0.05661583985221368,-0.5007350521333035,-0.057276902665976875,0.08707956173869326,-0.36195511613122006,0.0,0.0,-0.6,0.0,0.0010609626770019531,0
1.0283193588256836,-0.025885585695505142,-0.03294775262475014,-0.42612048983573914,0.05569635187739757,-0.5015521099095821,-0.04363836270552353,0.08369255370236796,-0.35606290889744546,0.0,0.0,-0.6,0.0,0.004244089126586914,0
1.0393693447113037,-0.025896543636918068,-0.03262537717819214,-0.4272781014442444,0.05522397708685599,-0.5024196542275468,-0.06465725233963879,0.07571779305060777,-0.35309124807647146,0.0,0.0,-0.6,0.0,0.005244016647338867,0
1.0494019985198975,-0.025896543636918068,-0.03262537717819214,-0.4272781014442444,0.05522397708685599,-0.5024196542275468,-0.06465725233963879,0.07571779305060777,-0.35309124807647146,0.0,0.0,-0.6,0.0,0.0011339187622070312,0
1.0583651065826416,-0.025937730446457863,-0.031992487609386444,-0.429458886384964,0.05403849005886204,-0.5023428253386488,-0.06282781901976489,0.06723925720100914,-0.3455213818933842,0.0,0.0,-0.6,0.0,0.00441431999206543,0
1.069392442703247,-0.025937730446457863,-0.031992487609386444,-0.429458886384964,0.05403849005886204,-0.5023428253386488,-0.06282781901976489,0.06723925720100914,-0.3455213818933842,0.0,0.0,-0.6,0.0,0.0011358261108398438,0
1.0784082412719727,-0.025971071794629097,-0.031332772225141525,-0.43149882555007935,0.052866082381178355,-0.5022752638729423,-0.03677760182781832,0.0685219927111512,-0.337986636768414,0.0,0.0,-0.6,0.0,0.0043103694915771484,0
1.0897607803344727,-0.02597559057176113,-0.030988601967692375,-0.4324674606323242,0.05229189611926951,-0.5024469933153578,-0.027468435352721504,0.053509807248185416,-0.3343150027235155,0.0,0.0,-0.6,0.0,0.0045964717864990234,0
1.1001763343811035,-0.02597559057176113,-0.030988601967692375,-0.4324674606323242,0.05229189611926951,-0.5024469933153578,-0.027468435352721504,0.053509807248185416,-0.3343150027235155,0.0,0.0,-0.6,0.0,0.0010614395141601562,0
1.1085035800933838,-0.02594847045838833,-0.030281566083431244,-0.43429145216941833,0.05115837214026202,-0.5036060494147279,0.003399914624481483,0.041297817100734456,-0.3270352323262137,0.0,0.0,-0.6,0.0,0.0043697357177734375,0
1.1187121868133545,-0.02594847045838833,-0.030281566083431244,-0.43429145216941833,0.05115837214026202,-0.5036060494147279,0.003399914624481483,0.041297817100734456,-0.3270352323262137,0.0,0.0,-0.6,0.0,0.0010602474212646484,0
1.129011869430542,-0.02591974288225174,-0.029555968940258026,-0.4360029995441437,0.050039925133859485,-0.5049260945027232,0.027693262993378636,0.03842122437566078,-0.3198575277719507,0.0,0.0,-0.6,0.0,0.004332542419433594,0
1.1391468048095703,-0.02591974288225174,-0.029555968940258026,-0.4360029995441437,0.050039925133859485,-0.5049260945027232,0.027693262993378636,0.03842122437566078,-0.3198575277719507,0.0,0.0,-0.6,0.0,0.0011932849884033203,0
1.1497077941894531,-0.025910113006830215,-0.028830386698246002,-0.43761879205703735,0.0488161669091559,-0.5053516926167644,0.016411322805019068,0.01927960313842547,-0.31206334097945104,0.0,0.0,-0.6,0.0,0.005356788635253906,0
1.1626479625701904,-0.025910113006830215,-0.028830386698246002,-0.43761879205703735,0.0488161669091559,-0.5053516926167644,0.016411322805019068,0.01927960313842547,-0.31206334097945104,0.0,0.0,-0.6,0.0,0.0016613006591796875,0
1.1717584133148193,-0.02585788629949093,-0.02810017019510269,-0.4391961097717285,0.047534832322291026,-0.5050796662852605,-0.012580490382981577,-0.001586164355696427,-0.3039174096852461,0.0,0.0,-0.6,0.0,0.006199359893798828,0
1.1843533515930176,-0.02585788629949093,-0.02810017019510269,-0.4391961097717285,0.047534832322291026,-0.5050796662852605,-0.012580490382981577,-0.001586164355696427,-0.3039174096852461,0.0,0.0,-0.6,0.0,0.001312255859375,0
1.1932926177978516,-0.02580142207443714,-0.027246857061982155,-0.4408877193927765,0.046140036562874354,-0.5048030801291746,-0.009359793406948608,0.006180671645137625,-0.2949920625891886,0.0,0.0,-0.6,0.0,0.0050814151763916016,0
1.2061707973480225,-0.02580142207443714,-0.027246857061982155,-0.4408877193927765,0.046140036562874354,-0.5048030801291746,-0.009359793406948608,0.006180671645137625,-0.2949920625891886,0.0,0.0,-0.6,0.0,0.0017156600952148438,0
1.2146873474121094,-0.025793788954615593,-0.026390068233013153,-0.4423202872276306,0.0450645000194975,-0.5055812628316431,0.007682975926777742,0.008841175358201094,-0.28809568997845275,0.0,0.0,-0.6,0.0,0.005147695541381836,0
1.226581335067749,-0.025793788954615593,-0.026390068233013153,-0.4423202872276306,0.0450645000194975,-0.5055812628316431,0.007682975926777742,0.008841175358201094,-0.28809568997845275,0.0,0.0,-0.6,0.0,0.0012085437774658203,0
1.234407663345337,-0.025762369856238365,-0.025418484583497047,-0.4438459575176239,0.043589175569591354,-0.5052737768167355,-0.024875100666424975,0.013181887215855524,-0.2787056325538118,0.0,0.0,-0.6,0.0,0.005274057388305664,0
1.245821475982666,-0.025762369856238365,-0.025418484583497047,-0.4438459575176239,0.043589175569591354,-0.5052737768167355,-0.024875100666424975,0.013181887215855524,-0.2787056325538118,0.0,0.0,-0.6,0.0,0.0014801025390625,0
1.2554066181182861,-0.0257252249866724,-0.024599332362413406,-0.44512513279914856,0.04251472245480024,-0.5047527599760376,-0.027031741647983422,0.02843299087573021,-0.27183319249245275,0.0,0.0,-0.6,0.0,0.005191802978515625,0
1.2672369480133057,-0.0257252249866724,-0.024599332362413406,-0.44512513279914856,0.04251472245480024,-0.5047527599760376,-0.027031741647983422,0.02843299087573021,-0.27183319249245275,0.0,0.0,-0.6,0.0,0.0012798309326171875,0
1.275578498840332,-0.025690270587801933,-0.023836301639676094,-0.44621220231056213,0.04126325183333949,-0.5055911182142077,-0.018583674043368865,0.04707182201300444,-0.263813272343458,0.0,0.0,-0.6,0.0,0.005300045013427734,0
1.2877771854400635,-0.025690270587801933,-0.023836301639676094,-0.44621220231056213,0.04126325183333949,-0.5055911182142077,-0.018583674043368865,0.04707182201300444,-0.263813272343458,0.0,0.0,-0.6,0.0,0.0013225078582763672,0
1.297048568725586,-0.025687551125884056,-0.023050948977470398,-0.44731634855270386,0.04031791531620799,-0.5064338818459335,-0.04659610411049539,0.030786532255010192,-0.257813523116565,0.0,0.0,-0.6,0.0,0.004898548126220703,0
1.3101656436920166,-0.025689877569675446,-0.02229577675461769,-0.44822028279304504,0.039315473544968595,-0.5066459683778035,-0.027147701846904234,0.02770624936509507,-0.2513820465687004,0.0,0.0,-0.6,0.0,0.004712343215942383,0
1.3217062950134277,-0.025689877569675446,-0.02229577675461769,-0.44822028279304504,0.039315473544968595,-0.5066459683778035,-0.027147701846904234,0.02770624936509507,-0.2513820465687004,0.0,0.0,-0.6,0.0,0.0015094280242919922,0
1.3296849727630615,-0.0257217176258564,-0.021933773532509804,-0.4486914873123169,0.03883528678281891,-0.5066963195982312,-0.0056927430112673144,0.025943241883179917,-0.24828636555855013,0.0,0.0,-0.6,0.0,0.004616975784301758,0
1.3410453796386719,-0.0257217176258564,-0.021933773532509804,-0.4486914873123169,0.03883528678281891,-0.5066963195982312,-0.0056927430112673144,0.025943241883179917,-0.24828636555855013,0.0,0.0,-0.6,0.0,0.0014595985412597656,0
1.3492164611816406,-0.025779232382774353,-0.02093343250453472,-0.44991353154182434,0.037143128556738216,-0.5077095394532856,-0.03525014444730954,-0.007870952948033007,-0.23752223100729694,0.0,0.0,-0.6,0.0,0.005558013916015625,0
1.3616251945495605,-0.025779232382774353,-0.02093343250453472,-0.44991353154182434,0.037143128556738216,-0.5077095394532856,-0.03525014444730954,-0.007870952948033007,-0.23752223100729694,0.0,0.0,-0.6,0.0,0.0012662410736083984,0
1.3710341453552246,-0.025853397324681282,-0.020229334011673927,-0.4506712257862091,0.03619030824699814,-0.5082903961606092,-0.010609702032862423,-0.026709876172854505,-0.2314091311794302,0.0,0.0,-0.6,0.0,0.0053043365478515625,0
1.3821320533752441,-0.025853397324681282,-0.020229334011673927,-0.4506712257862091,0.03619030824699814,-0.5082903961606092,-0.010609702032862423,-0.026709876172854505,-0.2314091311794302,0.0,0.0,-0.6,0.0,0.001142740249633789,0
1.3915040493011475,-0.025924190878868103,-0.019555533304810524,-0.45126858353614807,0.03522033512577649,-0.5087108305990581,-0.0023770246785681853,-0.0003299337341339636,-0.22518676056898795,0.0,0.0,-0.6,0.0,0.005172014236450195,0
1.4038801193237305,-0.025924190878868103,-0.019555533304810524,-0.45126858353614807,0.03522033512577649,-0.5087108305990581,-0.0023770246785681853,-0.0003299337341339636,-0.22518676056898795,0.0,0.0,-0.6,0.0,0.0015103816986083984,0
1.4133763313293457,-0.026110395789146423,-0.018889926373958588,-0.4518543779850006,0.03416002789293527,-0.5104716689053688,0.03822878441585337,-0.06850620238049782,-0.21838737298098088,0.0,0.0,-0.6,0.0,0.006025791168212891,0
1.4268229007720947,-0.026188921183347702,-0.01857519894838333,-0.4520948827266693,0.03377088934287813,-0.5111339269717219,0.017871101256950187,-0.06129074496765582,-0.21592165064840466,0.0,0.0,-0.6,0.0,0.0060787200927734375,0
1.4398529529571533,-0.02634192258119583,-0.01796814240515232,-0.4525054693222046,0.03288368140841016,-0.5110761563806345,0.021445469419213027,-0.041719065626285315,-0.2102347084365283,0.0,0.0,-0.6,0.0,0.004858970642089844,0
1.45176362991333,-0.02634192258119583,-0.01796814240515232,-0.4525054693222046,0.03288368140841016,-0.5110761563806345,0.021445469419213027,-0.041719065626285315,-0.2102347084365283,0.0,0.0,-0.6,0.0,0.0013279914855957031,0
1.461090087890625,-0.026486799120903015,-0.01728673093020916,-0.45284780859947205,0.03215833128268495,-0.5110387398718386,0.01035306052513398,-0.01834011148708905,-0.20560394392978837,0.0,0.0,-0.6,0.0,0.004807949066162109,0
1.4739928245544434,-0.026486799120903015,-0.01728673093020916,-0.45284780859947205,0.03215833128268495,-0.5110387398718386,0.01035306052513398,-0.01834011148708905,-0.20560394392978837,0.0,0.0,-0.6,0.0,0.0011472702026367188,0
1.4822423458099365,-0.02665986679494381,-0.016620540991425514,-0.4530981779098511,0.03146216136650128,-0.5115358690578653,-0.03474817099168956,-0.03452194753532191,-0.201222507274407,0.0,0.0,-0.6,0.0,0.006322622299194336,0
1.4954643249511719,-0.02665986679494381,-0.016620540991425514,-0.4530981779098511,0.03146216136650128,-0.5115358690578653,-0.03474817099168956,-0.03452194753532191,-0.201222507274407,0.0,0.0,-0.6,0.0,0.0016407966613769531,0
1.5050837993621826,-0.026933299377560616,-0.015699949115514755,-0.45333126187324524,0.030390401883160435,-0.5121303884052707,-0.025343238163968287,-0.0323842397422634,-0.19436089384184807,0.0,0.0,-0.6,0.0,0.004617929458618164,0
1.5169939994812012,-0.026933299377560616,-0.015699949115514755,-0.45333126187324524,0.030390401883160435,-0.5121303884052707,-0.025343238163968287,-0.0323842397422634,-0.19436089384184807,0.0,0.0,-0.6,0.0,0.0013468265533447266,0
1.5251193046569824,-0.026933299377560616,-0.015699949115514755,-0.45333126187324524,0.030390401883160435,-0.5121303884052707,-0.025343238163968287,-0.0323842397422634,-0.19436089384184807,0.0,0.0,-0.6,0.0,0.0017652511596679688,0
1.5344059467315674,-0.027101850137114525,-0.015145471319556236,-0.4534592628479004,0.029731264761475647,-0.5130499214926866,0.009111987447241131,-0.023807164030663696,-0.190094415938078,0.0,0.0,-0.6,0.0,0.005675554275512695,0
1.5473685264587402,-0.027101850137114525,-0.015145471319556236,-0.4534592628479004,0.029731264761475647,-0.5130499214926866,0.009111987447241131,-0.023807164030663696,-0.190094415938078,0.0,0.0,-0.6,0.0,0.0012819766998291016,0
1.5562331676483154,-0.027281103655695915,-0.014562289230525494,-0.45353737473487854,0.029128224794420874,-0.5134109875389089,0.04082013813871465,-0.024231631430856472,-0.1861949141641008,0.0,0.0,-0.6,0.0,0.006211280822753906,0
1.5692877769470215,-0.027281103655695915,-0.014562289230525494,-0.45353737473487854,0.029128224794420874,-0.5134109875389089,0.04082013813871465,-0.024231631430856472,-0.1861949141641008,0.0,0.0,-0.6,0.0,0.0011777877807617188,0
1.5784997940063477,-0.02760222554206848,-0.013708436861634254,-0.45362454652786255,0.02845022790801197,-0.5135327229011839,0.004676759996693866,-0.03824368484449936,-0.18192182393124273,0.0,0.0,-0.6,0.0,0.006133556365966797,0
1.5909843444824219,-0.02760222554206848,-0.013708436861634254,-0.45362454652786255,0.02845022790801197,-0.5135327229011839,0.004676759996693866,-0.03824368484449936,-0.18192182393124273,0.0,0.0,-0.6,0.0,0.0013494491577148438,0
1.6011767387390137,-0.027834204956889153,-0.013218667358160019,-0.4536404311656952,0.027805469051141344,-0.5130728694653413,-0.0035100622120936066,-0.0007415189711640504,-0.1777903782337504,0.0,0.0,-0.6,0.0,0.006013393402099609,0
1.6135239601135254,-0.027834204956889153,-0.013218667358160019,-0.4536404311656952,0.027805469051141344,-0.5130728694653413,-0.0035100622120936066,-0.0007415189711640504,-0.1777903782337504,0.0,0.0,-0.6,0.0,0.0011823177337646484,0
1.6231176853179932,-0.028085216879844666,-0.012735432013869286,-0.45363032817840576,0.027234273527620124,-0.5127488930551527,-0.00285723241966352,0.027316247079465297,-0.17412164455156348,0.0,0.0,-0.6,0.0,0.005141735076904297,0
1.6344599723815918,-0.028085216879844666,-0.012735432013869286,-0.45363032817840576,0.027234273527620124,-0.5127488930551527,-0.00285723241966352,0.027316247079465297,-0.17412164455156348,0.0,0.0,-0.6,0.0,0.0016756057739257812,0
1.642698049545288,-0.028340352699160576,-0.012233669869601727,-0.4536231756210327,0.026633635022364346,-0.5134626310276741,-0.032644753366113104,0.004511076776305023,-0.17034569814014663,0.0,0.0,-0.6,0.0,0.0065577030181884766,0
1.6559898853302002,-0.028340352699160576,-0.012233669869601727,-0.4536231756210327,0.026633635022364346,-0.5134626310276741,-0.032644753366113104,0.004511076776305023,-0.17034569814014663,0.0,0.0,-0.6,0.0,0.001613616943359375,0
1.6646199226379395,-0.028623223304748535,-0.011760739609599113,-0.4535845220088959,0.026144912455873026,-0.5139004305366408,-0.010835216130214775,-0.030145166584497327,-0.16720948095125487,0.0,0.0,-0.6,0.0,0.0060994625091552734,0
1.6784474849700928,-0.028623223304748535,-0.011760739609599113,-0.4535845220088959,0.026144912455873026,-0.5139004305366408,-0.010835216130214775,-0.030145166584497327,-0.16720948095125487,0.0,0.0,-0.6,0.0,0.0011649131774902344,0
1.6886508464813232,-0.028930209577083588,-0.01091609988361597,-0.45361509919166565,0.025315948636885625,-0.5144348815307606,-0.03508554909575258,-0.013255244501971028,-0.16194708296874516,0.0,0.0,-0.6,0.0,0.006311893463134766,0
1.702672004699707,-0.028930209577083588,-0.01091609988361597,-0.45361509919166565,0.025315948636885625,-0.5144348815307606,-0.03508554909575258,-0.013255244501971028,-0.16194708296874516,0.0,0.0,-0.6,0.0,0.0016663074493408203,0
1.7113332748413086,-0.029091177508234978,-0.010362520813941956,-0.4536207914352417,0.024952256057245204,-0.5136352258159297,-0.03790393320595675,0.041863612093111326,-0.15959072276470135,0.0,0.0,-0.6,0.0,0.006688117980957031,0
1.7243061065673828,-0.029091177508234978,-0.010362520813941956,-0.4536207914352417,0.024952256057245204,-0.5136352258159297,-0.03790393320595675,0.041863612093111326,-0.15959072276470135,0.0,0.0,-0.6,0.0,0.0011754035949707031,0
1.731764554977417,-0.029285773634910583,-0.009805142879486084,-0.453544557094574,0.0244287483553747,-0.5131575477269987,-0.058478004973342955,0.05064738019455482,-0.15627922771779745,0.0,0.0,-0.6,0.0,0.004540920257568359,0
1.741792917251587,-0.029285773634910583,-0.009805142879486084,-0.453544557094574,0.0244287483553747,-0.5131575477269987,-0.058478004973342955,0.05064738019455482,-0.15627922771779745,0.0,0.0,-0.6,0.0,0.0013484954833984375,0
1.748412847518921,-0.029285773634910583,-0.009805142879486084,-0.453544557094574,0.0244287483553747,-0.5131575477269987,-0.058478004973342955,0.05064738019455482,-0.15627922771779745,0.0,0.0,-0.6,0.0,0.0010471343994140625,0
1.7594084739685059,-0.029471611604094505,-0.008981699123978615,-0.45352134108543396,0.023824345771354977,-0.5128147616834917,-0.09558259693434125,0.05880841277197189,-0.152483879520904,0.0,0.0,-0.6,0.0,0.006652116775512695,0
1.7725462913513184,-0.029471611604094505,-0.008981699123978615,-0.45352134108543396,0.023824345771354977,-0.5128147616834917,-0.09558259693434125,0.05880841277197189,-0.152483879520904,0.0,0.0,-0.6,0.0,0.0012133121490478516,0
1.7823479175567627,-0.029559288173913956,-0.008454611524939537,-0.45354193449020386,0.023306481204757375,-0.5131219153555489,-0.09739445338503391,0.08081256292930286,-0.14915966239640283,0.0,0.0,-0.6,0.0,0.005421638488769531,0
1.794797420501709,-0.029559288173913956,-0.008454611524939537,-0.45354193449020386,0.023306481204757375,-0.5131219153555489,-0.09739445338503391,0.08081256292930286,-0.14915966239640283,0.0,0.0,-0.6,0.0,0.0015881061553955078,0
1.8045029640197754,-0.029581870883703232,-0.007949517108500004,-0.45359280705451965,0.022920579909419956,-0.512771443267349,-0.11582642445747114,0.0935157295913502,-0.1467199338045169,0.0,0.0,-0.6,0.0,0.005323648452758789,0
1.8183867931365967,-0.02960827201604843,-0.0074996743351221085,-0.45355963706970215,0.022580684626199197,-0.5134830116824822,-0.10762306180896615,0.10950543815748345,-0.14451719506007404,0.0,0.0,-0.6,0.0,0.005991220474243164,0
1.8319947719573975,-0.02960827201604843,-0.0074996743351221085,-0.45355963706970215,0.022580684626199197,-0.5134830116824822,-0.10762306180896615,0.10950543815748345,-0.14451719506007404,0.0,0.0,-0.6,0.0,0.0013580322265625,0
1.8403961658477783,-0.029569532722234726,-0.00708848237991333,-0.453540176153183,0.0221535832425464,-0.5134512027464981,-0.0763427590601145,0.13265088255136695,-0.14170669011844914,0.0,0.0,-0.6,0.0,0.005522012710571289,0
1.8520574569702148,-0.029569532722234726,-0.00708848237991333,-0.453540176153183,0.0221535832425464,-0.5134512027464981,-0.0763427590601145,0.13265088255136695,-0.14170669011844914,0.0,0.0,-0.6,0.0,0.0015540122985839844,0
1.861424207687378,-0.029570050537586212,-0.006699882447719574,-0.4533728361129761,0.021760763092399667,-0.5151225404660256,-0.08745235429955853,0.1057567639860924,-0.13924332426162458,0.0,0.0,-0.6,0.0,0.006223917007446289,0
1.874305009841919,-0.029570050537586212,-0.006699882447719574,-0.4533728361129761,0.021760763092399667,-0.5151225404660256,-0.08745235429955853,0.1057567639860924,-0.13924332426162458,0.0,0.0,-0.6,0.0,0.0013580322265625,0
1.8833634853363037,-0.029456179589033127,-0.006061898544430733,-0.4530309736728668,0.021277435964421363,-0.5153212636798481,-0.0544773350351057,0.11862473264663263,-0.13608655872382888,0.0,0.0,-0.6,0.0,0.006532192230224609,0
1.8950777053833008,-0.029456179589033127,-0.006061898544430733,-0.4530309736728668,0.021277435964421363,-0.5153212636798481,-0.0544773350351057,0.11862473264663263,-0.13608655872382888,0.0,0.0,-0.6,0.0,0.001963376998901367,0
1.9052674770355225,-0.02938561514019966,-0.005876358598470688,-0.452862948179245,0.02114142350186166,-0.5155351391120019,-0.01293338574249041,0.111230237717233,-0.1351461293436922,0.0,0.0,-0.6,0.0,0.006238222122192383,0
1.9188511371612549,-0.029232114553451538,-0.005526289343833923,-0.4525103271007538,0.02086234445480748,-0.5165179096486031,0.030854596671410123,0.10674627901196325,-0.1332895461759231,0.0,0.0,-0.6,0.0,0.005336284637451172,0
1.931387186050415,-0.029232114553451538,-0.005526289343833923,-0.4525103271007538,0.02086234445480748,-0.5165179096486031,0.030854596671410123,0.10674627901196325,-0.1332895461759231,0.0,0.0,-0.6,0.0,0.0013861656188964844,0
1.9398417472839355,-0.029071660712361336,-0.005166519433259964,-0.4521506130695343,0.02061176873673318,-0.5167290398831512,0.023020434430208382,0.0921979276831223,-0.1317178241788661,0.0,0.0,-0.6,0.0,0.006183624267578125,0
1.952113151550293,-0.02889779768884182,-0.004811576567590237,-0.4518098831176758,0.02011831377705793,-0.5166343623313896,-0.02083649909684223,0.08024748732672547,-0.12864961097841346,0.0,0.0,-0.6,0.0,0.006483554840087891,0
1.965433120727539,-0.02889779768884182,-0.004811576567590237,-0.4518098831176758,0.02011831377705793,-0.5166343623313896,-0.02083649909684223,0.08024748732672547,-0.12864961097841346,0.0,0.0,-0.6,0.0,0.0016257762908935547,0
1.9741418361663818,-0.028738731518387794,-0.004482084419578314,-0.4514678418636322,0.019716196080312675,-0.5175233941982026,-0.05657681674388398,0.056236614397444706,-0.12614793884700756,0.0,0.0,-0.6,0.0,0.005730152130126953,0
1.9867548942565918,-0.028738731518387794,-0.004482084419578314,-0.4514678418636322,0.019716196080312675,-0.5175233941982026,-0.05657681674388398,0.056236614397444706,-0.12614793884700756,0.0,0.0,-0.6,0.0,0.0015361309051513672,0
1.9958481788635254,-0.028517061844468117,-0.004020430147647858,-0.451017290353775,0.01930953058645201,-0.515596330602986,0.023725259914114935,0.04990011351857121,-0.12342025669963871,0.0,0.0,-0.6,0.0,0.00590205192565918,0
2.0088775157928467,-0.028517061844468117,-0.004020430147647858,-0.451017290353775,0.01930953058645201,-0.515596330602986,0.023725259914114935,0.04990011351857121,-0.12342025669963871,0.0,0.0,-0.6,0.0,0.0013675689697265625,0
2.0190365314483643,-0.028440169990062714,-0.003856970462948084,-0.4509041905403137,0.01912018668673936,-0.5155379625115395,0.0477606000145857,0.04978647886796437,-0.12217473335203181,0.0,0.0,-0.6,0.0,0.005945920944213867,0
2.0318684577941895,-0.028440169990062714,-0.003856970462948084,-0.4509041905403137,0.01912018668673936,-0.5155379625115395,0.0477606000145857,0.04978647886796437,-0.12217473335203181,0.0,0.0,-0.6,0.0,0.0013463497161865234,0
2.0412886142730713,-0.028182918205857277,-0.0034005010966211557,-0.45066505670547485,0.018732012291232614,-0.5152446495370733,0.06932842765420971,0.053954144556392906,-0.11966538108537576,0.0,0.0,-0.6,0.0,0.005934000015258789,0
2.0535857677459717,-0.028182918205857277,-0.0034005010966211557,-0.45066505670547485,0.018732012291232614,-0.5152446495370733,0.06932842765420971,0.053954144556392906,-0.11966538108537576,0.0,0.0,-0.6,0.0,0.0015764236450195312,0
2.0628035068511963,-0.027980146929621696,-0.0031984043307602406,-0.45056280493736267,0.01824452447518089,-0.5144387866903405,0.04691134580395481,0.07167853451412418,-0.11657816267217269,0.0,0.0,-0.6,0.0,0.0054473876953125,0
2.074603796005249,-0.027980146929621696,-0.0031984043307602406,-0.45056280493736267,0.01824452447518089,-0.5144387866903405,0.04691134580395481,0.07167853451412418,-0.11657816267217269,0.0,0.0,-0.6,0.0,0.0014472007751464844,0
2.083050012588501,-0.027919646352529526,-0.0031098423060029745,-0.450510710477829,0.018132196358970818,-0.5140795163557765,0.06674962100693471,0.03952190056852497,-0.11584130919983845,0.0,0.0,-0.6,0.0,0.006072282791137695,0
2.0959835052490234,-0.027919646352529526,-0.0031098423060029745,-0.450510710477829,0.018132196358970818,-0.5140795163557765,0.06674962100693471,0.03952190056852497,-0.11584130919983845,0.0,0.0,-0.6,0.0,0.0014081001281738281,0
2.1058270931243896,-0.027861490845680237,-0.0029391369316726923,-0.450374037027359,0.017862794829244022,-0.5146672066573809,0.06923079365038734,-0.011577363801321615,-0.11413610995105089,0.0,0.0,-0.6,0.0,0.0061779022216796875,0
2.119187355041504,-0.027875736355781555,-0.0027319847140461206,-0.45025700330734253,0.017696397084661333,-0.5152738386896072,0.06455112844515318,-0.04105254407518777,-0.11309837285741536,0.0,0.0,-0.6,0.0,0.004560708999633789,0
2.130664348602295,-0.027875736355781555,-0.0027319847140461206,-0.45025700330734253,0.017696397084661333,-0.5152738386896072,0.06455112844515318,-0.04105254407518777,-0.11309837285741536,0.0,0.0,-0.6,0.0,0.001432657241821289,0
2.1399636268615723,-0.02799065411090851,-0.0025082221254706383,-0.44997432827949524,0.01744585972943718,-0.515898824768757,0.009597650470985576,-0.10701643228767384,-0.11160660089921008,0.0,0.0,-0.6,0.0,0.005876064300537109,0
2.152554750442505,-0.02799065411090851,-0.0025082221254706383,-0.44997432827949524,0.01744585972943718,-0.515898824768757,0.009597650470985576,-0.10701643228767384,-0.11160660089921008,0.0,0.0,-0.6,0.0,0.0011930465698242188,0
2.1606807708740234,-0.028036536648869514,-0.0024767203722149134,-0.44985148310661316,0.017447521556311945,-0.5158244991206846,0.027073593783903633,-0.10737232986263477,-0.1116074221931894,0.0,0.0,-0.6,0.0,0.006224155426025391,0
2.17434024810791,-0.02813873067498207,-0.0024545129854232073,-0.44958528876304626,0.017412209794597944,-0.5170899006279878,0.039448894435379876,-0.11442285729670389,-0.11139270997603816,0.0,0.0,-0.6,0.0,0.0060214996337890625,0
2.188246965408325,-0.028216557577252388,-0.0024679917842149734,-0.44932934641838074,0.01735380739184202,-0.5171759547041488,0.029366910949576303,-0.12693101612841706,-0.1110449011665452,0.0,0.0,-0.6,0.0,0.004953145980834961,0
2.2002196311950684,-0.028216557577252388,-0.0024679917842149734,-0.44932934641838074,0.01735380739184202,-0.5171759547041488,0.029366910949576303,-0.12693101612841706,-0.1110449011665452,0.0,0.0,-0.6,0.0,0.001161336898803711,0
2.2091357707977295,-0.028346944600343704,-0.002536999760195613,-0.4490014910697937,0.01730805427744479,-0.5177159702592882,-0.004601245509460182,-0.17560231317463346,-0.1108183020799762,0.0,0.0,-0.6,0.0,0.005652189254760742,0
2.222135066986084,-0.028346944600343704,-0.002536999760195613,-0.4490014910697937,0.01730805427744479,-0.5177159702592882,-0.004601245509460182,-0.17560231317463346,-0.1108183020799762,0.0,0.0,-0.6,0.0,0.0013871192932128906,0
2.230851411819458,-0.02851899340748787,-0.002555288840085268,-0.44870731234550476,0.01719341030621949,-0.5169128033701575,0.029593346142915717,-0.15384189073447926,-0.11005980775387887,0.0,0.0,-0.6,0.0,0.006008625030517578,0
2.2441060543060303,-0.02851899340748787,-0.002555288840085268,-0.44870731234550476,0.01719341030621949,-0.5169128033701575,0.029593346142915717,-0.15384189073447926,-0.11005980775387887,0.0,0.0,-0.6,0.0,0.0015926361083984375,0
2.2523081302642822,-0.028749195858836174,-0.002679895143955946,-0.44838404655456543,0.017190067926076896,-0.5172827164580568,0.017596438535943015,-0.2000200589373886,-0.11010303533326121,0.0,0.0,-0.6,0.0,0.005617618560791016,0
2.264852523803711,-0.028978044167160988,-0.0028031778056174517,-0.4481147229671478,0.017154305858998894,-0.5171186734867301,0.012114382794163608,-0.20944793583419485,-0.10991034554029136,0.0,0.0,-0.6,0.0,0.0060384273529052734,0
2.277803659439087,-0.028978044167160988,-0.0028031778056174517,-0.4481147229671478,0.017154305858998894,-0.5171186734867301,0.012114382794163608,-0.20944793583419485,-0.10991034554029136,0.0,0.0,-0.6,0.0,0.0013773441314697266,0
2.2861015796661377,-0.029215283691883087,-0.0029827908147126436,-0.4478490650653839,0.01713735838844067,-0.5166517145369238,0.0058426481109258264,-0.18657634023982078,-0.10979557035322068,0.0,0.0,-0.6,0.0,0.006457090377807617,0
2.2997608184814453,-0.029215283691883087,-0.0029827908147126436,-0.4478490650653839,0.01713735838844067,-0.5166517145369238,0.0058426481109258264,-0.18657634023982078,-0.10979557035322068,0.0,0.0,-0.6,0.0,0.0012903213500976562,0
2.3093624114990234,-0.029438873752951622,-0.0031807946506887674,-0.4476397633552551,0.017089200869146164,-0.5161366414077417,-0.03457087970552353,-0.1606859392432065,-0.10950060847599039,0.0,0.0,-0.6,0.0,0.00626063346862793,0
2.322641611099243,-0.029438873752951622,-0.0031807946506887674,-0.4476397633552551,0.017089200869146164,-0.5161366414077417,-0.03457087970552353,-0.1606859392432065,-0.10950060847599039,0.0,0.0,-0.6,0.0,0.0011510848999023438,0
2.3320748805999756,-0.029673734679818153,-0.003383453469723463,-0.4474791884422302,0.016976827363107388,-0.5149990519004077,-0.05226615949386024,-0.15547622106196557,-0.10880205938873831,0.0,0.0,-0.6,0.0,0.00605463981628418,0
2.345550775527954,-0.029905224218964577,-0.0035660399589687586,-0.44735652208328247,0.017010222567775717,-0.5146697377102358,-0.04240253405280334,-0.14205867550456125,-0.10899989246589276,0.0,0.0,-0.6,0.0,0.0058858394622802734,0
2.358173370361328,-0.029905224218964577,-0.0035660399589687586,-0.44735652208328247,0.017010222567775717,-0.5146697377102358,-0.04240253405280334,-0.14205867550456125,-0.10899989246589276,0.0,0.0,-0.6,0.0,0.0011510848999023438,0
2.3686370849609375,-0.030117224901914597,-0.0037134350277483463,-0.44727951288223267,0.016996894396470886,-0.5147947370893613,-0.009137870958728107,-0.11358929376611082,-0.10884783471573847,0.0,0.0,-0.6,0.0,0.006430387496948242,0
2.3820559978485107,-0.030117224901914597,-0.0037134350277483463,-0.44727951288223267,0.016996894396470886,-0.5147947370893613,-0.009137870958728107,-0.11358929376611082,-0.10884783471573847,0.0,0.0,-0.6,0.0,0.0013818740844726562,0
2.3913588523864746,-0.030454810708761215,-0.0039033566135913134,-0.44730159640312195,0.01694950537389986,-0.5147523443151002,-0.007338747865577126,-0.06782130771727825,-0.1084937451089515,0.0,0.0,-0.6,0.0,0.0041544437408447266,0
2.402979850769043,-0.030454810708761215,-0.0039033566135913134,-0.44730159640312195,0.01694950537389986,-0.5147523443151002,-0.007338747865577126,-0.06782130771727825,-0.1084937451089515,0.0,0.0,-0.6,0.0,0.0011937618255615234,0
2.4107906818389893,-0.030454810708761215,-0.0039033566135913134,-0.44730159640312195,0.01694950537389986,-0.5147523443151002,-0.007338747865577126,-0.06782130771727825,-0.1084937451089515,0.0,0.0,-0.6,0.0,0.0013298988342285156,0
2.4199514389038086,-0.030699310824275017,-0.004010511562228203,-0.44737571477890015,0.016960008505247363,-0.5139416578395897,-0.0259996031052665,-0.03461507566849065,-0.10856031557874853,0.0,0.0,-0.6,0.0,0.0047760009765625,0
2.4314634799957275,-0.030699310824275017,-0.004010511562228203,-0.44737571477890015,0.016960008505247363,-0.5139416578395897,-0.0259996031052665,-0.03461507566849065,-0.10856031557874853,0.0,0.0,-0.6,0.0,0.0012750625610351562,0
2.4403810501098633,-0.030928870663046837,-0.004112462047487497,-0.44751960039138794,0.016948419275576276,-0.5124005546770908,-0.00875665916043033,0.0073663962248906025,-0.108418644922684,0.0,0.0,-0.6,0.0,0.005097627639770508,0
2.452018976211548,-0.030928870663046837,-0.004112462047487497,-0.44751960039138794,0.016948419275576276,-0.5124005546770908,-0.00875665916043033,0.0073663962248906025,-0.108418644922684,0.0,0.0,-0.6,0.0,0.0011479854583740234,0
2.4600746631622314,-0.031149964779615402,-0.004250648897141218,-0.44775959849357605,0.017004297768866337,-0.5119947075993345,0.017732783106002337,0.04099111508951693,-0.10868898515026695,0.0,0.0,-0.6,0.0,0.004735708236694336,0
2.472177028656006,-0.031149964779615402,-0.004250648897141218,-0.44775959849357605,0.017004297768866337,-0.5119947075993345,0.017732783106002337,0.04099111508951693,-0.10868898515026695,0.0,0.0,-0.6,0.0,0.0017180442810058594,0
2.4815237522125244,-0.03128287196159363,-0.0043005915358662605,-0.44804325699806213,0.017017115284139902,-0.5126410795044124,-0.003245938854809102,0.08357733769971645,-0.1087719706790428,0.0,0.0,-0.6,0.0,0.005200624465942383,0
2.4938080310821533,-0.031359460204839706,-0.004240850917994976,-0.4482545256614685,0.016997171143162508,-0.5120127183508643,-0.061445017729989275,0.08072193939918694,-0.10878170327098725,0.0,0.0,-0.6,0.0,0.005999088287353516,0
2.5070602893829346,-0.031359460204839706,-0.004240850917994976,-0.4482545256614685,0.016997171143162508,-0.5120127183508643,-0.061445017729989275,0.08072193939918694,-0.10878170327098725,0.0,0.0,-0.6,0.0,0.0011925697326660156,0
2.5158565044403076,-0.03138120844960213,-0.00417949166148901,-0.44838908314704895,0.016915660484197306,-0.512399075828929,-0.109519042802269,0.07921717588237315,-0.10838055588525938,0.0,0.0,-0.6,0.0,0.00559234619140625,0
2.52937650680542,-0.031457092612981796,-0.00397462397813797,-0.4487025737762451,0.01673534262647623,-0.5125323565564159,-0.06761855780051443,0.13637507996603185,-0.10706548525516435,0.0,0.0,-0.6,0.0,0.005625486373901367,0
2.5421078205108643,-0.031457092612981796,-0.00397462397813797,-0.4487025737762451,0.01673534262647623,-0.5125323565564159,-0.06761855780051443,0.13637507996603185,-0.10706548525516435,0.0,0.0,-0.6,0.0,0.0015871524810791016,0
2.5514590740203857,-0.03148169070482254,-0.003944377414882183,-0.44881168007850647,0.016628477097939222,-0.5121791824280304,-0.066966258519051,0.13826534908350585,-0.10637731142521374,0.0,0.0,-0.6,0.0,0.004941225051879883,0
2.5634384155273438,-0.031540315598249435,-0.0038551678881049156,-0.4489869773387909,0.01642421959503375,-0.5128302778792625,-0.11482628122887452,0.08956138491273254,-0.10524389598395509,0.0,0.0,-0.6,0.0,0.005166530609130859,0
2.5757811069488525,-0.031540315598249435,-0.0038551678881049156,-0.4489869773387909,0.01642421959503375,-0.5128302778792625,-0.11482628122887452,0.08956138491273254,-0.10524389598395509,0.0,0.0,-0.6,0.0,0.0017168521881103516,0
2.5846104621887207,-0.03152985870838165,-0.0038671467918902636,-0.44917720556259155,0.016245176452193887,-0.5122914554509435,-0.09986518634872407,0.12177466063954352,-0.10402522182692985,0.0,0.0,-0.6,0.0,0.006070375442504883,0
2.5982155799865723,-0.03152985870838165,-0.0038671467918902636,-0.44917720556259155,0.016245176452193887,-0.5122914554509435,-0.09986518634872407,0.12177466063954352,-0.10402522182692985,0.0,0.0,-0.6,0.0,0.0013530254364013672,0
2.6067843437194824,-0.031455058604478836,-0.0038588368333876133,-0.4493376910686493,0.016101295580803348,-0.5133210030849941,-0.06369501857464059,0.13849239560194818,-0.10299890578419178,0.0,0.0,-0.6,0.0,0.00632929801940918,0
2.6202361583709717,-0.031455058604478836,-0.0038588368333876133,-0.4493376910686493,0.016101295580803348,-0.5133210030849941,-0.06369501857464059,0.13849239560194818,-0.10299890578419178,0.0,0.0,-0.6,0.0,0.001373291015625,0
2.630584239959717,-0.031365104019641876,-0.003959651105105877,-0.4493841826915741,0.01597357684462372,-0.5136385752255314,-0.02342511810336293,0.13307196029602383,-0.10210200254218633,0.0,0.0,-0.6,0.0,0.006332874298095703,0
2.6428420543670654,-0.031365104019641876,-0.003959651105105877,-0.4493841826915741,0.01597357684462372,-0.5136385752255314,-0.02342511810336293,0.13307196029602383,-0.10210200254218633,0.0,0.0,-0.6,0.0,0.0013606548309326172,0
2.6514158248901367,-0.031238310039043427,-0.003948676399886608,-0.4493717551231384,0.01576561880635248,-0.5143621676233919,-0.045764538987296655,0.08211576065132399,-0.10086305218678497,0.0,0.0,-0.6,0.0,0.006276845932006836,0
2.6648104190826416,-0.031238310039043427,-0.003948676399886608,-0.4493717551231384,0.01576561880635248,-0.5143621676233919,-0.045764538987296655,0.08211576065132399,-0.10086305218678497,0.0,0.0,-0.6,0.0,0.0011429786682128906,0
2.6726269721984863,-0.03109285607933998,-0.0038486639969050884,-0.44935253262519836,0.01565878088746755,-0.5139028869141935,-0.04328483422986486,0.07156400110779292,-0.10018002974869089,0.0,0.0,-0.6,0.0,0.004599094390869141,0
2.6841378211975098,-0.03109285607933998,-0.0038486639969050884,-0.44935253262519836,0.01565878088746755,-0.5139028869141935,-0.04328483422986486,0.07156400110779292,-0.10018002974869089,0.0,0.0,-0.6,0.0,0.0015416145324707031,0
2.692913293838501,-0.03085138276219368,-0.0037567447870969772,-0.4493580758571625,0.015646478565603278,-0.5139939400571166,-0.03471615344391855,0.07138493175524116,-0.10008271876163732,0.0,0.0,-0.6,0.0,0.006178617477416992,0
2.7064595222473145,-0.03085138276219368,-0.0037567447870969772,-0.4493580758571625,0.015646478565603278,-0.5139939400571166,-0.03471615344391855,0.07138493175524116,-0.10008271876163732,0.0,0.0,-0.6,0.0,0.001528024673461914,0
2.7151801586151123,-0.03056400641798973,-0.0036495618987828493,-0.4493880569934845,0.015580083632435885,-0.5135163746555765,-0.034000644537190865,0.01925398016732453,-0.09968587697802311,0.0,0.0,-0.6,0.0,0.004941701889038086,0
2.727682590484619,-0.03056400641798973,-0.0036495618987828493,-0.4493880569934845,0.015580083632435885,-0.5135163746555765,-0.034000644537190865,0.01925398016732453,-0.09968587697802311,0.0,0.0,-0.6,0.0,0.0011565685272216797,0
2.7360994815826416,-0.03034600242972374,-0.0035960725508630276,-0.44942328333854675,0.015421888904658914,-0.5137556143334384,-0.062356443140502336,0.015750497168652282,-0.09870895260191863,0.0,0.0,-0.6,0.0,0.005922555923461914,0
2.7492873668670654,-0.03034600242972374,-0.0035960725508630276,-0.44942328333854675,0.015421888904658914,-0.5137556143334384,-0.062356443140502336,0.015750497168652282,-0.09870895260191863,0.0,0.0,-0.6,0.0,0.0013399124145507812,0
2.7597408294677734,-0.030112292617559433,-0.003535541472956538,-0.44946467876434326,0.0153315019834788,-0.5135219868663865,-0.08161262700468155,0.0206939508445951,-0.09814065168428344,0.0,0.0,-0.6,0.0,0.0057260990142822266,0
2.7712278366088867,-0.030112292617559433,-0.003535541472956538,-0.44946467876434326,0.0153315019834788,-0.5135219868663865,-0.08161262700468155,0.0206939508445951,-0.09814065168428344,0.0,0.0,-0.6,0.0,0.0016205310821533203,0
2.779717206954956,-0.02988438308238983,-0.0035126102156937122,-0.44947633147239685,0.015317350934413996,-0.5130476326797868,-0.060954128216146534,-0.007908889765943216,-0.09803629641177244,0.0,0.0,-0.6,0.0,0.004708528518676758,0
2.7916927337646484,-0.02988438308238983,-0.0035126102156937122,-0.44947633147239685,0.015317350934413996,-0.5130476326797868,-0.060954128216146534,-0.007908889765943216,-0.09803629641177244,0.0,0.0,-0.6,0.0,0.001323699951171875,0
