time,x,y,z,yaw,throttle,roll_rate,pitch_rate,yaw_rate,x_ref,y_ref,z_ref,yaw_ref,mpc_time,metadata
3.5762786865234375e-06,-0.10180503129959106,-0.08672547340393066,-0.24243010580539703,-0.014429681971387805,-0.5699901062882881,0.5912437433415484,-0.5953160555114263,0.09275325061070731,0.0,0.0,-0.6,0.0,0.01754474639892578,Hardware
0.023073911666870117,-0.10180503129959106,-0.08672547340393066,-0.24243010580539703,-0.014429681971387805,-0.5699901062882881,0.5912437433415484,-0.5953160555114263,0.09275325061070731,0.0,0.0,-0.6,0.0,0.002007007598876953,Horizon:3.0
0.03231191635131836,-0.10180237144231796,-0.08674415946006775,-0.24239614605903625,-0.014482857365965478,-0.5700469514364004,0.5904674299278766,-0.5963400536006055,0.09308580807554784,0.0,0.0,-0.6,0.0,0.006600618362426758,Num Steps:20
0.04688715934753418,-0.10180237144231796,-0.08674415946006775,-0.24239614605903625,-0.014482857365965478,-0.5700469514364004,0.5904674299278766,-0.5963400536006055,0.09308580807554784,0.0,0.0,-0.6,0.0,0.001203775405883789,No Pyjoules
0.05482316017150879,-0.10181613266468048,-0.08675400912761688,-0.24237267673015594,-0.014463781539600347,-0.5704511917650271,0.5863865052171491,-0.5952832417982358,0.09297489605971895,0.0,0.0,-0.6,0.0,0.009148836135864258,0
0.07136940956115723,-0.10181613266468048,-0.08675400912761688,-0.24237267673015594,-0.014463781539600347,-0.5704511917650271,0.5863865052171491,-0.5952832417982358,0.09297489605971895,0.0,0.0,-0.6,0.0,0.0012106895446777344,0
0.08121156692504883,-0.10183732211589813,-0.08676207065582275,-0.2423611432313919,-0.014396731775016778,-0.569951132730763,0.5896468355554485,-0.6068999166480024,0.09253676725444188,0.0,0.0,-0.6,0.0,0.008461713790893555,0
0.09696531295776367,-0.10183732211589813,-0.08676207065582275,-0.2423611432313919,-0.014396731775016778,-0.569951132730763,0.5896468355554485,-0.6068999166480024,0.09253676725444188,0.0,0.0,-0.6,0.0,0.001744985580444336,0
0.1061103343963623,-0.10176576673984528,-0.08678800612688065,-0.24242542684078217,-0.01392200375798615,-0.5693185239617794,0.581188208496609,-0.5346355452267929,0.08954843379057234,0.0,0.0,-0.6,0.0,0.008524417877197266,0
0.12205743789672852,-0.10176576673984528,-0.08678800612688065,-0.24242542684078217,-0.01392200375798615,-0.5693185239617794,0.581188208496609,-0.5346355452267929,0.08954843379057234,0.0,0.0,-0.6,0.0,0.0017807483673095703,0
0.13186120986938477,-0.10140109062194824,-0.08681987226009369,-0.2425318956375122,-0.013666982483468912,-0.5685743671618382,0.5915387457965198,-0.45903795048269946,0.08800248983131231,0.0,0.0,-0.6,0.0,0.008481979370117188,0
0.1484694480895996,-0.10140109062194824,-0.08681987226009369,-0.2425318956375122,-0.013666982483468912,-0.5685743671618382,0.5915387457965198,-0.45903795048269946,0.08800248983131231,0.0,0.0,-0.6,0.0,0.0012083053588867188,0
0.15733599662780762,-0.10079307854175568,-0.08675722777843475,-0.24279065430164337,-0.013836073722628283,-0.566583923093079,0.5240925519824907,-0.3624316936963311,0.0891251984994856,0.0,0.0,-0.6,0.0,0.007566213607788086,0
0.17319440841674805,-0.09919781982898712,-0.08630265295505524,-0.2439521998167038,-0.01222903151468388,-0.5604360959355882,0.4262823976294361,-0.17875932095349942,0.07896800011344077,0.0,0.0,-0.6,0.0,0.007986783981323242,0
0.18944525718688965,-0.09919781982898712,-0.08630265295505524,-0.2439521998167038,-0.01222903151468388,-0.5604360959355882,0.4262823976294361,-0.17875932095349942,0.07896800011344077,0.0,0.0,-0.6,0.0,0.0015194416046142578,0
0.2008953094482422,-0.09754608571529388,-0.08564745634794235,-0.2457331418991089,-0.010716133784325267,-0.5545247973126226,0.33632583915138176,0.010149254650181497,0.06940494045791036,0.0,0.0,-0.6,0.0,0.007169485092163086,0
0.21421337127685547,-0.09754608571529388,-0.08564745634794235,-0.2457331418991089,-0.010716133784325267,-0.5545247973126226,0.33632583915138176,0.010149254650181497,0.06940494045791036,0.0,0.0,-0.6,0.0,0.0013425350189208984,0
0.22436165809631348,-0.09503449499607086,-0.08446004986763,-0.24887269735336304,-0.00821585453337173,-0.5479297123017851,0.12711388140455768,0.17427241114100675,0.05332748484587465,0.0,0.0,-0.6,0.0,0.008108854293823242,0
0.2401893138885498,-0.09503449499607086,-0.08446004986763,-0.24887269735336304,-0.00821585453337173,-0.5479297123017851,0.12711388140455768,0.17427241114100675,0.05332748484587465,0.0,0.0,-0.6,0.0,0.0013875961303710938,0
0.2501685619354248,-0.0929236114025116,-0.08324548602104187,-0.2518053650856018,-0.0059871842775678615,-0.5439882709838121,-0.04328272845387479,0.3415698760942966,0.03899790001034316,0.0,0.0,-0.6,0.0,0.007181882858276367,0
0.26350975036621094,-0.0929236114025116,-0.08324548602104187,-0.2518053650856018,-0.0059871842775678615,-0.5439882709838121,-0.04328272845387479,0.3415698760942966,0.03899790001034316,0.0,0.0,-0.6,0.0,0.0011451244354248047,0
0.27202534675598145,-0.09106232970952988,-0.08201676607131958,-0.2547816336154938,-0.003396669978308251,-0.5391729256497885,-0.1737888152546862,0.47259317496947645,0.02244548116557383,0.0,0.0,-0.6,0.0,0.005726814270019531,0
0.2834467887878418,-0.09106232970952988,-0.08201676607131958,-0.2547816336154938,-0.003396669978308251,-0.5391729256497885,-0.1737888152546862,0.47259317496947645,0.02244548116557383,0.0,0.0,-0.6,0.0,0.0011372566223144531,0
0.29058289527893066,-0.08886183053255081,-0.08051808923482895,-0.25868967175483704,-0.0006220368307018176,-0.5342928360456309,-0.29049928187138696,0.591000545678981,0.004725703393120195,0.0,0.0,-0.6,0.0,0.0062448978424072266,0
0.3022012710571289,-0.08886183053255081,-0.08051808923482895,-0.25868967175483704,-0.0006220368307018176,-0.5342928360456309,-0.29049928187138696,0.591000545678981,0.004725703393120195,0.0,0.0,-0.6,0.0,0.0010750293731689453,0
0.3100278377532959,-0.08624966442584991,-0.07863376289606094,-0.2637125253677368,0.003586167650864889,-0.5284271974105298,-0.5197815166062995,0.6929658801971259,-0.022671409382288232,0.0,0.0,-0.6,0.0,0.007185935974121094,0
0.32222986221313477,-0.08624966442584991,-0.07863376289606094,-0.2637125253677368,0.003586167650864889,-0.5284271974105298,-0.5197815166062995,0.6929658801971259,-0.022671409382288232,0.0,0.0,-0.6,0.0,0.0011224746704101562,0
0.33008670806884766,-0.08376764506101608,-0.076850026845932,-0.2686900496482849,0.007032774578455519,-0.5234666743311845,-0.6464720100823943,0.7999824114704198,-0.04474569187178604,0.0,0.0,-0.6,0.0,0.011829137802124023,0
0.3498101234436035,-0.08376764506101608,-0.076850026845932,-0.2686900496482849,0.007032774578455519,-0.5234666743311845,-0.6464720100823943,0.7999824114704198,-0.04474569187178604,0.0,0.0,-0.6,0.0,0.0011763572692871094,0
0.3593771457672119,-0.08051029592752457,-0.07394014298915863,-0.27631276845932007,0.012892842628720813,-0.5162647961940042,-0.7999999999245211,0.7999999999893683,-0.08315927294682607,0.0,0.0,-0.6,0.0,0.011831045150756836,0
0.37903594970703125,-0.08051029592752457,-0.07394014298915863,-0.27631276845932007,0.012892842628720813,-0.5162647961940042,-0.7999999999245211,0.7999999999893683,-0.08315927294682607,0.0,0.0,-0.6,0.0,0.0011410713195800781,0
0.3883986473083496,-0.07720284909009933,-0.07087874412536621,-0.2846929430961609,0.019319265690072713,-0.509492806546795,-0.7999983902283695,0.7999974219938285,-0.12403108736820065,0.0,0.0,-0.6,0.0,0.007636070251464844,0
0.40372633934020996,-0.07720284909009933,-0.07087874412536621,-0.2846929430961609,0.019319265690072713,-0.509492806546795,-0.7999983902283695,0.7999974219938285,-0.12403108736820065,0.0,0.0,-0.6,0.0,0.001257181167602539,0
0.41251683235168457,-0.07382544875144958,-0.06800045818090439,-0.2937944531440735,0.02614660322452962,-0.5032523680310309,-0.7999999973474313,0.7999999999999945,-0.16753930061669822,0.0,0.0,-0.6,0.0,0.011760711669921875,0
0.4307725429534912,-0.07382544875144958,-0.06800045818090439,-0.2937944531440735,0.02614660322452962,-0.5032523680310309,-0.7999999973474313,0.7999999999999945,-0.16753930061669822,0.0,0.0,-0.6,0.0,0.0013873577117919922,0
0.4404444694519043,-0.07132258266210556,-0.06600930541753769,-0.3007330298423767,0.030938614168927073,-0.49981090152521124,-0.7549884619015732,0.7999999987490419,-0.19800355844704196,0.0,0.0,-0.6,0.0,0.009019613265991211,0
0.4576282501220703,-0.06869667768478394,-0.06404461711645126,-0.3078900873661041,0.035706244618730974,-0.49701645480905576,-0.635126978931561,0.7496954207851018,-0.22811576073924195,0.0,0.0,-0.6,0.0,0.00954437255859375,0
0.4752819538116455,-0.06608188152313232,-0.06207902356982231,-0.3150811195373535,0.040387192080169644,-0.4948219402206423,-0.474767030508528,0.6681676120714581,-0.25796733849030623,0.0,0.0,-0.6,0.0,0.00670623779296875,0
0.48997926712036133,-0.06608188152313232,-0.06207902356982231,-0.3150811195373535,0.040387192080169644,-0.4948219402206423,-0.474767030508528,0.6681676120714581,-0.25796733849030623,0.0,0.0,-0.6,0.0,0.0014569759368896484,0
0.4994330406188965,-0.06341063976287842,-0.060286492109298706,-0.32228538393974304,0.04498306166614722,-0.4937631927386473,-0.29024713224787607,0.5511383598488384,-0.2873839690921121,0.0,0.0,-0.6,0.0,0.0061664581298828125,0
0.5124638080596924,-0.06341063976287842,-0.060286492109298706,-0.32228538393974304,0.04498306166614722,-0.4937631927386473,-0.29024713224787607,0.5511383598488384,-0.2873839690921121,0.0,0.0,-0.6,0.0,0.001161813735961914,0
0.5209286212921143,-0.05951739847660065,-0.057823296636343,-0.33274146914482117,0.05054695807270036,-0.4915683562448432,-0.0005161511466434432,0.39105096406571704,-0.32309387608572915,0.0,0.0,-0.6,0.0,0.006944417953491211,0
0.534700870513916,-0.05951739847660065,-0.057823296636343,-0.33274146914482117,0.05054695807270036,-0.4915683562448432,-0.0005161511466434432,0.39105096406571704,-0.32309387608572915,0.0,0.0,-0.6,0.0,0.0016970634460449219,0
0.544558048248291,-0.05698294937610626,-0.05628377944231033,-0.3395504653453827,0.05336348658158327,-0.4911396030473405,0.19366974950819799,0.25691892211062495,-0.341283745077424,0.0,0.0,-0.6,0.0,0.0057888031005859375,0
0.5586574077606201,-0.05698294937610626,-0.05628377944231033,-0.3395504653453827,0.05336348658158327,-0.4911396030473405,0.19366974950819799,0.25691892211062495,-0.341283745077424,0.0,0.0,-0.6,0.0,0.0016591548919677734,0
0.5667448043823242,-0.05452229827642441,-0.05471828579902649,-0.34621670842170715,0.05582455593521984,-0.4896540172669702,0.3027451061057665,0.10903575134747488,-0.35719284858416805,0.0,0.0,-0.6,0.0,0.006327629089355469,0
0.579970121383667,-0.05452229827642441,-0.05471828579902649,-0.34621670842170715,0.05582455593521984,-0.4896540172669702,0.3027451061057665,0.10903575134747488,-0.35719284858416805,0.0,0.0,-0.6,0.0,0.0016467571258544922,0
0.5898346900939941,-0.052067987620830536,-0.05324458330869675,-0.352815717458725,0.057711946899022294,-0.4894080646380128,0.3897455876730812,-0.02680336847644021,-0.36936834927788803,0.0,0.0,-0.6,0.0,0.00633692741394043,0
0.6021018028259277,-0.052067987620830536,-0.05324458330869675,-0.352815717458725,0.057711946899022294,-0.4894080646380128,0.3897455876730812,-0.02680336847644021,-0.36936834927788803,0.0,0.0,-0.6,0.0,0.0011074542999267578,0
0.6092774868011475,-0.049394719302654266,-0.0516020804643631,-0.360108882188797,0.05934624266887213,-0.48715903735003996,0.5249857875802041,-0.15134825660725698,-0.3800249384168445,0.0,0.0,-0.6,0.0,0.005742549896240234,0
0.6213150024414062,-0.049394719302654266,-0.0516020804643631,-0.360108882188797,0.05934624266887213,-0.48715903735003996,0.5249857875802041,-0.15134825660725698,-0.3800249384168445,0.0,0.0,-0.6,0.0,0.0011670589447021484,0
0.6305785179138184,-0.04620005190372467,-0.04967137798666954,-0.36881354451179504,0.06071839047913904,-0.4861039281753212,0.5491522512370938,-0.2804394640325254,-0.3888214425914046,0.0,0.0,-0.6,0.0,0.006801128387451172,0
0.6441695690155029,-0.04620005190372467,-0.04967137798666954,-0.36881354451179504,0.06071839047913904,-0.4861039281753212,0.5491522512370938,-0.2804394640325254,-0.3888214425914046,0.0,0.0,-0.6,0.0,0.0010857582092285156,0
0.6520335674285889,-0.043888505548238754,-0.04836546257138252,-0.3750413954257965,0.06149450328017585,-0.4856680950341328,0.5387964919395062,-0.31891319749135427,-0.3938006050235439,0.0,0.0,-0.6,0.0,0.006586790084838867,0
0.6654136180877686,-0.043888505548238754,-0.04836546257138252,-0.3750413954257965,0.06149450328017585,-0.4856680950341328,0.5387964919395062,-0.31891319749135427,-0.3938006050235439,0.0,0.0,-0.6,0.0,0.0012106895446777344,0
0.673957109451294,-0.04142506793141365,-0.04702259227633476,-0.38192492723464966,0.06223892571338941,-0.4842018275550978,0.5295806010230295,-0.34671950431212595,-0.39865790912156773,0.0,0.0,-0.6,0.0,0.006373167037963867,0
0.6868124008178711,-0.04142506793141365,-0.04702259227633476,-0.38192492723464966,0.06223892571338941,-0.4842018275550978,0.5295806010230295,-0.34671950431212595,-0.39865790912156773,0.0,0.0,-0.6,0.0,0.0012199878692626953,0
0.6953980922698975,-0.03935570642352104,-0.045954134315252304,-0.38786572217941284,0.06287320480634641,-0.4840839468411682,0.5025977290634713,-0.36807268677622873,-0.40266841219106775,0.0,0.0,-0.6,0.0,0.006403446197509766,0
0.7083690166473389,-0.03935570642352104,-0.045954134315252304,-0.38786572217941284,0.06287320480634641,-0.4840839468411682,0.5025977290634713,-0.36807268677622873,-0.40266841219106775,0.0,0.0,-0.6,0.0,0.0011179447174072266,0
0.7158262729644775,-0.03767034783959389,-0.04518046975135803,-0.3928980529308319,0.06333806210098807,-0.4832167230160517,0.5000079646446288,-0.30749996400553153,-0.40588042034120575,0.0,0.0,-0.6,0.0,0.0057561397552490234,0
0.7280094623565674,-0.03767034783959389,-0.04518046975135803,-0.3928980529308319,0.06333806210098807,-0.4832167230160517,0.5000079646446288,-0.30749996400553153,-0.40588042034120575,0.0,0.0,-0.6,0.0,0.0018451213836669922,0
0.7366373538970947,-0.03581662103533745,-0.044355012476444244,-0.39852651953697205,0.06367783373773647,-0.48373021119909887,0.40321456303012837,-0.30383506501418917,-0.4078307445210862,0.0,0.0,-0.6,0.0,0.0063474178314208984,0
0.7492697238922119,-0.03581662103533745,-0.044355012476444244,-0.39852651953697205,0.06367783373773647,-0.48373021119909887,0.40321456303012837,-0.30383506501418917,-0.4078307445210862,0.0,0.0,-0.6,0.0,0.0012860298156738281,0
0.7604742050170898,-0.03356550261378288,-0.04349201172590256,-0.40588656067848206,0.06391599370217887,-0.4836777882025468,0.2512901478657014,-0.26585913129041816,-0.4091161503773325,0.0,0.0,-0.6,0.0,0.00604248046875,0
0.7730779647827148,-0.03356550261378288,-0.04349201172590256,-0.40588656067848206,0.06391599370217887,-0.4836777882025468,0.2512901478657014,-0.26585913129041816,-0.4091161503773325,0.0,0.0,-0.6,0.0,0.0010502338409423828,0
0.7805600166320801,-0.03225750848650932,-0.043001726269721985,-0.4103367030620575,0.06380585192088552,-0.48429488825173084,0.18878538713949214,-0.22816516213853216,-0.4083852134624866,0.0,0.0,-0.6,0.0,0.004446744918823242,0
0.7902295589447021,-0.03225750848650932,-0.043001726269721985,-0.4103367030620575,0.06380585192088552,-0.48429488825173084,0.18878538713949214,-0.22816516213853216,-0.4083852134624866,0.0,0.0,-0.6,0.0,0.0010688304901123047,0
0.799323558807373,-0.03093200922012329,-0.042538486421108246,-0.4152657389640808,0.06351023534800684,-0.4840140207847443,0.11928499298205718,-0.1721185252376813,-0.4064411234557447,0.0,0.0,-0.6,0.0,0.0049054622650146484,0
0.8099136352539062,-0.03093200922012329,-0.042538486421108246,-0.4152657389640808,0.06351023534800684,-0.4840140207847443,0.11928499298205718,-0.1721185252376813,-0.4064411234557447,0.0,0.0,-0.6,0.0,0.0011429786682128906,0
0.8195271492004395,-0.029353449121117592,-0.04212498664855957,-0.42165178060531616,0.06248792661718765,-0.48488496096784794,0.00045906219389468263,-0.14255014962359586,-0.3998507580195701,0.0,0.0,-0.6,0.0,0.0053212642669677734,0
0.8299765586853027,-0.029353449121117592,-0.04212498664855957,-0.42165178060531616,0.06248792661718765,-0.48488496096784794,0.00045906219389468263,-0.14255014962359586,-0.3998507580195701,0.0,0.0,-0.6,0.0,0.001092672348022461,0
0.8393044471740723,-0.02885792776942253,-0.0420013889670372,-0.42390167713165283,0.061967608876557195,-0.48525242198421525,-0.03087219546397905,-0.13015298899964947,-0.39652093782485837,0.0,0.0,-0.6,0.0,0.004567861557006836,0
0.8494524955749512,-0.02885792776942253,-0.0420013889670372,-0.42390167713165283,0.061967608876557195,-0.48525242198421525,-0.03087219546397905,-0.13015298899964947,-0.39652093782485837,0.0,0.0,-0.6,0.0,0.0011203289031982422,0
0.859356164932251,-0.028005003929138184,-0.04180433973670006,-0.42817291617393494,0.06104312795892205,-0.4856564334531437,-0.05221459938278975,-0.08533178882519202,-0.3905820358774427,0.0,0.0,-0.6,0.0,0.005261421203613281,0
0.8705589771270752,-0.028005003929138184,-0.04180433973670006,-0.42817291617393494,0.06104312795892205,-0.4856564334531437,-0.05221459938278975,-0.08533178882519202,-0.3905820358774427,0.0,0.0,-0.6,0.0,0.0011630058288574219,0
0.8794984817504883,-0.027321776375174522,-0.04162870720028877,-0.4321652948856354,0.060051633849468565,-0.4871059563765253,-0.10755624107651708,-0.08513166163544496,-0.3842874179910736,0.0,0.0,-0.6,0.0,0.00619196891784668,0
0.8926327228546143,-0.027321776375174522,-0.04162870720028877,-0.4321652948856354,0.060051633849468565,-0.4871059563765253,-0.10755624107651708,-0.08513166163544496,-0.3842874179910736,0.0,0.0,-0.6,0.0,0.0013403892517089844,0
0.9011874198913574,-0.026701150462031364,-0.04152049869298935,-0.43597158789634705,0.0588534201611441,-0.4881733220088347,-0.13418944269426433,-0.078898189401922,-0.37666581801251536,0.0,0.0,-0.6,0.0,0.0051958560943603516,0
0.9122271537780762,-0.026701150462031364,-0.04152049869298935,-0.43597158789634705,0.0588534201611441,-0.4881733220088347,-0.13418944269426433,-0.078898189401922,-0.37666581801251536,0.0,0.0,-0.6,0.0,0.0011534690856933594,0
0.9196383953094482,-0.026150256395339966,-0.041415296494960785,-0.4395865499973297,0.05778742796650597,-0.4885013086801814,-0.15572101920306644,-0.023067867246020533,-0.36975114554711697,0.0,0.0,-0.6,0.0,0.005402088165283203,0
0.9309840202331543,-0.026150256395339966,-0.041415296494960785,-0.4395865499973297,0.05778742796650597,-0.4885013086801814,-0.15572101920306644,-0.023067867246020533,-0.36975114554711697,0.0,0.0,-0.6,0.0,0.001216888427734375,0
0.9393103122711182,-0.02568748965859413,-0.04127853363752365,-0.4430066645145416,0.056628116682173886,-0.4885263263207511,-0.20545690664299285,0.010043280695486718,-0.3623239607149509,0.0,0.0,-0.6,0.0,0.006087303161621094,0
0.9518241882324219,-0.02568748965859413,-0.04127853363752365,-0.4430066645145416,0.056628116682173886,-0.4885263263207511,-0.20545690664299285,0.010043280695486718,-0.3623239607149509,0.0,0.0,-0.6,0.0,0.0017781257629394531,0
0.9594347476959229,-0.025261947885155678,-0.041114646941423416,-0.44626837968826294,0.055270874327250016,-0.48879963395538983,-0.23704930468985286,0.05902182770221115,-0.3535812300983736,0.0,0.0,-0.6,0.0,0.005806446075439453,0
0.9710874557495117,-0.025261947885155678,-0.041114646941423416,-0.44626837968826294,0.055270874327250016,-0.48879963395538983,-0.23704930468985286,0.05902182770221115,-0.3535812300983736,0.0,0.0,-0.6,0.0,0.0012090206146240234,0
0.9801843166351318,-0.024590248242020607,-0.0407719649374485,-0.4507502317428589,0.053442114419174166,-0.49084411490036783,-0.21189759886427612,0.09069510717703054,-0.3418164418397777,0.0,0.0,-0.6,0.0,0.004672050476074219,0
0.9898159503936768,-0.024590248242020607,-0.0407719649374485,-0.4507502317428589,0.053442114419174166,-0.49084411490036783,-0.21189759886427612,0.09069510717703054,-0.3418164418397777,0.0,0.0,-0.6,0.0,0.001115560531616211,0
0.9992513656616211,-0.024380017071962357,-0.04063970968127251,-0.4521280527114868,0.05293159037759566,-0.4912165889271325,-0.20068332542870884,0.09130415140307412,-0.3385450780303359,0.0,0.0,-0.6,0.0,0.004190921783447266,0
1.010258436203003,-0.024122728034853935,-0.040477655827999115,-0.45348212122917175,0.05223748543923022,-0.4917653054561215,-0.20449933156447173,0.1128750259385449,-0.3340691603573075,0.0,0.0,-0.6,0.0,0.005576372146606445,0
1.022205114364624,-0.024122728034853935,-0.040477655827999115,-0.45348212122917175,0.05223748543923022,-0.4917653054561215,-0.20449933156447173,0.1128750259385449,-0.3340691603573075,0.0,0.0,-0.6,0.0,0.0013692378997802734,0
1.0306799411773682,-0.023588092997670174,-0.040093518793582916,-0.4560110569000244,0.051008298252833574,-0.49293201585774205,-0.2213249491433407,0.17146628620008575,-0.3261212178126216,0.0,0.0,-0.6,0.0,0.006300449371337891,0
1.0432116985321045,-0.023588092997670174,-0.040093518793582916,-0.4560110569000244,0.051008298252833574,-0.49293201585774205,-0.2213249491433407,0.17146628620008575,-0.3261212178126216,0.0,0.0,-0.6,0.0,0.0011849403381347656,0
1.0514841079711914,-0.02299630641937256,-0.03957142308354378,-0.4586065709590912,0.04934533599683101,-0.4937791416067654,-0.22869833835634673,0.25596189049792256,-0.3153432898006488,0.0,0.0,-0.6,0.0,0.006087064743041992,0
1.0637459754943848,-0.02299630641937256,-0.03957142308354378,-0.4586065709590912,0.04934533599683101,-0.4937791416067654,-0.22869833835634673,0.25596189049792256,-0.3153432898006488,0.0,0.0,-0.6,0.0,0.0011916160583496094,0
1.0731556415557861,-0.022465039044618607,-0.03907610476016998,-0.4605773091316223,0.048052510480129346,-0.49552523435708873,-0.22473181687964963,0.22206812445468901,-0.30718978602987806,0.0,0.0,-0.6,0.0,0.00465083122253418,0
1.0841963291168213,-0.022465039044618607,-0.03907610476016998,-0.4605773091316223,0.048052510480129346,-0.49552523435708873,-0.22473181687964963,0.22206812445468901,-0.30718978602987806,0.0,0.0,-0.6,0.0,0.0013020038604736328,0
1.0928325653076172,-0.02190483547747135,-0.03863203153014183,-0.46207988262176514,0.04661439029094589,-0.4958664050231313,-0.18947727093581196,0.30324895277778696,-0.29778525820107865,0.0,0.0,-0.6,0.0,0.0059549808502197266,0
1.1057939529418945,-0.02190483547747135,-0.03863203153014183,-0.46207988262176514,0.04661439029094589,-0.4958664050231313,-0.18947727093581196,0.30324895277778696,-0.29778525820107865,0.0,0.0,-0.6,0.0,0.0015194416046142578,0
1.1150760650634766,-0.021122027188539505,-0.03786647692322731,-0.4640934467315674,0.044829615057682286,-0.4980307318711401,-0.19198156448076908,0.2925181185917807,-0.286479717866931,0.0,0.0,-0.6,0.0,0.004744529724121094,0
1.1252379417419434,-0.021122027188539505,-0.03786647692322731,-0.4640934467315674,0.044829615057682286,-0.4980307318711401,-0.19198156448076908,0.2925181185917807,-0.286479717866931,0.0,0.0,-0.6,0.0,0.0012214183807373047,0
1.1334481239318848,-0.020853720605373383,-0.037567950785160065,-0.46473366022109985,0.044373462921721785,-0.4988462492264817,-0.15943825485333157,0.2740148210435941,-0.2835406628887979,0.0,0.0,-0.6,0.0,0.004582881927490234,0
1.144193410873413,-0.020354371517896652,-0.0369780957698822,-0.46594366431236267,0.04331405407293929,-0.5004408318509743,-0.09778628790011988,0.2543711369517781,-0.2766893232564774,0.0,0.0,-0.6,0.0,0.0045392513275146484,0
1.1545069217681885,-0.020354371517896652,-0.0369780957698822,-0.46594366431236267,0.04331405407293929,-0.5004408318509743,-0.09778628790011988,0.2543711369517781,-0.2766893232564774,0.0,0.0,-0.6,0.0,0.0011086463928222656,0
1.1614632606506348,-0.01993606798350811,-0.03652556613087654,-0.4668627083301544,0.04229088130811735,-0.5017997166769462,-0.08984793625116995,0.20326692387264658,-0.27024800618921935,0.0,0.0,-0.6,0.0,0.004346132278442383,0
1.1719624996185303,-0.01993606798350811,-0.03652556613087654,-0.4668627083301544,0.04229088130811735,-0.5017997166769462,-0.08984793625116995,0.20326692387264658,-0.27024800618921935,0.0,0.0,-0.6,0.0,0.0011305809020996094,0
1.179291009902954,-0.019720852375030518,-0.03622865304350853,-0.467325359582901,0.04181481403056285,-0.5025655135741455,-0.07666371335597605,0.18732508790433983,-0.2672138446375788,0.0,0.0,-0.6,0.0,0.004534244537353516,0
1.1910178661346436,-0.019341813400387764,-0.0357656367123127,-0.4680335223674774,0.04077484656619957,-0.503242135661218,0.010462897867972974,0.16504907890561077,-0.26045536899133387,0.0,0.0,-0.6,0.0,0.004393577575683594,0
1.2005739212036133,-0.019341813400387764,-0.0357656367123127,-0.4680335223674774,0.04077484656619957,-0.503242135661218,0.010462897867972974,0.16504907890561077,-0.26045536899133387,0.0,0.0,-0.6,0.0,0.0011439323425292969,0
1.2105660438537598,-0.018979961052536964,-0.03517285734415054,-0.4687085747718811,0.039868948412730455,-0.5045832298547391,0.015458029187296917,0.11431733065642707,-0.25474350792913647,0.0,0.0,-0.6,0.0,0.004487276077270508,0
1.2205359935760498,-0.018979961052536964,-0.03517285734415054,-0.4687085747718811,0.039868948412730455,-0.5045832298547391,0.015458029187296917,0.11431733065642707,-0.25474350792913647,0.0,0.0,-0.6,0.0,0.0011289119720458984,0
1.2297260761260986,-0.018675094470381737,-0.034643035382032394,-0.4692305326461792,0.03882650496968559,-0.5051373271574628,0.03462224558953335,0.028838961544097114,-0.248141928982214,0.0,0.0,-0.6,0.0,0.0041637420654296875,0
1.2403204441070557,-0.018506789579987526,-0.03434421494603157,-0.46948105096817017,0.03831414105548843,-0.5056201977126071,0.04918286753575509,0.029414082620383728,-0.24486114549096027,0.0,0.0,-0.6,0.0,0.004387378692626953,0
1.2495837211608887,-0.018506789579987526,-0.03434421494603157,-0.46948105096817017,0.03831414105548843,-0.5056201977126071,0.04918286753575509,0.029414082620383728,-0.24486114549096027,0.0,0.0,-0.6,0.0,0.0011169910430908203,0
1.2592320442199707,-0.018162785097956657,-0.033666498959064484,-0.4699116349220276,0.03732049530697631,-0.5062982170869476,0.023521799494876917,0.03215915501401707,-0.23855982940288895,0.0,0.0,-0.6,0.0,0.00536656379699707,0
1.2702746391296387,-0.018162785097956657,-0.033666498959064484,-0.4699116349220276,0.03732049530697631,-0.5062982170869476,0.023521799494876917,0.03215915501401707,-0.23855982940288895,0.0,0.0,-0.6,0.0,0.0010597705841064453,0
1.279205560684204,-0.01783265918493271,-0.03294466808438301,-0.47023072838783264,0.03612275472138676,-0.5062633695625552,0.05654209294529845,-0.012557132714542878,-0.23090702038530828,0.0,0.0,-0.6,0.0,0.0044934749603271484,0
1.2906677722930908,-0.017687320709228516,-0.03258836269378662,-0.47037097811698914,0.03561343492993914,-0.5060368568983611,0.08320753858487832,-0.045653037607699266,-0.2276504839949823,0.0,0.0,-0.6,0.0,0.00463557243347168,0
1.300663709640503,-0.017687320709228516,-0.03258836269378662,-0.47037097811698914,0.03561343492993914,-0.5060368568983611,0.08320753858487832,-0.045653037607699266,-0.2276504839949823,0.0,0.0,-0.6,0.0,0.0010685920715332031,0
1.3092529773712158,-0.01746833510696888,-0.031853266060352325,-0.47059792280197144,0.03454787528737904,-0.5069756158942335,0.11332212873577709,-0.1130294490812771,-0.22085803098024806,0.0,0.0,-0.6,0.0,0.004689693450927734,0
1.3193213939666748,-0.01746833510696888,-0.031853266060352325,-0.47059792280197144,0.03454787528737904,-0.5069756158942335,0.11332212873577709,-0.1130294490812771,-0.22085803098024806,0.0,0.0,-0.6,0.0,0.00115203857421875,0
1.3293282985687256,-0.017324550077319145,-0.03112715482711792,-0.47076714038848877,0.03355586136789185,-0.5077272070985296,0.08513117608348168,-0.1747726139479285,-0.2145616202692124,0.0,0.0,-0.6,0.0,0.005360603332519531,0
1.33988356590271,-0.017324550077319145,-0.03112715482711792,-0.47076714038848877,0.03355586136789185,-0.5077272070985296,0.08513117608348168,-0.1747726139479285,-0.2145616202692124,0.0,0.0,-0.6,0.0,0.0011930465698242188,0
1.3494350910186768,-0.01726902462542057,-0.030442535877227783,-0.4709014296531677,0.032570593285093985,-0.5082272022251728,0.025716485177199228,-0.21811951621894915,-0.2082928440941969,0.0,0.0,-0.6,0.0,0.005377769470214844,0
1.3600795269012451,-0.01726902462542057,-0.030442535877227783,-0.4709014296531677,0.032570593285093985,-0.5082272022251728,0.025716485177199228,-0.21811951621894915,-0.2082928440941969,0.0,0.0,-0.6,0.0,0.0011138916015625,0
1.3706989288330078,-0.017201464623212814,-0.029798001050949097,-0.4710410535335541,0.03161187519439042,-0.5071742157798196,0.029023579770208488,-0.20687976337989603,-0.2021937891818506,0.0,0.0,-0.6,0.0,0.004575490951538086,0
1.3805058002471924,-0.017201464623212814,-0.029798001050949097,-0.4710410535335541,0.03161187519439042,-0.5071742157798196,0.029023579770208488,-0.20687976337989603,-0.2021937891818506,0.0,0.0,-0.6,0.0,0.0010912418365478516,0
1.3894124031066895,-0.01711423508822918,-0.029067909345030785,-0.47116324305534363,0.030740524532783583,-0.5078521946275973,0.05315166540938144,-0.2107698943707546,-0.19664730807106887,0.0,0.0,-0.6,0.0,0.005463600158691406,0
1.400266408920288,-0.01711423508822918,-0.029067909345030785,-0.47116324305534363,0.030740524532783583,-0.5078521946275973,0.05315166540938144,-0.2107698943707546,-0.19664730807106887,0.0,0.0,-0.6,0.0,0.0010933876037597656,0
1.4093408584594727,-0.01705384999513626,-0.02869994007050991,-0.4712216556072235,0.03038709150673727,-0.5081606743227275,0.03513847153255919,-0.21193601140871748,-0.19439912960390457,0.0,0.0,-0.6,0.0,0.004330635070800781,0
1.419835090637207,-0.016991281881928444,-0.028333323076367378,-0.4713003635406494,0.030091794485092537,-0.5084093745453941,0.0008072149361690201,-0.20241190438033554,-0.19251642878147057,0.0,0.0,-0.6,0.0,0.005556821823120117,0
1.4312572479248047,-0.016830459237098694,-0.027697857469320297,-0.4715080261230469,0.02943751121844123,-0.5074008989381285,-0.017633307816939222,-0.2035607384412514,-0.1883548250085065,0.0,0.0,-0.6,0.0,0.005122661590576172,0
1.4419817924499512,-0.016830459237098694,-0.027697857469320297,-0.4715080261230469,0.02943751121844123,-0.5074008989381285,-0.017633307816939222,-0.2035607384412514,-0.1883548250085065,0.0,0.0,-0.6,0.0,0.00106048583984375,0
1.4495880603790283,-0.016742940992116928,-0.0273686982691288,-0.4716527760028839,0.029145604953824913,-0.5074736539820848,-0.018502480461964534,-0.1775162240210389,-0.18648090673116202,0.0,0.0,-0.6,0.0,0.0045185089111328125,0
1.4601736068725586,-0.016591232270002365,-0.02674606628715992,-0.4720020294189453,0.028678373919618014,-0.506758254830864,-0.015687967795503893,-0.13629317076242894,-0.18347383915404789,0.0,0.0,-0.6,0.0,0.00439000129699707,0
1.47060227394104,-0.016591232270002365,-0.02674606628715992,-0.4720020294189453,0.028678373919618014,-0.506758254830864,-0.015687967795503893,-0.13629317076242894,-0.18347383915404789,0.0,0.0,-0.6,0.0,0.0011188983917236328,0
1.4797334671020508,-0.016462676227092743,-0.026220206171274185,-0.4723292291164398,0.028292031296021466,-0.5064474942664919,-0.005820662888357002,-0.10222231387710141,-0.1809778679719742,0.0,0.0,-0.6,0.0,0.0053141117095947266,0
1.4919672012329102,-0.016462676227092743,-0.026220206171274185,-0.4723292291164398,0.028292031296021466,-0.5064474942664919,-0.005820662888357002,-0.10222231387710141,-0.1809778679719742,0.0,0.0,-0.6,0.0,0.0011332035064697266,0
1.5000617504119873,-0.01646381802856922,-0.025684356689453125,-0.47269460558891296,0.02793899741801807,-0.5057009063922657,-0.019354653312408696,-0.0647520294653472,-0.17870226469205203,0.0,0.0,-0.6,0.0,0.004590034484863281,0
1.5101208686828613,-0.01646381802856922,-0.025684356689453125,-0.47269460558891296,0.02793899741801807,-0.5057009063922657,-0.019354653312408696,-0.0647520294653472,-0.17870226469205203,0.0,0.0,-0.6,0.0,0.0010290145874023438,0
1.5192065238952637,-0.016441820189356804,-0.02521524392068386,-0.4730638861656189,0.027596005026979047,-0.5061324729158677,-0.055423750532360413,-0.06185647086596604,-0.1765503139202834,0.0,0.0,-0.6,0.0,0.006088972091674805,0
1.5310053825378418,-0.016441820189356804,-0.02521524392068386,-0.4730638861656189,0.027596005026979047,-0.5061324729158677,-0.055423750532360413,-0.06185647086596604,-0.1765503139202834,0.0,0.0,-0.6,0.0,0.0011746883392333984,0
1.539942979812622,-0.016442010179162025,-0.02447596937417984,-0.4736000895500183,0.027162011658465466,-0.5062872772274809,-0.026460426449218262,0.024200223578199193,-0.17365704026417803,0.0,0.0,-0.6,0.0,0.0053098201751708984,0
1.5504934787750244,-0.016442010179162025,-0.02447596937417984,-0.4736000895500183,0.027162011658465466,-0.5062872772274809,-0.026460426449218262,0.024200223578199193,-0.17365704026417803,0.0,0.0,-0.6,0.0,0.00106048583984375,0
1.5595018863677979,-0.016510900110006332,-0.024006327614188194,-0.4739736020565033,0.027163366930911925,-0.5056452446493903,-0.02126446894140952,0.07365619906550043,-0.173607595909725,0.0,0.0,-0.6,0.0,0.005259990692138672,0
1.5729169845581055,-0.016510900110006332,-0.024006327614188194,-0.4739736020565033,0.027163366930911925,-0.5056452446493903,-0.02126446894140952,0.07365619906550043,-0.173607595909725,0.0,0.0,-0.6,0.0,0.0013959407806396484,0
1.5816044807434082,-0.016651369631290436,-0.023553797975182533,-0.47436612844467163,0.026848527856347948,-0.5055788591627766,0.011026520649138373,0.09630890101448711,-0.1715050137925484,0.0,0.0,-0.6,0.0,0.00471186637878418,0
1.5935018062591553,-0.016651369631290436,-0.023553797975182533,-0.47436612844467163,0.026848527856347948,-0.5055788591627766,0.011026520649138373,0.09630890101448711,-0.1715050137925484,0.0,0.0,-0.6,0.0,0.0015239715576171875,0
1.6025471687316895,-0.01681225188076496,-0.02314814180135727,-0.47469562292099,0.026751255862337137,-0.5065230590822766,-0.004469368893818855,0.05851627875891117,-0.1709477672512454,0.0,0.0,-0.6,0.0,0.00637054443359375,0
1.615682601928711,-0.01681225188076496,-0.02314814180135727,-0.47469562292099,0.026751255862337137,-0.5065230590822766,-0.004469368893818855,0.05851627875891117,-0.1709477672512454,0.0,0.0,-0.6,0.0,0.0016162395477294922,0
1.6245322227478027,-0.016868598759174347,-0.022913116961717606,-0.47487688064575195,0.026768112229326,-0.5063517339376267,-0.023239061020197318,0.06239099103525922,-0.17109265723144468,0.0,0.0,-0.6,0.0,0.005236148834228516,0
1.6377394199371338,-0.017010048031806946,-0.022457648068666458,-0.47524064779281616,0.026736115238930602,-0.5061628951170168,-0.06628348980889304,0.08534425667326527,-0.17096185198228858,0.0,0.0,-0.6,0.0,0.0042781829833984375,0
1.6479852199554443,-0.01709160767495632,-0.02223142422735691,-0.4754200875759125,0.026609560788765283,-0.5058167872289696,-0.08902167422716083,0.10613020049276987,-0.1701815039120893,0.0,0.0,-0.6,0.0,0.005522012710571289,0
1.660782814025879,-0.01709160767495632,-0.02223142422735691,-0.4754200875759125,0.026609560788765283,-0.5058167872289696,-0.08902167422716083,0.10613020049276987,-0.1701815039120893,0.0,0.0,-0.6,0.0,0.0015511512756347656,0
1.6700618267059326,-0.01725280098617077,-0.021771984174847603,-0.47577887773513794,0.02642259327468597,-0.505546473428051,-0.07974248346859912,0.12436167055226148,-0.1689462604295532,0.0,0.0,-0.6,0.0,0.004262208938598633,0
1.6825377941131592,-0.017329640686511993,-0.021545931696891785,-0.475957453250885,0.026384680822592998,-0.5057031524075928,-0.08127708427165473,0.1262607377040368,-0.16870568190972035,0.0,0.0,-0.6,0.0,0.004171133041381836,0
1.6932241916656494,-0.017329640686511993,-0.021545931696891785,-0.475957453250885,0.026384680822592998,-0.5057031524075928,-0.08127708427165473,0.1262607377040368,-0.16870568190972035,0.0,0.0,-0.6,0.0,0.0013475418090820312,0
1.7026138305664062,-0.017536455765366554,-0.020925406366586685,-0.47656771540641785,0.02641636204610342,-0.5058394997690845,-0.043877285609529165,0.05220436971977131,-0.16890521498379873,0.0,0.0,-0.6,0.0,0.006403684616088867,0
1.7152068614959717,-0.017536455765366554,-0.020925406366586685,-0.47656771540641785,0.02641636204610342,-0.5058394997690845,-0.043877285609529165,0.05220436971977131,-0.16890521498379873,0.0,0.0,-0.6,0.0,0.0013778209686279297,0
1.7247858047485352,-0.017677834257483482,-0.02059333212673664,-0.47701185941696167,0.026372980280924357,-0.505156984721369,-0.01213449923620896,0.08394291996948217,-0.16852739866519592,0.0,0.0,-0.6,0.0,0.005138874053955078,0
1.7365186214447021,-0.017677834257483482,-0.02059333212673664,-0.47701185941696167,0.026372980280924357,-0.505156984721369,-0.01213449923620896,0.08394291996948217,-0.16852739866519592,0.0,0.0,-0.6,0.0,0.001787424087524414,0
1.7446036338806152,-0.01778266206383705,-0.02030923031270504,-0.47745564579963684,0.02630123489950665,-0.5050561889170256,-0.011976325383218953,0.12787580226598638,-0.1680324899291763,0.0,0.0,-0.6,0.0,0.005652666091918945,0
1.7565515041351318,-0.01778266206383705,-0.02030923031270504,-0.47745564579963684,0.02630123489950665,-0.5050561889170256,-0.011976325383218953,0.12787580226598638,-0.1680324899291763,0.0,0.0,-0.6,0.0,0.001428842544555664,0
1.7658822536468506,-0.017917513847351074,-0.020022405311465263,-0.47782614827156067,0.026217586113680302,-0.5050626501887037,-0.022022529317112353,0.1097665771875237,-0.1675443615016158,0.0,0.0,-0.6,0.0,0.0054225921630859375,0
1.777893304824829,-0.017917513847351074,-0.020022405311465263,-0.47782614827156067,0.026217586113680302,-0.5050626501887037,-0.022022529317112353,0.1097665771875237,-0.1675443615016158,0.0,0.0,-0.6,0.0,0.0014147758483886719,0
1.787428379058838,-0.017989186570048332,-0.01978515274822712,-0.4781998097896576,0.02608927709423636,-0.5042484139923635,-0.00239069799453312,0.06703383316448984,-0.1667259290863081,0.0,0.0,-0.6,0.0,0.004986763000488281,0
1.799814224243164,-0.017989186570048332,-0.01978515274822712,-0.4781998097896576,0.02608927709423636,-0.5042484139923635,-0.00239069799453312,0.06703383316448984,-0.1667259290863081,0.0,0.0,-0.6,0.0,0.0015110969543457031,0
1.811006784439087,-0.01801859401166439,-0.01955490931868553,-0.4785690903663635,0.026032821496189094,-0.5045995333714804,0.02521564874475137,0.06894623597263116,-0.16631443485565764,0.0,0.0,-0.6,0.0,0.0052335262298583984,0
1.8227999210357666,-0.01801859401166439,-0.01955490931868553,-0.4785690903663635,0.026032821496189094,-0.5045995333714804,0.02521564874475137,0.06894623597263116,-0.16631443485565764,0.0,0.0,-0.6,0.0,0.0013217926025390625,0
1.8319740295410156,-0.018017811700701714,-0.019309503957629204,-0.47895440459251404,0.025970683323988313,-0.5051006000902808,0.03910910878403189,0.09672647956230117,-0.16587576934145895,0.0,0.0,-0.6,0.0,0.006181240081787109,0
1.8444788455963135,-0.018017811700701714,-0.019309503957629204,-0.47895440459251404,0.025970683323988313,-0.5051006000902808,0.03910910878403189,0.09672647956230117,-0.16587576934145895,0.0,0.0,-0.6,0.0,0.001146078109741211,0
1.8522825241088867,-0.018096258863806725,-0.01900300569832325,-0.4795880615711212,0.02577172660626359,-0.5037244893125123,0.061605812426550555,0.07104133048462587,-0.1645877827599372,0.0,0.0,-0.6,0.0,0.004624366760253906,0
1.864488124847412,-0.018096258863806725,-0.01900300569832325,-0.4795880615711212,0.02577172660626359,-0.5037244893125123,0.061605812426550555,0.07104133048462587,-0.1645877827599372,0.0,0.0,-0.6,0.0,0.0010638236999511719,0
1.872194766998291,-0.018096258863806725,-0.01900300569832325,-0.4795880615711212,0.02577172660626359,-0.5037244893125123,0.061605812426550555,0.07104133048462587,-0.1645877827599372,0.0,0.0,-0.6,0.0,0.0013082027435302734,0
1.8803598880767822,-0.018148429691791534,-0.01875253953039646,-0.4800265431404114,0.025702204656200055,-0.5045800000465133,0.022971439902699755,0.07375603275951047,-0.16422053427071012,0.0,0.0,-0.6,0.0,0.0054891109466552734,0
1.8917787075042725,-0.018148429691791534,-0.01875253953039646,-0.4800265431404114,0.025702204656200055,-0.5045800000465133,0.022971439902699755,0.07375603275951047,-0.16422053427071012,0.0,0.0,-0.6,0.0,0.0010905265808105469,0
1.8998525142669678,-0.018220456317067146,-0.018506567925214767,-0.48048168420791626,0.02552560668415622,-0.5036976540707063,0.016139293882454494,0.04697449773628405,-0.16312349739169876,0.0,0.0,-0.6,0.0,0.004342317581176758,0
1.9098584651947021,-0.018220456317067146,-0.018506567925214767,-0.48048168420791626,0.02552560668415622,-0.5036976540707063,0.016139293882454494,0.04697449773628405,-0.16312349739169876,0.0,0.0,-0.6,0.0,0.0010254383087158203,0
1.9193148612976074,-0.018213573843240738,-0.018369492143392563,-0.480724960565567,0.02549831842080506,-0.5034910786350654,0.01591902457349842,0.031961631729934756,-0.1629613197658468,0.0,0.0,-0.6,0.0,0.004416465759277344,0
1.9312405586242676,-0.018212277442216873,-0.018116792663931847,-0.48119640350341797,0.025481476331106073,-0.5038553326094174,-0.0019018661859148446,0.020979407577528343,-0.16289364083567912,0.0,0.0,-0.6,0.0,0.00467228889465332,0
1.9408273696899414,-0.018212277442216873,-0.018116792663931847,-0.48119640350341797,0.025481476331106073,-0.5038553326094174,-0.0019018661859148446,0.020979407577528343,-0.16289364083567912,0.0,0.0,-0.6,0.0,0.0010449886322021484,0
1.9493544101715088,-0.0182084608823061,-0.01784726418554783,-0.4816057085990906,0.025389750832511274,-0.5036398154666691,0.03217653558282792,0.021619260701916342,-0.16226086974612153,0.0,0.0,-0.6,0.0,0.005270481109619141,0
1.9595613479614258,-0.0182084608823061,-0.01784726418554783,-0.4816057085990906,0.025389750832511274,-0.5036398154666691,0.03217653558282792,0.021619260701916342,-0.16226086974612153,0.0,0.0,-0.6,0.0,0.0010848045349121094,0
1.97031831741333,-0.018321815878152847,-0.017603669315576553,-0.48199009895324707,0.025388259791700136,-0.5043187558369655,-0.04948867631290011,0.007389108762473958,-0.16238796467541758,0.0,0.0,-0.6,0.0,0.006112098693847656,0
1.9821958541870117,-0.018321815878152847,-0.017603669315576553,-0.48199009895324707,0.025388259791700136,-0.5043187558369655,-0.04948867631290011,0.007389108762473958,-0.16238796467541758,0.0,0.0,-0.6,0.0,0.0011448860168457031,0
1.989654779434204,-0.018428057432174683,-0.01736384443938732,-0.4822947382926941,0.025399438236330212,-0.5038762937267742,-0.04233795952953296,-0.03448233257328491,-0.16249738384228715,0.0,0.0,-0.6,0.0,0.0043179988861083984,0
2.000826835632324,-0.018500031903386116,-0.017267893999814987,-0.48244547843933105,0.02541378206678935,-0.504383306064974,-0.05085099370317563,-0.026248830324342515,-0.16259181007849724,0.0,0.0,-0.6,0.0,0.004540681838989258,0
2.010267496109009,-0.018500031903386116,-0.017267893999814987,-0.48244547843933105,0.02541378206678935,-0.504383306064974,-0.05085099370317563,-0.026248830324342515,-0.16259181007849724,0.0,0.0,-0.6,0.0,0.0010805130004882812,0
2.019371509552002,-0.01861962489783764,-0.01711968146264553,-0.4826967418193817,0.02545177260181704,-0.5044974291908978,-0.05507478823195808,-0.0538293958040178,-0.16287806611038017,0.0,0.0,-0.6,0.0,0.0044782161712646484,0
2.0312819480895996,-0.018719734624028206,-0.017033640295267105,-0.4828062057495117,0.025507312762960494,-0.5046513102069201,-0.07630464039150119,-0.06594636970563432,-0.16327622716874327,0.0,0.0,-0.6,0.0,0.0047969818115234375,0
2.0411007404327393,-0.018719734624028206,-0.017033640295267105,-0.4828062057495117,0.025507312762960494,-0.5046513102069201,-0.07630464039150119,-0.06594636970563432,-0.16327622716874327,0.0,0.0,-0.6,0.0,0.0011601448059082031,0
2.049316167831421,-0.01896016299724579,-0.01690012589097023,-0.48301222920417786,0.025695939643692566,-0.5037893029911938,-0.09297518324808712,-0.06875463954631468,-0.16451247477128503,0.0,0.0,-0.6,0.0,0.004258394241333008,0
2.0599918365478516,-0.019074324518442154,-0.01682865247130394,-0.48308438062667847,0.025797470897472724,-0.5041943473494418,-0.09269829126263002,-0.07855322203005338,-0.16517779747850217,0.0,0.0,-0.6,0.0,0.004342555999755859,0
2.0702855587005615,-0.019074324518442154,-0.01682865247130394,-0.48308438062667847,0.025797470897472724,-0.5041943473494418,-0.09269829126263002,-0.07855322203005338,-0.16517779747850217,0.0,0.0,-0.6,0.0,0.0010828971862792969,0
2.079439401626587,-0.01943049766123295,-0.01669781655073166,-0.483075350522995,0.025878834318863127,-0.5063411735011765,-0.0807930895715165,-0.1228420179554321,-0.16575612455016633,0.0,0.0,-0.6,0.0,0.005728483200073242,0
2.090446710586548,-0.01943049766123295,-0.01669781655073166,-0.483075350522995,0.025878834318863127,-0.5063411735011765,-0.0807930895715165,-0.1228420179554321,-0.16575612455016633,0.0,0.0,-0.6,0.0,0.001132965087890625,0
2.0992751121520996,-0.01982690766453743,-0.016564344987273216,-0.482960969209671,0.026171131517927403,-0.5072521352840876,-0.10342976783132626,-0.1744623215366678,-0.16772823622841068,0.0,0.0,-0.6,0.0,0.0056304931640625,0
2.1100144386291504,-0.01982690766453743,-0.016564344987273216,-0.482960969209671,0.026171131517927403,-0.5072521352840876,-0.10342976783132626,-0.1744623215366678,-0.16772823622841068,0.0,0.0,-0.6,0.0,0.0011632442474365234,0
2.119320869445801,-0.020307421684265137,-0.016426311805844307,-0.48275455832481384,0.026408228908951396,-0.5080318110361721,-0.14654303542946556,-0.21215661878811864,-0.169337415511097,0.0,0.0,-0.6,0.0,0.005328655242919922,0
2.1300034523010254,-0.020307421684265137,-0.016426311805844307,-0.48275455832481384,0.026408228908951396,-0.5080318110361721,-0.14654303542946556,-0.21215661878811864,-0.169337415511097,0.0,0.0,-0.6,0.0,0.0011239051818847656,0
2.139509916305542,-0.02083786204457283,-0.01628750003874302,-0.4824531376361847,0.02640620900841883,-0.507715743243504,-0.1303706011253782,-0.18111367754560304,-0.16926317499025392,0.0,0.0,-0.6,0.0,0.005400180816650391,0
2.1500957012176514,-0.02083786204457283,-0.01628750003874302,-0.4824531376361847,0.02640620900841883,-0.507715743243504,-0.1303706011253782,-0.18111367754560304,-0.16926317499025392,0.0,0.0,-0.6,0.0,0.0011072158813476562,0
2.159715175628662,-0.02145317755639553,-0.01612774282693863,-0.48207783699035645,0.026345528396833063,-0.5080469429138242,-0.11974019172483799,-0.17540833699059616,-0.16886109660605678,0.0,0.0,-0.6,0.0,0.004601955413818359,0
2.1699657440185547,-0.02145317755639553,-0.01612774282693863,-0.48207783699035645,0.026345528396833063,-0.5080469429138242,-0.11974019172483799,-0.17540833699059616,-0.16886109660605678,0.0,0.0,-0.6,0.0,0.0011262893676757812,0
2.179267406463623,-0.022022174671292305,-0.015925608575344086,-0.48166751861572266,0.026286352028300833,-0.5082478694687028,-0.10838210380553391,-0.2049529149555149,-0.16851488161544387,0.0,0.0,-0.6,0.0,0.005652904510498047,0
2.1903600692749023,-0.022022174671292305,-0.015925608575344086,-0.48166751861572266,0.026286352028300833,-0.5082478694687028,-0.10838210380553391,-0.2049529149555149,-0.16851488161544387,0.0,0.0,-0.6,0.0,0.0010924339294433594,0
2.1991641521453857,-0.022617217153310776,-0.015791654586791992,-0.4812000095844269,0.02611060885548243,-0.5090843706096406,-0.0751668225313406,-0.19798024558032837,-0.16733087589699888,0.0,0.0,-0.6,0.0,0.004526853561401367,0
2.2101011276245117,-0.022865260019898415,-0.015759579837322235,-0.48102644085884094,0.026048981461297274,-0.5085308814055285,-0.06697119167471025,-0.17758798273895385,-0.1668881922749525,0.0,0.0,-0.6,0.0,0.004444122314453125,0
2.219682455062866,-0.022865260019898415,-0.015759579837322235,-0.48102644085884094,0.026048981461297274,-0.5085308814055285,-0.06697119167471025,-0.17758798273895385,-0.1668881922749525,0.0,0.0,-0.6,0.0,0.0010874271392822266,0
2.2292497158050537,-0.02310391329228878,-0.01573358289897442,-0.48086240887641907,0.025928818130189765,-0.5080894015705876,-0.05002924274652153,-0.15289168155195906,-0.16605820700560203,0.0,0.0,-0.6,0.0,0.004669904708862305,0
2.240116596221924,-0.023467164486646652,-0.015608440153300762,-0.4806208908557892,0.025691523753468178,-0.5084297689950279,-0.05196968702960233,-0.14776301487005586,-0.16451148446585112,0.0,0.0,-0.6,0.0,0.005606412887573242,0
2.251415967941284,-0.023467164486646652,-0.015608440153300762,-0.4806208908557892,0.025691523753468178,-0.5084297689950279,-0.05196968702960233,-0.14776301487005586,-0.16451148446585112,0.0,0.0,-0.6,0.0,0.0010919570922851562,0
2.259838104248047,-0.02390298992395401,-0.015477019362151623,-0.4803922474384308,0.025522580097253684,-0.5074181768704854,-0.051488516766051644,-0.1172967453457103,-0.16338185999438162,0.0,0.0,-0.6,0.0,0.00424504280090332,0
2.2699697017669678,-0.02390298992395401,-0.015477019362151623,-0.4803922474384308,0.025522580097253684,-0.5074181768704854,-0.051488516766051644,-0.1172967453457103,-0.16338185999438162,0.0,0.0,-0.6,0.0,0.0010943412780761719,0
2.279356002807617,-0.024266095831990242,-0.01532830111682415,-0.4803030490875244,0.025296853184414464,-0.5063180234592736,0.020949699245217137,-0.05295120151009143,-0.16174894047715196,0.0,0.0,-0.6,0.0,0.005922555923461914,0
2.2906453609466553,-0.024266095831990242,-0.01532830111682415,-0.4803030490875244,0.025296853184414464,-0.5063180234592736,0.020949699245217137,-0.05295120151009143,-0.16174894047715196,0.0,0.0,-0.6,0.0,0.0011944770812988281,0
2.2992401123046875,-0.024730093777179718,-0.015132785774767399,-0.4802536070346832,0.025104928725106782,-0.5050891180935106,-0.007914366233931606,-0.026604991396276242,-0.16054358419059694,0.0,0.0,-0.6,0.0,0.004662513732910156,0
2.3109049797058105,-0.02495443820953369,-0.01502966694533825,-0.4802697002887726,0.025022667049088954,-0.5047125898890756,-0.009409756062265406,-0.021557521805461496,-0.16001244853259353,0.0,0.0,-0.6,0.0,0.004387617111206055,0
2.320293664932251,-0.02495443820953369,-0.01502966694533825,-0.4802697002887726,0.025022667049088954,-0.5047125898890756,-0.009409756062265406,-0.021557521805461496,-0.16001244853259353,0.0,0.0,-0.6,0.0,0.0010595321655273438,0
2.3292760848999023,-0.02532176300883293,-0.014792107045650482,-0.4804055988788605,0.024731028714591367,-0.5041032157699029,-0.007664510438458394,0.025329238202704853,-0.15810695772951067,0.0,0.0,-0.6,0.0,0.004295825958251953,0
2.339823007583618,-0.025541413575410843,-0.01467460673302412,-0.48049551248550415,0.02462490301588502,-0.5040196687895331,0.016836232437316863,0.032200883353537504,-0.15736671970304977,0.0,0.0,-0.6,0.0,0.004502058029174805,0
2.351065158843994,-0.02576598897576332,-0.014554736204445362,-0.48059260845184326,0.024509917949125902,-0.5041505794188726,0.020023549320745425,0.031112666228606214,-0.15662228857217675,0.0,0.0,-0.6,0.0,0.004509449005126953,0
2.3611674308776855,-0.026106400415301323,-0.01431525219231844,-0.4808324873447418,0.024144721772785854,-0.5032347945561471,0.025873987802791244,0.059579616595762976,-0.15424970866055931,0.0,0.0,-0.6,0.0,0.004324674606323242,0
2.3712027072906494,-0.026106400415301323,-0.01431525219231844,-0.4808324873447418,0.024144721772785854,-0.5032347945561471,0.025873987802791244,0.059579616595762976,-0.15424970866055931,0.0,0.0,-0.6,0.0,0.001153707504272461,0
2.3800055980682373,-0.026523182168602943,-0.014059669338166714,-0.48111197352409363,0.023927053204337013,-0.5032556854015735,0.03132605159185005,0.06341947400209066,-0.15283810234346124,0.0,0.0,-0.6,0.0,0.004514217376708984,0
2.3897721767425537,-0.026523182168602943,-0.014059669338166714,-0.48111197352409363,0.023927053204337013,-0.5032556854015735,0.03132605159185005,0.06341947400209066,-0.15283810234346124,0.0,0.0,-0.6,0.0,0.001115560531616211,0
2.3992905616760254,-0.026873018592596054,-0.013816292397677898,-0.48136022686958313,0.02378606631094296,-0.5037845206472381,0.0029081257326155634,0.06545285711813273,-0.15200979954173152,0.0,0.0,-0.6,0.0,0.004441499710083008,0
2.4093527793884277,-0.026873018592596054,-0.013816292397677898,-0.48136022686958313,0.02378606631094296,-0.5037845206472381,0.0029081257326155634,0.06545285711813273,-0.15200979954173152,0.0,0.0,-0.6,0.0,0.0012011528015136719,0
2.4196279048919678,-0.027243439108133316,-0.013582480140030384,-0.4816827178001404,0.02358275476631631,-0.5023854951798601,0.0396296278564002,0.09887857423825484,-0.15059219479645797,0.0,0.0,-0.6,0.0,0.004534244537353516,0
2.429292917251587,-0.027243439108133316,-0.013582480140030384,-0.4816827178001404,0.02358275476631631,-0.5023854951798601,0.0396296278564002,0.09887857423825484,-0.15059219479645797,0.0,0.0,-0.6,0.0,0.0011103153228759766,0
2.4393811225891113,-0.027536286041140556,-0.013423069380223751,-0.4819999635219574,0.023373188520336208,-0.5031112589738292,0.007815385044037731,0.08253292000072249,-0.14934980573923917,0.0,0.0,-0.6,0.0,0.004104137420654297,0
2.45015287399292,-0.027707193046808243,-0.013321773149073124,-0.4821666181087494,0.02318399614639297,-0.5026896924364728,-0.007379489343190018,0.07521096884120879,-0.14818564204265317,0.0,0.0,-0.6,0.0,0.004665374755859375,0
2.460338592529297,-0.027707193046808243,-0.013321773149073124,-0.4821666181087494,0.02318399614639297,-0.5026896924364728,-0.007379489343190018,0.07521096884120879,-0.14818564204265317,0.0,0.0,-0.6,0.0,0.0010650157928466797,0
2.4706175327301025,-0.0280511062592268,-0.013078276067972183,-0.4824462831020355,0.0229304994490193,-0.5026914658003643,-0.05411675773069152,0.09428954702520372,-0.14667967350690178,0.0,0.0,-0.6,0.0,0.004384279251098633,0
2.480473279953003,-0.0280511062592268,-0.013078276067972183,-0.4824462831020355,0.0229304994490193,-0.5026914658003643,-0.05411675773069152,0.09428954702520372,-0.14667967350690178,0.0,0.0,-0.6,0.0,0.0011029243469238281,0
2.489406108856201,-0.028370127081871033,-0.012733232229948044,-0.4827114939689636,0.02276727516312315,-0.5028589426649891,-0.022492635494289186,0.09707938480238161,-0.1455503312628343,0.0,0.0,-0.6,0.0,0.0044863224029541016,0
2.4994916915893555,-0.028370127081871033,-0.012733232229948044,-0.4827114939689636,0.02276727516312315,-0.5028589426649891,-0.022492635494289186,0.09707938480238161,-0.1455503312628343,0.0,0.0,-0.6,0.0,0.0012595653533935547,0
2.5093698501586914,-0.028676766902208328,-0.012371235527098179,-0.4829306900501251,0.02270920878033065,-0.5032026048521703,-0.000292790532540959,0.07436909228739035,-0.1451380718312652,0.0,0.0,-0.6,0.0,0.004531145095825195,0
2.519422769546509,-0.028676766902208328,-0.012371235527098179,-0.4829306900501251,0.02270920878033065,-0.5032026048521703,-0.000292790532540959,0.07436909228739035,-0.1451380718312652,0.0,0.0,-0.6,0.0,0.001142263412475586,0
2.5294301509857178,-0.02893916890025139,-0.012011651881039143,-0.48312339186668396,0.02256979207034999,-0.5036835832137022,-0.054215112067119736,0.044337726485979397,-0.14439685852683012,0.0,0.0,-0.6,0.0,0.00531768798828125,0
2.5402090549468994,-0.02893916890025139,-0.012011651881039143,-0.48312339186668396,0.02256979207034999,-0.5036835832137022,-0.054215112067119736,0.044337726485979397,-0.14439685852683012,0.0,0.0,-0.6,0.0,0.0011668205261230469,0
2.5499517917633057,-0.029132820665836334,-0.011703060939908028,-0.48326224088668823,0.02259757231626138,-0.503473154644401,-0.0670694235165634,0.05984086699233703,-0.14458777867569447,0.0,0.0,-0.6,0.0,0.004387855529785156,0
2.559422016143799,-0.029132820665836334,-0.011703060939908028,-0.48326224088668823,0.02259757231626138,-0.503473154644401,-0.0670694235165634,0.05984086699233703,-0.14458777867569447,0.0,0.0,-0.6,0.0,0.0011298656463623047,0
2.570361852645874,-0.029295368120074272,-0.011458311229944229,-0.4833800494670868,0.022657912890183606,-0.5031098288928099,-0.05915655480408306,0.0682368140589451,-0.14494625698542674,0.0,0.0,-0.6,0.0,0.00455474853515625,0
2.580167770385742,-0.029295368120074272,-0.011458311229944229,-0.4833800494670868,0.022657912890183606,-0.5031098288928099,-0.05915655480408306,0.0682368140589451,-0.14494625698542674,0.0,0.0,-0.6,0.0,0.0011410713195800781,0
2.5894320011138916,-0.02939959242939949,-0.011209431104362011,-0.48348239064216614,0.022815239099720528,-0.5035754654381326,-0.039762720971209635,0.042314082514341385,-0.14593092576546118,0.0,0.0,-0.6,0.0,0.004211902618408203,0
2.6001811027526855,-0.029433662071824074,-0.01109282672405243,-0.48353928327560425,0.022989902751474403,-0.5035538419331479,-0.022726853234354968,0.0036105253427410862,-0.14704427524295902,0.0,0.0,-0.6,0.0,0.0043790340423583984,0
2.609724998474121,-0.029433662071824074,-0.01109282672405243,-0.48353928327560425,0.022989902751474403,-0.5035538419331479,-0.022726853234354968,0.0036105253427410862,-0.14704427524295902,0.0,0.0,-0.6,0.0,0.0010557174682617188,0
2.619310140609741,-0.02947976626455784,-0.010845230892300606,-0.4836694300174713,0.023362233993415953,-0.5036441943143185,-0.07001274105849667,0.027198472553763908,-0.14949383883404857,0.0,0.0,-0.6,0.0,0.0053348541259765625,0
2.629863977432251,-0.02947976626455784,-0.010845230892300606,-0.4836694300174713,0.023362233993415953,-0.5036441943143185,-0.07001274105849667,0.027198472553763908,-0.14949383883404857,0.0,0.0,-0.6,0.0,0.001073598861694336,0
2.640369415283203,-0.029527727514505386,-0.010704990476369858,-0.48376134037971497,0.023497414162431035,-0.5031483086256768,-0.006069464142096652,0.03809431016334336,-0.1502335429486581,0.0,0.0,-0.6,0.0,0.005896806716918945,0
2.6520142555236816,-0.029527727514505386,-0.010704990476369858,-0.48376134037971497,0.023497414162431035,-0.5031483086256768,-0.006069464142096652,0.03809431016334336,-0.1502335429486581,0.0,0.0,-0.6,0.0,0.0010900497436523438,0
2.6593778133392334,-0.02951725758612156,-0.01058206893503666,-0.4838182032108307,0.023729543370998966,-0.5041547719641638,-0.028856562212007178,0.023270340715079028,-0.15176733654758862,0.0,0.0,-0.6,0.0,0.005295991897583008,0
2.670133113861084,-0.02951725758612156,-0.01058206893503666,-0.4838182032108307,0.023729543370998966,-0.5041547719641638,-0.028856562212007178,0.023270340715079028,-0.15176733654758862,0.0,0.0,-0.6,0.0,0.001062154769897461,0
2.679410696029663,-0.029574494808912277,-0.010504966601729393,-0.4838261604309082,0.024138374228414514,-0.5038176893669011,-0.0066268915761179895,-0.032392924676269155,-0.15437956242403564,0.0,0.0,-0.6,0.0,0.005382061004638672,0
2.6900269985198975,-0.029574494808912277,-0.010504966601729393,-0.4838261604309082,0.024138374228414514,-0.5038176893669011,-0.0066268915761179895,-0.032392924676269155,-0.15437956242403564,0.0,0.0,-0.6,0.0,0.0011303424835205078,0
2.6994194984436035,-0.029645493254065514,-0.010458607226610184,-0.4837968945503235,0.024429299514342993,-0.5040666333894103,0.05369736293605344,-0.010999506794037947,-0.15613109792416927,0.0,0.0,-0.6,0.0,0.0051593780517578125,0
2.709857225418091,-0.029645493254065514,-0.010458607226610184,-0.4837968945503235,0.024429299514342993,-0.5040666333894103,0.05369736293605344,-0.010999506794037947,-0.15613109792416927,0.0,0.0,-0.6,0.0,0.0010693073272705078,0
2.7193682193756104,-0.02980615757405758,-0.01039040181785822,-0.4836501479148865,0.024598131745533762,-0.5054714138833447,0.025090460879210758,-0.07203014698464531,-0.15728954555837668,0.0,0.0,-0.6,0.0,0.005550384521484375,0
2.730302333831787,-0.02980615757405758,-0.01039040181785822,-0.4836501479148865,0.024598131745533762,-0.5054714138833447,0.025090460879210758,-0.07203014698464531,-0.15728954555837668,0.0,0.0,-0.6,0.0,0.0010721683502197266,0
2.7394261360168457,-0.03000122681260109,-0.010264909826219082,-0.48342469334602356,0.025044215958090126,-0.5052752608683606,0.024663461471332526,-0.10831008680351126,-0.1601746758909739,0.0,0.0,-0.6,0.0,0.0045130252838134766,0
2.749509811401367,-0.03000122681260109,-0.010264909826219082,-0.48342469334602356,0.025044215958090126,-0.5052752608683606,0.024663461471332526,-0.10831008680351126,-0.1601746758909739,0.0,0.0,-0.6,0.0,0.0011446475982666016,0
2.7593958377838135,-0.030077721923589706,-0.010237814858555794,-0.48332756757736206,0.025219592003128056,-0.5062040383760521,0.020298679411269064,-0.12470346811269817,-0.1613132729120865,0.0,0.0,-0.6,0.0,0.00464630126953125,0
2.7698352336883545,-0.030077721923589706,-0.010237814858555794,-0.48332756757736206,0.025219592003128056,-0.5062040383760521,0.020298679411269064,-0.12470346811269817,-0.1613132729120865,0.0,0.0,-0.6,0.0,0.001070261001586914,0
2.779393434524536,-0.03033931739628315,-0.010194498114287853,-0.48292189836502075,0.0253621321065473,-0.5070127581552227,0.049700055046606115,-0.11805143962730459,-0.16219777360327156,0.0,0.0,-0.6,0.0,0.005970954895019531,0
2.791123628616333,-0.03033931739628315,-0.010194498114287853,-0.48292189836502075,0.0253621321065473,-0.5070127581552227,0.049700055046606115,-0.11805143962730459,-0.16219777360327156,0.0,0.0,-0.6,0.0,0.0011665821075439453,0
