time,x,y,z,yaw,throttle,roll_rate,pitch_rate,yaw_rate,x_ref,y_ref,z_ref,yaw_ref,mpc_time,metadata
3.814697265625e-06,-0.07983574271202087,0.023017391562461853,-0.2409287691116333,-0.029066097346373554,-0.6352876868314467,-0.11020702868839802,-0.38708080700235115,0.18580643838166558,0.0,0.0,-0.6,0.0,0.021742820739746094,Hardware
0.026958942413330078,-0.07983574271202087,0.023017391562461853,-0.2409287691116333,-0.029066097346373554,-0.6352876868314467,-0.11020702868839802,-0.38708080700235115,0.18580643838166558,0.0,0.0,-0.6,0.0,0.0011074542999267578,Horizon:3.0
0.03471827507019043,-0.07984458655118942,0.023008815944194794,-0.24091435968875885,-0.029068249242291618,-0.6352876868314513,-0.10659967027439268,-0.38313170473196895,0.1858245381775387,0.0,0.0,-0.6,0.0,0.008723020553588867,Num Steps:20
0.049332618713378906,-0.07984114438295364,0.02299869991838932,-0.24090194702148438,-0.029081603502479535,-0.6352876868314487,-0.11000964202954501,-0.3813979459000542,0.18590556818979212,0.0,0.0,-0.6,0.0,0.008752107620239258,No Pyjoules
0.0637814998626709,-0.07984114438295364,0.02299869991838932,-0.24090194702148438,-0.029081603502479535,-0.6352876868314487,-0.11000964202954501,-0.3813979459000542,0.18590556818979212,0.0,0.0,-0.6,0.0,0.0011169910430908203,0
0.07048964500427246,-0.07984254509210587,0.022994522005319595,-0.24090462923049927,-0.029057659909033036,-0.6352876868314745,-0.10596713999397353,-0.3806372961051736,0.1857592321036288,0.0,0.0,-0.6,0.0,0.00851130485534668,0
0.08436131477355957,-0.07984254509210587,0.022994522005319595,-0.24090462923049927,-0.029057659909033036,-0.6352876868314745,-0.10596713999397353,-0.3806372961051736,0.1857592321036288,0.0,0.0,-0.6,0.0,0.001131296157836914,0
0.09143805503845215,-0.079833023250103,0.022999322041869164,-0.24092939496040344,-0.029050210736987634,-0.6352876868314726,-0.11100550057357893,-0.3809975845471284,0.18570312106898365,0.0,0.0,-0.6,0.0,0.010080575942993164,0
0.10787558555603027,-0.079833023250103,0.022999322041869164,-0.24092939496040344,-0.029050210736987634,-0.6352876868314726,-0.11100550057357893,-0.3809975845471284,0.18570312106898365,0.0,0.0,-0.6,0.0,0.0011205673217773438,0
0.11801505088806152,-0.07981870323419571,0.02295065112411976,-0.2410942018032074,-0.029152428258488683,-0.6352876868314847,-0.11327288864827463,-0.3656529431390766,0.1863577517385013,0.0,0.0,-0.6,0.0,0.012187957763671875,0
0.1352543830871582,-0.07981870323419571,0.02295065112411976,-0.2410942018032074,-0.029152428258488683,-0.6352876868314847,-0.11327288864827463,-0.3656529431390766,0.1863577517385013,0.0,0.0,-0.6,0.0,0.0010781288146972656,0
0.1426997184753418,-0.07960440963506699,0.022847535088658333,-0.24128593504428864,-0.02860885688850623,-0.6352876868314914,-0.05695841270041587,-0.31214174825222707,0.18293301661521238,0.0,0.0,-0.6,0.0,0.010144710540771484,0
0.15803933143615723,-0.07960440963506699,0.022847535088658333,-0.24128593504428864,-0.02860885688850623,-0.6352876868314914,-0.05695841270041587,-0.31214174825222707,0.18293301661521238,0.0,0.0,-0.6,0.0,0.0011250972747802734,0
0.16789865493774414,-0.07871642708778381,0.02240164205431938,-0.24180524051189423,-0.029042967317541652,-0.6352876868314983,0.0013942341884343385,-0.16685287893705944,0.18577189513904746,0.0,0.0,-0.6,0.0,0.011453628540039062,0
0.1846468448638916,-0.07871642708778381,0.02240164205431938,-0.24180524051189423,-0.029042967317541652,-0.6352876868314983,0.0013942341884343385,-0.16685287893705944,0.18577189513904746,0.0,0.0,-0.6,0.0,0.0011365413665771484,0
0.19205474853515625,-0.07767511159181595,0.02185588888823986,-0.242643803358078,-0.028870713213427112,-0.6352876868311302,0.050531269069460205,-0.057357868698301215,0.18472651196360093,0.0,0.0,-0.6,0.0,0.008911609649658203,0
0.20656752586364746,-0.07767511159181595,0.02185588888823986,-0.242643803358078,-0.028870713213427112,-0.6352876868311302,0.050531269069460205,-0.057357868698301215,0.18472651196360093,0.0,0.0,-0.6,0.0,0.0011129379272460938,0
0.21405720710754395,-0.07634991407394409,0.021201476454734802,-0.24409906566143036,-0.02687502322880759,-0.635287686830245,0.09552048765875286,0.04033066143515063,0.17203630233326372,0.0,0.0,-0.6,0.0,0.00898122787475586,0
0.2289137840270996,-0.07469870150089264,0.020418209955096245,-0.24603253602981567,-0.02369203322255002,-0.6352846248382179,0.15438906547003423,0.20772812218086745,0.15179323621775007,0.0,0.0,-0.6,0.0,0.009907960891723633,0
0.24453377723693848,-0.07469870150089264,0.020418209955096245,-0.24603253602981567,-0.02369203322255002,-0.6352846248382179,0.15438906547003423,0.20772812218086745,0.15179323621775007,0.0,0.0,-0.6,0.0,0.0011174678802490234,0
0.2516617774963379,-0.07294484227895737,0.019587455317378044,-0.24860943853855133,-0.01967431774434413,-0.630106561044211,0.22450150459549728,0.3890778952049614,0.1263089250753399,0.0,0.0,-0.6,0.0,0.009189128875732422,0
0.26683950424194336,-0.07113038003444672,0.01857561431825161,-0.25189104676246643,-0.015126306658502474,-0.6225147898353526,0.28853458717496144,0.5386891452229748,0.09748542056741946,0.0,0.0,-0.6,0.0,0.008678197860717773,0
0.28156542778015137,-0.07113038003444672,0.01857561431825161,-0.25189104676246643,-0.015126306658502474,-0.6225147898353526,0.28853458717496144,0.5386891452229748,0.09748542056741946,0.0,0.0,-0.6,0.0,0.0010819435119628906,0
0.2889740467071533,-0.06923752278089523,0.01767827197909355,-0.2560078203678131,-0.010366257020568856,-0.6155533962058065,0.29248674647832884,0.6943640452522526,0.06705950850690692,0.0,0.0,-0.6,0.0,0.009130716323852539,0
0.3038508892059326,-0.06923752278089523,0.01767827197909355,-0.2560078203678131,-0.010366257020568856,-0.6155533962058065,0.29248674647832884,0.6943640452522526,0.06705950850690692,0.0,0.0,-0.6,0.0,0.0011417865753173828,0
0.3115522861480713,-0.06613025069236755,0.01607910357415676,-0.2635180652141571,-0.0022657840098815546,-0.6034583124916567,0.25251311970392704,0.7999999996350647,0.015524412335871032,0.0,0.0,-0.6,0.0,0.009812116622924805,0
0.32666969299316406,-0.06613025069236755,0.01607910357415676,-0.2635180652141571,-0.0022657840098815546,-0.6034583124916567,0.25251311970392704,0.7999999996350647,0.015524412335871032,0.0,0.0,-0.6,0.0,0.0010912418365478516,0
0.33402585983276367,-0.06406335532665253,0.015027828514575958,-0.26943206787109375,0.00315028147229721,-0.5944961134051533,0.1975452441881529,0.7999999999937223,-0.019134758941487102,0.0,0.0,-0.6,0.0,0.009791374206542969,0
0.3492288589477539,-0.06406335532665253,0.015027828514575958,-0.26943206787109375,0.00315028147229721,-0.5944961134051533,0.1975452441881529,0.7999999999937223,-0.019134758941487102,0.0,0.0,-0.6,0.0,0.0011401176452636719,0
0.35796236991882324,-0.061984430998563766,0.01396722998470068,-0.2761225700378418,0.0084460628691962,-0.5870698074507787,0.23495674149924112,0.7999999999939522,-0.05205795092468325,0.0,0.0,-0.6,0.0,0.009979486465454102,0
0.3733022212982178,-0.061984430998563766,0.01396722998470068,-0.2761225700378418,0.0084460628691962,-0.5870698074507787,0.23495674149924112,0.7999999999939522,-0.05205795092468325,0.0,0.0,-0.6,0.0,0.0011649131774902344,0
0.380817174911499,-0.059734996408224106,0.01278939750045538,-0.2833237648010254,0.01376238994344412,-0.5821541867685905,0.20261370736459963,0.7999999999948924,-0.08585280617391079,0.0,0.0,-0.6,0.0,0.009857416152954102,0
0.3963310718536377,-0.059734996408224106,0.01278939750045538,-0.2833237648010254,0.01376238994344412,-0.5821541867685905,0.20261370736459963,0.7999999999948924,-0.08585280617391079,0.0,0.0,-0.6,0.0,0.001171112060546875,0
0.40399932861328125,-0.05606372654438019,0.01096297986805439,-0.2950628399848938,0.021390205386711204,-0.5723456938527668,0.1272887587415477,0.7999999999961679,-0.1349293187866531,0.0,0.0,-0.6,0.0,0.00978851318359375,0
0.4195694923400879,-0.05606372654438019,0.01096297986805439,-0.2950628399848938,0.021390205386711204,-0.5723456938527668,0.1272887587415477,0.7999999999961679,-0.1349293187866531,0.0,0.0,-0.6,0.0,0.0011222362518310547,0
0.42836833000183105,-0.05349034443497658,0.009857685305178165,-0.3035425543785095,0.026311245710241706,-0.564918471105368,0.1588321149111877,0.7999999999970401,-0.16550835604962635,0.0,0.0,-0.6,0.0,0.009661674499511719,0
0.4432990550994873,-0.05349034443497658,0.009857685305178165,-0.3035425543785095,0.026311245710241706,-0.564918471105368,0.1588321149111877,0.7999999999970401,-0.16550835604962635,0.0,0.0,-0.6,0.0,0.0011031627655029297,0
0.4508090019226074,-0.04933015629649162,0.00801469199359417,-0.3168933391571045,0.03345945976477284,-0.5560100263424511,0.15440091191151145,0.799999999810827,-0.21218532315795846,0.0,0.0,-0.6,0.0,0.009904623031616211,0
0.46590757369995117,-0.04933015629649162,0.00801469199359417,-0.3168933391571045,0.03345945976477284,-0.5560100263424511,0.15440091191151145,0.799999999810827,-0.21218532315795846,0.0,0.0,-0.6,0.0,0.001107931137084961,0
0.4732515811920166,-0.04649847000837326,0.006765707395970821,-0.32619544863700867,0.03828295265731544,-0.5527407908110313,0.04532800764759156,0.7885418537200586,-0.2440707200178483,0.0,0.0,-0.6,0.0,0.01050114631652832,0
0.48934102058410645,-0.04649847000837326,0.006765707395970821,-0.32619544863700867,0.03828295265731544,-0.5527407908110313,0.04532800764759156,0.7885418537200586,-0.2440707200178483,0.0,0.0,-0.6,0.0,0.0011038780212402344,0
0.49889612197875977,-0.04218099266290665,0.004831006284803152,-0.3403090238571167,0.0451579612316375,-0.5483576474411699,0.08662714602967984,0.7168804607727397,-0.28780780917183996,0.0,0.0,-0.6,0.0,0.009951114654541016,0
0.5137898921966553,-0.04218099266290665,0.004831006284803152,-0.3403090238571167,0.0451579612316375,-0.5483576474411699,0.08662714602967984,0.7168804607727397,-0.28780780917183996,0.0,0.0,-0.6,0.0,0.001094818115234375,0
0.5214595794677734,-0.039399173110723495,0.00338619202375412,-0.3497541844844818,0.04934388780815223,-0.5432310905640801,0.082823179841309,0.5765553402413901,-0.3147004882491237,0.0,0.0,-0.6,0.0,0.009113311767578125,0
0.5365233421325684,-0.039399173110723495,0.00338619202375412,-0.3497541844844818,0.04934388780815223,-0.5432310905640801,0.082823179841309,0.5765553402413901,-0.3147004882491237,0.0,0.0,-0.6,0.0,0.0010783672332763672,0
0.5438282489776611,-0.036639079451560974,0.002102500293403864,-0.3593418002128601,0.05328755493844839,-0.5414598010998928,-0.002383702317461542,0.4661517264525033,-0.3400773471277672,0.0,0.0,-0.6,0.0,0.008810997009277344,0
0.5579302310943604,-0.036639079451560974,0.002102500293403864,-0.3593418002128601,0.05328755493844839,-0.5414598010998928,-0.002383702317461542,0.4661517264525033,-0.3400773471277672,0.0,0.0,-0.6,0.0,0.001062154769897461,0
0.568047285079956,-0.03273467347025871,9.686013800092041e-05,-0.373592346906662,0.05854159722338726,-0.5352290613847579,0.018983272982889685,0.24493705946783464,-0.3740151701273238,0.0,0.0,-0.6,0.0,0.010858535766601562,0
0.5863680839538574,-0.03273467347025871,9.686013800092041e-05,-0.373592346906662,0.05854159722338726,-0.5352290613847579,0.018983272982889685,0.24493705946783464,-0.3740151701273238,0.0,0.0,-0.6,0.0,0.0013604164123535156,0
0.5970029830932617,-0.03031713142991066,-0.0011707521043717861,-0.3829217851161957,0.06162305563240471,-0.5361152063014184,0.07602951382234416,0.18292300793715707,-0.39391519660315616,0.0,0.0,-0.6,0.0,0.009987115859985352,0
0.6161727905273438,-0.028044939041137695,-0.0024598129093647003,-0.3922571837902069,0.06445810721525337,-0.5320771858694239,0.0800268536935682,-0.0016294516665556684,-0.412456820336805,0.0,0.0,-0.6,0.0,0.01019597053527832,0
0.6328017711639404,-0.028044939041137695,-0.0024598129093647003,-0.3922571837902069,0.06445810721525337,-0.5320771858694239,0.0800268536935682,-0.0016294516665556684,-0.412456820336805,0.0,0.0,-0.6,0.0,0.0012102127075195312,0
0.6400144100189209,-0.02487044222652912,-0.004334415774792433,-0.406080961227417,0.06818967987854062,-0.5288753074873365,0.002419956479757433,-0.19092066817947828,-0.43651034207028355,0.0,0.0,-0.6,0.0,0.009507417678833008,0
0.6555898189544678,-0.02487044222652912,-0.004334415774792433,-0.406080961227417,0.06818967987854062,-0.5288753074873365,0.002419956479757433,-0.19092066817947828,-0.43651034207028355,0.0,0.0,-0.6,0.0,0.0012259483337402344,0
0.6644787788391113,-0.023012518882751465,-0.005539347883313894,-0.4150335490703583,0.07024984846801655,-0.5275430230895838,-0.0048612129365899984,-0.26316598184076045,-0.44979495468562564,0.0,0.0,-0.6,0.0,0.009883403778076172,0
0.6810429096221924,-0.023012518882751465,-0.005539347883313894,-0.4150335490703583,0.07024984846801655,-0.5275430230895838,-0.0048612129365899984,-0.26316598184076045,-0.44979495468562564,0.0,0.0,-0.6,0.0,0.001276254653930664,0
0.6882851123809814,-0.020495900884270668,-0.007237753830850124,-0.4280916452407837,0.07281012122659945,-0.526880039200121,0.04936356869334124,-0.41100116251519925,-0.4666876706962997,0.0,0.0,-0.6,0.0,0.009845733642578125,0
0.7056679725646973,-0.020495900884270668,-0.007237753830850124,-0.4280916452407837,0.07281012122659945,-0.526880039200121,0.04936356869334124,-0.41100116251519925,-0.4666876706962997,0.0,0.0,-0.6,0.0,0.0012128353118896484,0
0.7144532203674316,-0.01835584081709385,-0.008847879245877266,-0.44055819511413574,0.07460501207732069,-0.5258083466492455,0.04243230075748052,-0.5368063246457663,-0.4783799710506089,0.0,0.0,-0.6,0.0,0.009875059127807617,0
0.7312984466552734,-0.01835584081709385,-0.008847879245877266,-0.44055819511413574,0.07460501207732069,-0.5258083466492455,0.04243230075748052,-0.5368063246457663,-0.4783799710506089,0.0,0.0,-0.6,0.0,0.0011763572692871094,0
0.7394325733184814,-0.017022481188178062,-0.00986780971288681,-0.44855043292045593,0.07521180787613088,-0.5290146034341608,-0.0010413841819345098,-0.5254144156905716,-0.4820356588324941,0.0,0.0,-0.6,0.0,0.008327245712280273,0
0.7536780834197998,-0.017022481188178062,-0.00986780971288681,-0.44855043292045593,0.07521180787613088,-0.5290146034341608,-0.0010413841819345098,-0.5254144156905716,-0.4820356588324941,0.0,0.0,-0.6,0.0,0.0011110305786132812,0
0.762382984161377,-0.015955137088894844,-0.010828408412635326,-0.45603078603744507,0.07546734886878236,-0.529944317877124,-0.0139658124349131,-0.5078631967902613,-0.4835713228519809,0.0,0.0,-0.6,0.0,0.008357524871826172,0
0.7775139808654785,-0.015955137088894844,-0.010828408412635326,-0.45603078603744507,0.07546734886878236,-0.529944317877124,-0.0139658124349131,-0.5078631967902613,-0.4835713228519809,0.0,0.0,-0.6,0.0,0.001348257064819336,0
0.7859210968017578,-0.014635021798312664,-0.012142461724579334,-0.46680036187171936,0.07515537398713906,-0.5258019435748539,-0.02244623662984791,-0.40675716116838107,-0.4813506659500362,0.0,0.0,-0.6,0.0,0.008301973342895508,0
0.8014230728149414,-0.014635021798312664,-0.012142461724579334,-0.46680036187171936,0.07515537398713906,-0.5258019435748539,-0.02244623662984791,-0.40675716116838107,-0.4813506659500362,0.0,0.0,-0.6,0.0,0.0014619827270507812,0
0.8108654022216797,-0.013896475546061993,-0.012907897122204304,-0.47367340326309204,0.07450901959536585,-0.5284552195454734,-0.09514992683636907,-0.37707925625160477,-0.4769656099798281,0.0,0.0,-0.6,0.0,0.009624242782592773,0
0.8271999359130859,-0.013896475546061993,-0.012907897122204304,-0.47367340326309204,0.07450901959536585,-0.5284552195454734,-0.09514992683636907,-0.37707925625160477,-0.4769656099798281,0.0,0.0,-0.6,0.0,0.0014095306396484375,0
0.8357234001159668,-0.01316206343472004,-0.013922806829214096,-0.48313072323799133,0.0728109749887799,-0.5304804364473822,-0.03845410709140486,-0.3207311150951575,-0.46616703529108666,0.0,0.0,-0.6,0.0,0.009775876998901367,0
0.8519585132598877,-0.01316206343472004,-0.013922806829214096,-0.48313072323799133,0.0728109749887799,-0.5304804364473822,-0.03845410709140486,-0.3207311150951575,-0.46616703529108666,0.0,0.0,-0.6,0.0,0.0012469291687011719,0
0.8596315383911133,-0.012787291780114174,-0.014477520249783993,-0.48927178978919983,0.07158616665964748,-0.5311385849577036,-0.07762483554415778,-0.21279103179477152,-0.4581128233449043,0.0,0.0,-0.6,0.0,0.008461952209472656,0
0.8748507499694824,-0.012787291780114174,-0.014477520249783993,-0.48927178978919983,0.07158616665964748,-0.5311385849577036,-0.07762483554415778,-0.21279103179477152,-0.4581128233449043,0.0,0.0,-0.6,0.0,0.001678466796875,0
0.8834588527679443,-0.012568053789436817,-0.015040749683976173,-0.4949985146522522,0.07011587870112657,-0.5338795923581756,-0.048249252675035166,-0.19516345804593663,-0.4487207501364242,0.0,0.0,-0.6,0.0,0.010033130645751953,0
0.9020373821258545,-0.012598255649209023,-0.015459490939974785,-0.5004690885543823,0.06850703215477995,-0.5314029079275367,-0.1376786612336147,-0.06200088017930193,-0.4382400266619156,0.0,0.0,-0.6,0.0,0.009799003601074219,0
0.9187240600585938,-0.012598255649209023,-0.015459490939974785,-0.5004690885543823,0.06850703215477995,-0.5314029079275367,-0.1376786612336147,-0.06200088017930193,-0.4382400266619156,0.0,0.0,-0.6,0.0,0.0016283988952636719,0
0.9282329082489014,-0.012696919031441212,-0.016045568510890007,-0.5082135200500488,0.06566094538356768,-0.5343363855739628,-0.10759065402130073,0.009856363654276385,-0.41997353799229625,0.0,0.0,-0.6,0.0,0.007929086685180664,0
0.9430286884307861,-0.012696919031441212,-0.016045568510890007,-0.5082135200500488,0.06566094538356768,-0.5343363855739628,-0.10759065402130073,0.009856363654276385,-0.41997353799229625,0.0,0.0,-0.6,0.0,0.0015659332275390625,0
0.9518833160400391,-0.013079014606773853,-0.016462577506899834,-0.5154727101325989,0.06280858532596482,-0.5358195656803504,-0.13795179389966838,0.12093377471760346,-0.4016571082969937,0.0,0.0,-0.6,0.0,0.008722066879272461,0
0.967522144317627,-0.013079014606773853,-0.016462577506899834,-0.5154727101325989,0.06280858532596482,-0.5358195656803504,-0.13795179389966838,0.12093377471760346,-0.4016571082969937,0.0,0.0,-0.6,0.0,0.0015747547149658203,0
0.9757459163665771,-0.013379416428506374,-0.01667432300746441,-0.5199851393699646,0.060898992402334394,-0.5373587581006267,-0.15344502488949976,0.11693494825180818,-0.3895382817988831,0.0,0.0,-0.6,0.0,0.00789499282836914,0
0.9902915954589844,-0.013379416428506374,-0.01667432300746441,-0.5199851393699646,0.060898992402334394,-0.5373587581006267,-0.15344502488949976,0.11693494825180818,-0.3895382817988831,0.0,0.0,-0.6,0.0,0.0011630058288574219,0
0.9996628761291504,-0.013760918751358986,-0.01687382534146309,-0.5243350267410278,0.05907111447479959,-0.5360805409920187,-0.16219939621725002,0.16691217972143374,-0.3778287009385344,0.0,0.0,-0.6,0.0,0.008321762084960938,0
1.0153229236602783,-0.013760918751358986,-0.01687382534146309,-0.5243350267410278,0.05907111447479959,-0.5360805409920187,-0.16219939621725002,0.16691217972143374,-0.3778287009385344,0.0,0.0,-0.6,0.0,0.0014569759368896484,0
1.0241875648498535,-0.014345899224281311,-0.016952799633145332,-0.5305027961730957,0.056384784239178476,-0.5377069062473613,-0.1387137774815491,0.2236804794710918,-0.36054075674178104,0.0,0.0,-0.6,0.0,0.008410215377807617,0
1.0387160778045654,-0.014345899224281311,-0.016952799633145332,-0.5305027961730957,0.056384784239178476,-0.5377069062473613,-0.1387137774815491,0.2236804794710918,-0.36054075674178104,0.0,0.0,-0.6,0.0,0.0011248588562011719,0
1.0484859943389893,-0.01484245527535677,-0.016999496147036552,-0.5343285799026489,0.05468591752843802,-0.5391408378674051,-0.14265677073144192,0.19352548284141763,-0.34976218625802774,0.0,0.0,-0.6,0.0,0.00783681869506836,0
1.0627174377441406,-0.01484245527535677,-0.016999496147036552,-0.5343285799026489,0.05468591752843802,-0.5391408378674051,-0.14265677073144192,0.19352548284141763,-0.34976218625802774,0.0,0.0,-0.6,0.0,0.0014142990112304688,0
1.0721042156219482,-0.015443102456629276,-0.01696036197245121,-0.5397804379463196,0.05237560810477256,-0.5420161177676932,-0.11135365396334002,0.21859080321092925,-0.3348961542783037,0.0,0.0,-0.6,0.0,0.006912946701049805,0
1.0851736068725586,-0.015443102456629276,-0.01696036197245121,-0.5397804379463196,0.05237560810477256,-0.5420161177676932,-0.11135365396334002,0.21859080321092925,-0.3348961542783037,0.0,0.0,-0.6,0.0,0.001346588134765625,0
1.093876838684082,-0.015834711492061615,-0.016893941909074783,-0.5431201457977295,0.050876550543569626,-0.5423545199161514,-0.09743038532275045,0.24812875834034898,-0.3252637857918499,0.0,0.0,-0.6,0.0,0.008523941040039062,0
1.1096384525299072,-0.015834711492061615,-0.016893941909074783,-0.5431201457977295,0.050876550543569626,-0.5423545199161514,-0.09743038532275045,0.24812875834034898,-0.3252637857918499,0.0,0.0,-0.6,0.0,0.0014727115631103516,0
1.1192262172698975,-0.016162337735295296,-0.01684190146625042,-0.546341061592102,0.04926938056478117,-0.5413857985016124,-0.11905114406746939,0.21739516298320244,-0.3151159511443336,0.0,0.0,-0.6,0.0,0.008348226547241211,0
1.1345014572143555,-0.01643170416355133,-0.01670967973768711,-0.549302339553833,0.04759798069200236,-0.5422935588592533,-0.08220424503547101,0.2196235877030039,-0.3043559142226745,0.0,0.0,-0.6,0.0,0.006578922271728516,0
1.1485629081726074,-0.01643170416355133,-0.01670967973768711,-0.549302339553833,0.04759798069200236,-0.5422935588592533,-0.08220424503547101,0.2196235877030039,-0.3043559142226745,0.0,0.0,-0.6,0.0,0.001280069351196289,0
1.159203052520752,-0.01677176170051098,-0.016525620594620705,-0.5532310009002686,0.04505333413494038,-0.5440777459452925,0.036404199175211344,0.2137344267717804,-0.28783527863987163,0.0,0.0,-0.6,0.0,0.008515357971191406,0
1.1738874912261963,-0.01677176170051098,-0.016525620594620705,-0.5532310009002686,0.04505333413494038,-0.5440777459452925,0.036404199175211344,0.2137344267717804,-0.28783527863987163,0.0,0.0,-0.6,0.0,0.0011298656463623047,0
1.1832876205444336,-0.016919061541557312,-0.016399888321757317,-0.555748701095581,0.04320504486585059,-0.5454339837232277,0.047361144087341,0.14583791314735392,-0.2760586853083928,0.0,0.0,-0.6,0.0,0.006653308868408203,0
1.1959280967712402,-0.016919061541557312,-0.016399888321757317,-0.555748701095581,0.04320504486585059,-0.5454339837232277,0.047361144087341,0.14583791314735392,-0.2760586853083928,0.0,0.0,-0.6,0.0,0.0017044544219970703,0
1.2059047222137451,-0.016984207555651665,-0.016231495887041092,-0.55799800157547,0.041235722203594664,-0.5474628073920448,0.05343616964005712,0.15899001921397135,-0.26349285995349503,0.0,0.0,-0.6,0.0,0.006745338439941406,0
1.2190825939178467,-0.016984207555651665,-0.016231495887041092,-0.55799800157547,0.041235722203594664,-0.5474628073920448,0.05343616964005712,0.15899001921397135,-0.26349285995349503,0.0,0.0,-0.6,0.0,0.001402139663696289,0
1.2283656597137451,-0.01699824258685112,-0.016048474237322807,-0.5600159764289856,0.039341798698619784,-0.5495405671665535,0.13161844590708283,0.20009970654114662,-0.2512720053703095,0.0,0.0,-0.6,0.0,0.00668025016784668,0
1.2420852184295654,-0.01698102429509163,-0.01593855768442154,-0.5619548559188843,0.03774904165507587,-0.5475628156254452,0.11002189055371608,0.18002278160385143,-0.2411780471277374,0.0,0.0,-0.6,0.0,0.006879568099975586,0
1.256176471710205,-0.01698102429509163,-0.01593855768442154,-0.5619548559188843,0.03774904165507587,-0.5475628156254452,0.11002189055371608,0.18002278160385143,-0.2411780471277374,0.0,0.0,-0.6,0.0,0.00131988525390625,0
1.2645549774169922,-0.016931375488638878,-0.015758179128170013,-0.5638208389282227,0.0363282104330271,-0.5480549374227237,0.10491615924685894,0.16070383569396632,-0.23212634653777947,0.0,0.0,-0.6,0.0,0.0060825347900390625,0
1.2778115272521973,-0.016931375488638878,-0.015758179128170013,-0.5638208389282227,0.0363282104330271,-0.5480549374227237,0.10491615924685894,0.16070383569396632,-0.23212634653777947,0.0,0.0,-0.6,0.0,0.0011911392211914062,0
1.2879371643066406,-0.016931476071476936,-0.015314752236008644,-0.5663697123527527,0.03442138582198673,-0.5495343406582643,0.2069519378764467,0.10832255169580418,-0.2197736524188619,0.0,0.0,-0.6,0.0,0.006542682647705078,0
1.3013429641723633,-0.016931476071476936,-0.015314752236008644,-0.5663697123527527,0.03442138582198673,-0.5495343406582643,0.2069519378764467,0.10832255169580418,-0.2197736524188619,0.0,0.0,-0.6,0.0,0.0013191699981689453,0
1.3104441165924072,-0.016757044941186905,-0.015007955953478813,-0.5680893659591675,0.03336945169627198,-0.5495605320224373,0.17653855462211532,0.08627578293739714,-0.21310848466911064,0.0,0.0,-0.6,0.0,0.006948709487915039,0
1.3236451148986816,-0.016757044941186905,-0.015007955953478813,-0.5680893659591675,0.03336945169627198,-0.5495605320224373,0.17653855462211532,0.08627578293739714,-0.21310848466911064,0.0,0.0,-0.6,0.0,0.001356363296508789,0
1.3327908515930176,-0.01664944924414158,-0.014726517722010612,-0.5697706937789917,0.03252230493171918,-0.5517991323955224,0.07847131898163168,-0.006332424659109233,-0.20779954194889727,0.0,0.0,-0.6,0.0,0.006590843200683594,0
1.3457086086273193,-0.01664944924414158,-0.014726517722010612,-0.5697706937789917,0.03252230493171918,-0.5517991323955224,0.07847131898163168,-0.006332424659109233,-0.20779954194889727,0.0,0.0,-0.6,0.0,0.0010712146759033203,0
1.3563694953918457,-0.01664411462843418,-0.0144048435613513,-0.5712956786155701,0.03185356682864405,-0.5510614407033705,0.029217336129297843,0.0128233213527094,-0.20361016520341504,0.0,0.0,-0.6,0.0,0.006692409515380859,0
1.3703997135162354,-0.016615217551589012,-0.01402350701391697,-0.5728232264518738,0.03118411262178479,-0.5497085477562963,0.024833543661425535,0.08891196084550494,-0.19935429637877128,0.0,0.0,-0.6,0.0,0.007384538650512695,0
1.384131669998169,-0.016615217551589012,-0.01402350701391697,-0.5728232264518738,0.03118411262178479,-0.5497085477562963,0.024833543661425535,0.08891196084550494,-0.19935429637877128,0.0,0.0,-0.6,0.0,0.0015306472778320312,0
1.3928442001342773,-0.016523711383342743,-0.013631683774292469,-0.5743131041526794,0.030630803077333617,-0.5510374765239289,0.03188600392485729,0.09155530912063296,-0.19580192230660637,0.0,0.0,-0.6,0.0,0.0065038204193115234,0
1.4076447486877441,-0.016523711383342743,-0.013631683774292469,-0.5743131041526794,0.030630803077333617,-0.5510374765239289,0.03188600392485729,0.09155530912063296,-0.19580192230660637,0.0,0.0,-0.6,0.0,0.0013935565948486328,0
1.4166252613067627,-0.016578063368797302,-0.013154573738574982,-0.5762902498245239,0.030122330206893186,-0.5521685240917092,-0.04686853240662065,-0.07014631016201324,-0.19266130442505308,0.0,0.0,-0.6,0.0,0.006632804870605469,0
1.4302647113800049,-0.016578063368797302,-0.013154573738574982,-0.5762902498245239,0.030122330206893186,-0.5521685240917092,-0.04686853240662065,-0.07014631016201324,-0.19266130442505308,0.0,0.0,-0.6,0.0,0.0013780593872070312,0
1.4391427040100098,-0.016500385478138924,-0.012804222293198109,-0.5776014924049377,0.02993188492312699,-0.5530293978121763,-0.025588903795830172,-0.08065892996475757,-0.19144275913436729,0.0,0.0,-0.6,0.0,0.006929874420166016,0
1.453429937362671,-0.016500385478138924,-0.012804222293198109,-0.5776014924049377,0.02993188492312699,-0.5530293978121763,-0.025588903795830172,-0.08065892996475757,-0.19144275913436729,0.0,0.0,-0.6,0.0,0.0016810894012451172,0
1.4620540142059326,-0.016449160873889923,-0.012489618733525276,-0.5788436532020569,0.029794846073008058,-0.5537448353879878,0.015922074025304062,-0.0808972705328525,-0.19054487528928757,0.0,0.0,-0.6,0.0,0.0067539215087890625,0
1.4753904342651367,-0.016449160873889923,-0.012489618733525276,-0.5788436532020569,0.029794846073008058,-0.5537448353879878,0.015922074025304062,-0.0808972705328525,-0.19054487528928757,0.0,0.0,-0.6,0.0,0.0017096996307373047,0
1.4837851524353027,-0.016660243272781372,-0.012095071375370026,-0.5802935361862183,0.029498880653614667,-0.5554737132537405,-0.030334077697767876,-0.08177784341274154,-0.18869320954207588,0.0,0.0,-0.6,0.0,0.006888389587402344,0
1.499222755432129,-0.016660243272781372,-0.012095071375370026,-0.5802935361862183,0.029498880653614667,-0.5554737132537405,-0.030334077697767876,-0.08177784341274154,-0.18869320954207588,0.0,0.0,-0.6,0.0,0.0011661052703857422,0
1.5083060264587402,-0.01680927723646164,-0.011802605353295803,-0.5811492800712585,0.029421714805443557,-0.5551676899668375,-0.1320735218261418,-0.028953644686076717,-0.18824058012495537,0.0,0.0,-0.6,0.0,0.006023883819580078,0
1.521155834197998,-0.01680927723646164,-0.011802605353295803,-0.5811492800712585,0.029421714805443557,-0.5551676899668375,-0.1320735218261418,-0.028953644686076717,-0.18824058012495537,0.0,0.0,-0.6,0.0,0.0013458728790283203,0
1.531127691268921,-0.016812225803732872,-0.011561582796275616,-0.5819631218910217,0.029293684844332455,-0.5552431490384712,-0.06526634110858108,-0.0028356206623305,-0.18736221276151097,0.0,0.0,-0.6,0.0,0.0066869258880615234,0
1.5450215339660645,-0.016812225803732872,-0.011561582796275616,-0.5819631218910217,0.029293684844332455,-0.5552431490384712,-0.06526634110858108,-0.0028356206623305,-0.18736221276151097,0.0,0.0,-0.6,0.0,0.0012056827545166016,0
1.553642988204956,-0.017127156257629395,-0.01118688378483057,-0.5828429460525513,0.02893442068903859,-0.5571575672246453,0.013758772457414092,-0.025607416861675215,-0.1850055303506044,0.0,0.0,-0.6,0.0,0.006890058517456055,0
1.5673696994781494,-0.017127156257629395,-0.01118688378483057,-0.5828429460525513,0.02893442068903859,-0.5571575672246453,0.013758772457414092,-0.025607416861675215,-0.1850055303506044,0.0,0.0,-0.6,0.0,0.0011653900146484375,0
1.5759990215301514,-0.017244167625904083,-0.010871757753193378,-0.5833759307861328,0.02880022287955434,-0.5573095663687105,0.05593454325313489,-0.006933101504297165,-0.18408612724043324,0.0,0.0,-0.6,0.0,0.006652355194091797,0
1.5886716842651367,-0.017244167625904083,-0.010871757753193378,-0.5833759307861328,0.02880022287955434,-0.5573095663687105,0.05593454325313489,-0.006933101504297165,-0.18408612724043324,0.0,0.0,-0.6,0.0,0.0010745525360107422,0
1.5999226570129395,-0.017379865050315857,-0.010635463520884514,-0.5839283466339111,0.028632488904227742,-0.5584963729235467,-0.01903332591242209,-0.08041868166701528,-0.18311692898004872,0.0,0.0,-0.6,0.0,0.00643467903137207,0
1.6126320362091064,-0.017379865050315857,-0.010635463520884514,-0.5839283466339111,0.028632488904227742,-0.5584963729235467,-0.01903332591242209,-0.08041868166701528,-0.18311692898004872,0.0,0.0,-0.6,0.0,0.0013518333435058594,0
1.6223456859588623,-0.017797470092773438,-0.010252107866108418,-0.5845339298248291,0.028419937713134266,-0.5577031495466392,-0.03839356784685103,-0.004742226765605497,-0.1817544780036246,0.0,0.0,-0.6,0.0,0.007027149200439453,0
1.6355922222137451,-0.017797470092773438,-0.010252107866108418,-0.5845339298248291,0.028419937713134266,-0.5577031495466392,-0.03839356784685103,-0.004742226765605497,-0.1817544780036246,0.0,0.0,-0.6,0.0,0.0015633106231689453,0
1.6446442604064941,-0.018035927787423134,-0.009954194538295269,-0.5849981904029846,0.028168174396208213,-0.5569397666650184,0.03026955891931582,0.05762048282394396,-0.180041169486158,0.0,0.0,-0.6,0.0,0.006777524948120117,0
1.6582417488098145,-0.018035927787423134,-0.009954194538295269,-0.5849981904029846,0.028168174396208213,-0.5569397666650184,0.03026955891931582,0.05762048282394396,-0.180041169486158,0.0,0.0,-0.6,0.0,0.0015020370483398438,0
1.6683223247528076,-0.01834806799888611,-0.009643595665693283,-0.5854321718215942,0.028047510388387417,-0.5571177693805098,0.07318973501020413,0.01922913711058084,-0.17921129732451951,0.0,0.0,-0.6,0.0,0.006598711013793945,0
1.6812350749969482,-0.01834806799888611,-0.009643595665693283,-0.5854321718215942,0.028047510388387417,-0.5571177693805098,0.07318973501020413,0.01922913711058084,-0.17921129732451951,0.0,0.0,-0.6,0.0,0.0015196800231933594,0
1.6903057098388672,-0.018805330619215965,-0.009162656031548977,-0.5862199664115906,0.027902264624544003,-0.5563514476395032,0.008105140808799729,-0.05568293377720229,-0.1783790184560352,0.0,0.0,-0.6,0.0,0.006898403167724609,0
1.7040176391601562,-0.018805330619215965,-0.009162656031548977,-0.5862199664115906,0.027902264624544003,-0.5563514476395032,0.008105140808799729,-0.05568293377720229,-0.1783790184560352,0.0,0.0,-0.6,0.0,0.00121307373046875,0
1.7124764919281006,-0.01908951625227928,-0.008884468115866184,-0.5867560505867004,0.02787993272935165,-0.5567054366486212,0.007887341893499291,-0.05882703706631134,-0.17823161164694773,0.0,0.0,-0.6,0.0,0.006595134735107422,0
1.725998878479004,-0.01908951625227928,-0.008884468115866184,-0.5867560505867004,0.02787993272935165,-0.5567054366486212,0.007887341893499291,-0.05882703706631134,-0.17823161164694773,0.0,0.0,-0.6,0.0,0.001287221908569336,0
1.7355146408081055,-0.019528675824403763,-0.008595733903348446,-0.587343692779541,0.027806992385958705,-0.5545687946688714,0.01864026987285814,0.00946067897682771,-0.17774927928983533,0.0,0.0,-0.6,0.0,0.006331682205200195,0
1.7489612102508545,-0.019528675824403763,-0.008595733903348446,-0.587343692779541,0.027806992385958705,-0.5545687946688714,0.01864026987285814,0.00946067897682771,-0.17774927928983533,0.0,0.0,-0.6,0.0,0.0012993812561035156,0
1.7591712474822998,-0.02018873766064644,-0.008037002757191658,-0.5881906747817993,0.027788114037308822,-0.5555812477326307,0.040940604071215955,0.004234214029468522,-0.17759889238802146,0.0,0.0,-0.6,0.0,0.007035970687866211,0
1.7726638317108154,-0.02018873766064644,-0.008037002757191658,-0.5881906747817993,0.027788114037308822,-0.5555812477326307,0.040940604071215955,0.004234214029468522,-0.17759889238802146,0.0,0.0,-0.6,0.0,0.0012161731719970703,0
1.7810370922088623,-0.020645223557949066,-0.007730565499514341,-0.588767409324646,0.027917645103650697,-0.5547602329706209,-0.02037011261903731,-0.09039575207210727,-0.17853204533169842,0.0,0.0,-0.6,0.0,0.0070459842681884766,0
1.7944064140319824,-0.020645223557949066,-0.007730565499514341,-0.588767409324646,0.027917645103650697,-0.5547602329706209,-0.02037011261903731,-0.09039575207210727,-0.17853204533169842,0.0,0.0,-0.6,0.0,0.0015940666198730469,0
1.803847312927246,-0.021110499277710915,-0.007347522769123316,-0.5893464088439941,0.028073071696254052,-0.5563939642817036,-0.020343083641829168,-0.11159306076816546,-0.1795320656076556,0.0,0.0,-0.6,0.0,0.006444215774536133,0
1.817060947418213,-0.021110499277710915,-0.007347522769123316,-0.5893464088439941,0.028073071696254052,-0.5563939642817036,-0.020343083641829168,-0.11159306076816546,-0.1795320656076556,0.0,0.0,-0.6,0.0,0.0012831687927246094,0
1.8262708187103271,-0.021560311317443848,-0.007061530835926533,-0.5897851586341858,0.028311661181524887,-0.5553151989317723,0.028603180468400845,-0.06114765391182402,-0.18098379475232426,0.0,0.0,-0.6,0.0,0.006442546844482422,0
1.839461088180542,-0.021560311317443848,-0.007061530835926533,-0.5897851586341858,0.028311661181524887,-0.5553151989317723,0.028603180468400845,-0.06114765391182402,-0.18098379475232426,0.0,0.0,-0.6,0.0,0.0011823177337646484,0
1.8484132289886475,-0.022304348647594452,-0.006635182537138462,-0.5904945135116577,0.02858020704437965,-0.5551028663304526,-0.018738652818277586,-0.024157027507231154,-0.18276972571595285,0.0,0.0,-0.6,0.0,0.006986856460571289,0
1.8611845970153809,-0.022304348647594452,-0.006635182537138462,-0.5904945135116577,0.02858020704437965,-0.5551028663304526,-0.018738652818277586,-0.024157027507231154,-0.18276972571595285,0.0,0.0,-0.6,0.0,0.0015251636505126953,0
1.8706920146942139,-0.022705385461449623,-0.006353480275720358,-0.5908440351486206,0.028791249169186392,-0.5553594072659477,-0.05738567682338257,-0.027189679586253724,-0.18417914752067843,0.0,0.0,-0.6,0.0,0.006425619125366211,0
1.8841643333435059,-0.022705385461449623,-0.006353480275720358,-0.5908440351486206,0.028791249169186392,-0.5553594072659477,-0.05738567682338257,-0.027189679586253724,-0.18417914752067843,0.0,0.0,-0.6,0.0,0.0016143321990966797,0
1.8925526142120361,-0.023103028535842896,-0.00618117768317461,-0.5911738276481628,0.029081183848351018,-0.556376219269599,0.03571203769071167,-0.06837830597575725,-0.18589371793684717,0.0,0.0,-0.6,0.0,0.006846189498901367,0
1.9064481258392334,-0.023103028535842896,-0.00618117768317461,-0.5911738276481628,0.029081183848351018,-0.556376219269599,0.03571203769071167,-0.06837830597575725,-0.18589371793684717,0.0,0.0,-0.6,0.0,0.001065969467163086,0
1.9146757125854492,-0.0234681386500597,-0.005965192802250385,-0.5915309190750122,0.029232569440264988,-0.5563609419912797,0.05123660206469709,-0.02649307806858609,-0.1868251229982545,0.0,0.0,-0.6,0.0,0.006810426712036133,0
1.9278695583343506,-0.0234681386500597,-0.005965192802250385,-0.5915309190750122,0.029232569440264988,-0.5563609419912797,0.05123660206469709,-0.02649307806858609,-0.1868251229982545,0.0,0.0,-0.6,0.0,0.0015993118286132812,0
1.9368517398834229,-0.02397586964070797,-0.005630564410239458,-0.5917915105819702,0.02948379859343549,-0.5577698476294238,0.008676830709303678,-0.018488298143066986,-0.18849657961287283,0.0,0.0,-0.6,0.0,0.006483554840087891,0
1.9505958557128906,-0.02397586964070797,-0.005630564410239458,-0.5917915105819702,0.02948379859343549,-0.5577698476294238,0.008676830709303678,-0.018488298143066986,-0.18849657961287283,0.0,0.0,-0.6,0.0,0.0013518333435058594,0
1.9593982696533203,-0.02427375502884388,-0.005420560482889414,-0.592002272605896,0.02961916738045138,-0.5556005155846389,-0.05047856616151055,0.028082767407177866,-0.18946765459939174,0.0,0.0,-0.6,0.0,0.006834745407104492,0
1.9730803966522217,-0.02427375502884388,-0.005420560482889414,-0.592002272605896,0.02961916738045138,-0.5556005155846389,-0.05047856616151055,0.028082767407177866,-0.18946765459939174,0.0,0.0,-0.6,0.0,0.0011348724365234375,0
1.9815008640289307,-0.024591902270913124,-0.005177318584173918,-0.592080295085907,0.02950745219868591,-0.5581329814803166,-0.021677124541311543,0.07101955518844415,-0.18869864618400173,0.0,0.0,-0.6,0.0,0.0067560672760009766,0
1.9950623512268066,-0.024591902270913124,-0.005177318584173918,-0.592080295085907,0.02950745219868591,-0.5581329814803166,-0.021677124541311543,0.07101955518844415,-0.18869864618400173,0.0,0.0,-0.6,0.0,0.0012946128845214844,0
2.00443434715271,-0.02488067001104355,-0.004952571354806423,-0.5920541286468506,0.02945431666078607,-0.5574300177804881,0.07035050611928162,0.09768515570082108,-0.18816431261455546,0.0,0.0,-0.6,0.0,0.006606101989746094,0
2.0172722339630127,-0.02488067001104355,-0.004952571354806423,-0.5920541286468506,0.02945431666078607,-0.5574300177804881,0.07035050611928162,0.09768515570082108,-0.18816431261455546,0.0,0.0,-0.6,0.0,0.0014088153839111328,0
2.026998281478882,-0.025146715342998505,-0.004732760135084391,-0.5921381711959839,0.029260409170196577,-0.5583544008484759,0.012795952089829074,0.06428814877054272,-0.1870470299622404,0.0,0.0,-0.6,0.0,0.0066759586334228516,0
2.041309356689453,-0.025428367778658867,-0.004420646466314793,-0.5920652151107788,0.029026000743273928,-0.5586250404853582,-0.0473565558738284,0.025140867363445063,-0.1856890300213481,0.0,0.0,-0.6,0.0,0.006775856018066406,0
2.0554754734039307,-0.025428367778658867,-0.004420646466314793,-0.5920652151107788,0.029026000743273928,-0.5586250404853582,-0.0473565558738284,0.025140867363445063,-0.1856890300213481,0.0,0.0,-0.6,0.0,0.0014522075653076172,0
2.063748598098755,-0.025691650807857513,-0.004274981562048197,-0.5920183658599854,0.028748314291598756,-0.5573189949264055,-0.016674300969873528,0.07716023585424199,-0.18383707140314148,0.0,0.0,-0.6,0.0,0.0067899227142333984,0
2.0780255794525146,-0.026004666462540627,-0.004051849711686373,-0.5919575095176697,0.028305418791225292,-0.5583099789272904,-0.02542392238743298,0.11111158917098153,-0.18101678563088006,0.0,0.0,-0.6,0.0,0.0061626434326171875,0
2.09128737449646,-0.026004666462540627,-0.004051849711686373,-0.5919575095176697,0.028305418791225292,-0.5583099789272904,-0.02542392238743298,0.11111158917098153,-0.18101678563088006,0.0,0.0,-0.6,0.0,0.0015869140625,0
2.100713014602661,-0.026340613141655922,-0.0037724380381405354,-0.5918086767196655,0.02779356967401023,-0.5591695073506824,0.013748422975127461,0.10368801438540531,-0.17765601678043413,0.0,0.0,-0.6,0.0,0.006586790084838867,0
2.1142308712005615,-0.026340613141655922,-0.0037724380381405354,-0.5918086767196655,0.02779356967401023,-0.5591695073506824,0.013748422975127461,0.10368801438540531,-0.17765601678043413,0.0,0.0,-0.6,0.0,0.0011959075927734375,0
2.123070240020752,-0.026726702228188515,-0.0034114625304937363,-0.5917465686798096,0.027131776479675657,-0.5594202992771246,-0.12778563484664468,-0.028149630157661393,-0.17376154375421754,0.0,0.0,-0.6,0.0,0.008253812789916992,0
2.1379079818725586,-0.026726702228188515,-0.0034114625304937363,-0.5917465686798096,0.027131776479675657,-0.5594202992771246,-0.12778563484664468,-0.028149630157661393,-0.17376154375421754,0.0,0.0,-0.6,0.0,0.0013298988342285156,0
2.1480283737182617,-0.02702859789133072,-0.0030974699184298515,-0.5915303826332092,0.026575956682989475,-0.5582579784118258,-0.10868757288442818,0.049171019983760805,-0.17012582233250803,0.0,0.0,-0.6,0.0,0.0061833858489990234,0
2.161248207092285,-0.02702859789133072,-0.0030974699184298515,-0.5915303826332092,0.026575956682989475,-0.5582579784118258,-0.10868757288442818,0.049171019983760805,-0.17012582233250803,0.0,0.0,-0.6,0.0,0.0011560916900634766,0
2.169680595397949,-0.02714484930038452,-0.0028547279071062803,-0.5914818048477173,0.02601825196524234,-0.5570463893050265,-0.06050460806046578,0.06375768271589716,-0.1664554084338721,0.0,0.0,-0.6,0.0,0.006861686706542969,0
2.1827800273895264,-0.02714484930038452,-0.0028547279071062803,-0.5914818048477173,0.02601825196524234,-0.5570463893050265,-0.06050460806046578,0.06375768271589716,-0.1664554084338721,0.0,0.0,-0.6,0.0,0.0011675357818603516,0
2.1910970211029053,-0.027444694191217422,-0.00261762086302042,-0.591275691986084,0.025418861943942196,-0.559408345567599,-0.10350940216443884,0.029073476239195414,-0.16271636791287492,0.0,0.0,-0.6,0.0,0.0068399906158447266,0
2.205190896987915,-0.027497416362166405,-0.002352310111746192,-0.5911610722541809,0.02483265597386502,-0.5576147548192395,-0.13744831578227365,0.025990050001080345,-0.15902775584582743,0.0,0.0,-0.6,0.0,0.0062427520751953125,0
2.218306541442871,-0.027497416362166405,-0.002352310111746192,-0.5911610722541809,0.02483265597386502,-0.5576147548192395,-0.13744831578227365,0.025990050001080345,-0.15902775584582743,0.0,0.0,-0.6,0.0,0.0011708736419677734,0
2.228125810623169,-0.027590449899435043,-0.002210392849519849,-0.591072142124176,0.02428231821606991,-0.5599724047027012,-0.1316709799684559,-0.05432011433780717,-0.15555673059024772,0.0,0.0,-0.6,0.0,0.006604671478271484,0
2.2412991523742676,-0.027590449899435043,-0.002210392849519849,-0.591072142124176,0.02428231821606991,-0.5599724047027012,-0.1316709799684559,-0.05432011433780717,-0.15555673059024772,0.0,0.0,-0.6,0.0,0.0014088153839111328,0
2.2499806880950928,-0.02774207293987274,-0.0019326162291690707,-0.590900182723999,0.02378661576721428,-0.5570619278218423,-0.12626549619715416,0.06658618144002766,-0.1522855813421498,0.0,0.0,-0.6,0.0,0.006590604782104492,0
2.264256715774536,-0.02770628035068512,-0.0017410425934940577,-0.5908986926078796,0.023242974808549973,-0.5565304928332448,-0.0665876512928754,0.08455955874899962,-0.1487010861319116,0.0,0.0,-0.6,0.0,0.006894826889038086,0
2.277794361114502,-0.02770628035068512,-0.0017410425934940577,-0.5908986926078796,0.023242974808549973,-0.5565304928332448,-0.0665876512928754,0.08455955874899962,-0.1487010861319116,0.0,0.0,-0.6,0.0,0.0013585090637207031,0
2.286454439163208,-0.02788274548947811,-0.0015683104284107685,-0.5907778143882751,0.02277339283179917,-0.5574429630524992,-0.1559202849567784,0.023778497179730962,-0.14589522309126238,0.0,0.0,-0.6,0.0,0.0067789554595947266,0
2.3006839752197266,-0.02788274548947811,-0.0015683104284107685,-0.5907778143882751,0.02277339283179917,-0.5574429630524992,-0.1559202849567784,0.023778497179730962,-0.14589522309126238,0.0,0.0,-0.6,0.0,0.0011553764343261719,0
2.3091022968292236,-0.027894508093595505,-0.0013322752201929688,-0.5907742977142334,0.022432778717053535,-0.556500241555588,-0.1223821971490836,0.04040021950707413,-0.14365097845538743,0.0,0.0,-0.6,0.0,0.006868124008178711,0
2.3220810890197754,-0.02790350653231144,-0.001221908605657518,-0.5907955765724182,0.02220285256933385,-0.5583355462488065,-0.08342586250927037,-0.005366611544856326,-0.1421399584557868,0.0,0.0,-0.6,0.0,0.007267475128173828,0
2.3359432220458984,-0.02790350653231144,-0.001221908605657518,-0.5907955765724182,0.02220285256933385,-0.5583355462488065,-0.08342586250927037,-0.005366611544856326,-0.1421399584557868,0.0,0.0,-0.6,0.0,0.0012149810791015625,0
2.3449387550354004,-0.028135836124420166,-0.0009469784563407302,-0.5906679630279541,0.022025911203590254,-0.5578516927086058,-0.07437207906900609,0.023523549310138586,-0.14097053755369884,0.0,0.0,-0.6,0.0,0.007397174835205078,0
2.360253095626831,-0.028135836124420166,-0.0009469784563407302,-0.5906679630279541,0.022025911203590254,-0.5578516927086058,-0.07437207906900609,0.023523549310138586,-0.14097053755369884,0.0,0.0,-0.6,0.0,0.0013566017150878906,0
2.369213819503784,-0.028174543753266335,-0.0007357849390245974,-0.5905956625938416,0.021891062395335965,-0.556253658641063,-0.053349643263007354,0.05648856478695083,-0.14005660422659097,0.0,0.0,-0.6,0.0,0.007394313812255859,0
2.3835670948028564,-0.028371376916766167,-0.0005903767887502909,-0.5904302597045898,0.021688346531269557,-0.5588161308095364,-0.0756146062165519,-0.04296560983129291,-0.13882163345157056,0.0,0.0,-0.6,0.0,0.006652355194091797,0
2.3971493244171143,-0.028371376916766167,-0.0005903767887502909,-0.5904302597045898,0.021688346531269557,-0.5588161308095364,-0.0756146062165519,-0.04296560983129291,-0.13882163345157056,0.0,0.0,-0.6,0.0,0.0015366077423095703,0
2.4063334465026855,-0.02863076888024807,-0.0004045896348543465,-0.590067982673645,0.021537819936761113,-0.5593884826806039,-0.06125067958867517,-0.01865172246641949,-0.13781843904256344,0.0,0.0,-0.6,0.0,0.0065882205963134766,0
2.419966220855713,-0.02863076888024807,-0.0004045896348543465,-0.590067982673645,0.021537819936761113,-0.5593884826806039,-0.06125067958867517,-0.01865172246641949,-0.13781843904256344,0.0,0.0,-0.6,0.0,0.0010952949523925781,0
2.4287562370300293,-0.028661083430051804,-0.00022500046179629862,-0.5897959470748901,0.02152587485147447,-0.5599181908270886,0.011839729164461703,0.00563538830034758,-0.1376228159297918,0.0,0.0,-0.6,0.0,0.006741523742675781,0
2.442964792251587,-0.02882002294063568,-0.00010757730342447758,-0.5893569588661194,0.021584161549307253,-0.5628742577559372,0.02043783502787271,-0.07440214137983452,-0.1379758980291279,0.0,0.0,-0.6,0.0,0.008959054946899414,0
2.4592771530151367,-0.02882002294063568,-0.00010757730342447758,-0.5893569588661194,0.021584161549307253,-0.5628742577559372,0.02043783502787271,-0.07440214137983452,-0.1379758980291279,0.0,0.0,-0.6,0.0,0.0011565685272216797,0
2.4690544605255127,-0.029148917645215988,0.00014129854389466345,-0.5885407328605652,0.021436041296313574,-0.5611177122929393,-0.008384679631510916,-0.02034427340315854,-0.13706374544562636,0.0,0.0,-0.6,0.0,0.006760597229003906,0
2.4824585914611816,-0.029148917645215988,0.00014129854389466345,-0.5885407328605652,0.021436041296313574,-0.5611177122929393,-0.008384679631510916,-0.02034427340315854,-0.13706374544562636,0.0,0.0,-0.6,0.0,0.001352548599243164,0
2.4915969371795654,-0.029155274853110313,0.0002129313361365348,-0.5880321860313416,0.02140412570226407,-0.5606083544060331,0.02674898836925884,-0.017184648513021022,-0.13680431074225952,0.0,0.0,-0.6,0.0,0.006928682327270508,0
2.5057427883148193,-0.029155274853110313,0.0002129313361365348,-0.5880321860313416,0.02140412570226407,-0.5606083544060331,0.02674898836925884,-0.017184648513021022,-0.13680431074225952,0.0,0.0,-0.6,0.0,0.0010721683502197266,0
2.5131213665008545,-0.029387585818767548,0.00032565477886237204,-0.5873693227767944,0.021346982568802932,-0.5626450005987836,0.06627659825646805,-0.019979112532394844,-0.13637502756893613,0.0,0.0,-0.6,0.0,0.007088899612426758,0
2.5259389877319336,-0.029387585818767548,0.00032565477886237204,-0.5873693227767944,0.021346982568802932,-0.5626450005987836,0.06627659825646805,-0.019979112532394844,-0.13637502756893613,0.0,0.0,-0.6,0.0,0.001249551773071289,0
2.5348031520843506,-0.02951042726635933,0.00043221033411100507,-0.5867012143135071,0.021426929454360207,-0.56281796169095,0.09806355074576878,0.029554524766791816,-0.13685317637516833,0.0,0.0,-0.6,0.0,0.006774187088012695,0
2.5485966205596924,-0.02951042726635933,0.00043221033411100507,-0.5867012143135071,0.021426929454360207,-0.56281796169095,0.09806355074576878,0.029554524766791816,-0.13685317637516833,0.0,0.0,-0.6,0.0,0.00135040283203125,0
2.5585098266601562,-0.029569407925009727,0.0004353452241048217,-0.5861623287200928,0.02144352387705595,-0.5639217499350496,0.10176487731169538,-0.051390565298145924,-0.136914640090112,0.0,0.0,-0.6,0.0,0.008303165435791016,0
2.573754072189331,-0.029817942529916763,0.00044354412239044905,-0.5854170918464661,0.021306781465775592,-0.5647766498189989,0.06155711829358512,-0.06778299509282802,-0.1360892742590071,0.0,0.0,-0.6,0.0,0.008278608322143555,0
2.5890772342681885,-0.029817942529916763,0.00044354412239044905,-0.5854170918464661,0.021306781465775592,-0.5647766498189989,0.06155711829358512,-0.06778299509282802,-0.1360892742590071,0.0,0.0,-0.6,0.0,0.0013577938079833984,0
2.598686695098877,-0.029925070703029633,0.00035220259451307356,-0.5844810605049133,0.02119382060721051,-0.5619950926394164,0.14100020119350695,0.015458236629767003,-0.13527801902119857,0.0,0.0,-0.6,0.0,0.00712895393371582,0
2.611823558807373,-0.029925070703029633,0.00035220259451307356,-0.5844810605049133,0.02119382060721051,-0.5619950926394164,0.14100020119350695,0.015458236629767003,-0.13527801902119857,0.0,0.0,-0.6,0.0,0.001390695571899414,0
2.6211438179016113,-0.030180221423506737,0.0003553374554030597,-0.5836893916130066,0.02106770738004721,-0.5655887840403931,0.1182102560866382,-0.01216327559817142,-0.1344969833132888,0.0,0.0,-0.6,0.0,0.0066831111907958984,0
2.6344218254089355,-0.030180221423506737,0.0003553374554030597,-0.5836893916130066,0.02106770738004721,-0.5655887840403931,0.1182102560866382,-0.01216327559817142,-0.1344969833132888,0.0,0.0,-0.6,0.0,0.0016300678253173828,0
2.6442527770996094,-0.030288657173514366,0.0002979816636070609,-0.5830285549163818,0.020975178599612787,-0.56364701767564,0.11049218068947181,0.018920975418854465,-0.13393240149172905,0.0,0.0,-0.6,0.0,0.0065267086029052734,0
2.6573898792266846,-0.030288657173514366,0.0002979816636070609,-0.5830285549163818,0.020975178599612787,-0.56364701767564,0.11049218068947181,0.018920975418854465,-0.13393240149172905,0.0,0.0,-0.6,0.0,0.001399993896484375,0
2.666679620742798,-0.030322732403874397,0.00020251575915608555,-0.5824424028396606,0.020837412501097254,-0.5650828765289518,0.0547005129134642,-0.03150721609458695,-0.13312028205386367,0.0,0.0,-0.6,0.0,0.008089780807495117,0
2.682091236114502,-0.030446762219071388,6.991776899667457e-05,-0.5817261338233948,0.020638274714092925,-0.5631719660930327,0.07385671990241732,0.024996117316319514,-0.13183161245618674,0.0,0.0,-0.6,0.0,0.006959199905395508,0
2.6950502395629883,-0.030446762219071388,6.991776899667457e-05,-0.5817261338233948,0.020638274714092925,-0.5631719660930327,0.07385671990241732,0.024996117316319514,-0.13183161245618674,0.0,0.0,-0.6,0.0,0.0013539791107177734,0
2.7046806812286377,-0.030381377786397934,-8.820438233669847e-05,-0.5812374353408813,0.02043157004025344,-0.5627382406067686,0.12583279039178397,0.08296436737628855,-0.13041558661558914,0.0,0.0,-0.6,0.0,0.006791830062866211,0
2.718266248703003,-0.030507205054163933,-0.00023540685651823878,-0.5806391835212708,0.020220605896457876,-0.5632384370057016,0.12761732789633443,0.04400308609809999,-0.12905613463368318,0.0,0.0,-0.6,0.0,0.006322383880615234,0
2.7309138774871826,-0.030507205054163933,-0.00023540685651823878,-0.5806391835212708,0.020220605896457876,-0.5632384370057016,0.12761732789633443,0.04400308609809999,-0.12905613463368318,0.0,0.0,-0.6,0.0,0.001249551773071289,0
2.738978147506714,-0.030482111498713493,-0.0004226292949169874,-0.5802534222602844,0.020065549228416992,-0.5630680901856068,0.02167773563713773,0.06390918606280249,-0.12825683117421988,0.0,0.0,-0.6,0.0,0.006311655044555664,0
2.752260208129883,-0.030482111498713493,-0.0004226292949169874,-0.5802534222602844,0.020065549228416992,-0.5630680901856068,0.02167773563713773,0.06390918606280249,-0.12825683117421988,0.0,0.0,-0.6,0.0,0.0014417171478271484,0
2.759957790374756,-0.030517728999257088,-0.0006404462037608027,-0.5798383355140686,0.019894921552555532,-0.562194719337379,-0.0006192318928013407,0.026766261278757284,-0.12721587844550744,0.0,0.0,-0.6,0.0,0.006056547164916992,0
2.7725932598114014,-0.030517728999257088,-0.0006404462037608027,-0.5798383355140686,0.019894921552555532,-0.562194719337379,-0.0006192318928013407,0.026766261278757284,-0.12721587844550744,0.0,0.0,-0.6,0.0,0.001184225082397461,0
2.7806763648986816,-0.030563795939087868,-0.0008964933222159743,-0.5795507431030273,0.01969981316082939,-0.560728486525809,0.03212833239093227,0.0804008413422605,-0.12588720941119685,0.0,0.0,-0.6,0.0,0.007227420806884766,0
2.794666290283203,-0.030563795939087868,-0.0008964933222159743,-0.5795507431030273,0.01969981316082939,-0.560728486525809,0.03212833239093227,0.0804008413422605,-0.12588720941119685,0.0,0.0,-0.6,0.0,0.0014433860778808594,0
2.803379774093628,-0.030640609562397003,-0.0010639193933457136,-0.5792227387428284,0.01956846864884414,-0.5617567823467969,0.06875081169812633,0.058533833389349595,-0.12498368322628409,0.0,0.0,-0.6,0.0,0.00674128532409668,0
2.816657066345215,-0.030640609562397003,-0.0010639193933457136,-0.5792227387428284,0.01956846864884414,-0.5617567823467969,0.06875081169812633,0.058533833389349595,-0.12498368322628409,0.0,0.0,-0.6,0.0,0.001188039779663086,0
2.8254425525665283,-0.030710965394973755,-0.0014385232934728265,-0.5789271593093872,0.019393352343009398,-0.5620098226993008,-0.016250709522855792,0.0017586021616464924,-0.12406046954663469,0.0,0.0,-0.6,0.0,0.006162405014038086,0
2.8390164375305176,-0.030710965394973755,-0.0014385232934728265,-0.5789271593093872,0.019393352343009398,-0.5620098226993008,-0.016250709522855792,0.0017586021616464924,-0.12406046954663469,0.0,0.0,-0.6,0.0,0.0014729499816894531,0
2.849081039428711,-0.030784847214818,-0.0017316644079983234,-0.5786698460578918,0.019394775607370622,-0.5608021192711659,-0.034645988269280927,0.03865625308110197,-0.12407763486904513,0.0,0.0,-0.6,0.0,0.006531953811645508,0
2.8623969554901123,-0.030784847214818,-0.0017316644079983234,-0.5786698460578918,0.019394775607370622,-0.5608021192711659,-0.034645988269280927,0.03865625308110197,-0.12407763486904513,0.0,0.0,-0.6,0.0,0.0013649463653564453,0
2.871269941329956,-0.030786218121647835,-0.002070968272164464,-0.5785500407218933,0.019299738148380968,-0.5601002099199998,-0.017268350777361892,0.027714897142266944,-0.12344534050433578,0.0,0.0,-0.6,0.0,0.006695270538330078,0
2.8851001262664795,-0.030927401036024094,-0.002244954463094473,-0.578299343585968,0.019233175807074728,-0.5613056533684948,0.03888572043496023,0.011062324284215126,-0.12294083994450099,0.0,0.0,-0.6,0.0,0.006722688674926758,0
2.899123191833496,-0.030927401036024094,-0.002244954463094473,-0.578299343585968,0.019233175807074728,-0.5613056533684948,0.03888572043496023,0.011062324284215126,-0.12294083994450099,0.0,0.0,-0.6,0.0,0.0011048316955566406,0
2.90838360786438,-0.03087392821907997,-0.0025313622318208218,-0.5781789422035217,0.019349996362376304,-0.5594337427725865,0.06281611372977781,-0.0031722336583257286,-0.12366404482723926,0.0,0.0,-0.6,0.0,0.006108522415161133,0
2.921760082244873,-0.03087392821907997,-0.0025313622318208218,-0.5781789422035217,0.019349996362376304,-0.5594337427725865,0.06281611372977781,-0.0031722336583257286,-0.12366404482723926,0.0,0.0,-0.6,0.0,0.0013225078582763672,0
2.930683135986328,-0.030945060774683952,-0.0027691370341926813,-0.5780616998672485,0.01935099621636837,-0.5622959809960976,-0.0892853672520261,-0.0716475394574092,-0.12394786222004557,0.0,0.0,-0.6,0.0,0.008361577987670898,0
2.9457943439483643,-0.030949294567108154,-0.002963619539514184,-0.5778653025627136,0.019375500924140816,-0.5595271054336093,-0.06176804880167689,0.020291222238581548,-0.12399167863144676,0.0,0.0,-0.6,0.0,0.0065076351165771484,0
2.959475040435791,-0.030949294567108154,-0.002963619539514184,-0.5778653025627136,0.019375500924140816,-0.5595271054336093,-0.06176804880167689,0.020291222238581548,-0.12399167863144676,0.0,0.0,-0.6,0.0,0.0011234283447265625,0
2.9680445194244385,-0.03087681531906128,-0.0032172894570976496,-0.5778146982192993,0.019467608581655974,-0.5597772467597464,-0.01602968334535329,-0.0004092083133415884,-0.12453331910917669,0.0,0.0,-0.6,0.0,0.007946968078613281,0
2.9820644855499268,-0.03087681531906128,-0.0032172894570976496,-0.5778146982192993,0.019467608581655974,-0.5597772467597464,-0.01602968334535329,-0.0004092083133415884,-0.12453331910917669,0.0,0.0,-0.6,0.0,0.0012121200561523438,0
2.990629196166992,-0.030969321727752686,-0.0032896935008466244,-0.5775198936462402,0.0195124737487457,-0.5600551780506174,-0.006368439755268567,-0.014043440910779139,-0.12482366240285249,0.0,0.0,-0.6,0.0,0.006676912307739258,0
3.003931760787964,-0.030969321727752686,-0.0032896935008466244,-0.5775198936462402,0.0195124737487457,-0.5600551780506174,-0.006368439755268567,-0.014043440910779139,-0.12482366240285249,0.0,0.0,-0.6,0.0,0.0018427371978759766,0
3.0131804943084717,-0.03084571473300457,-0.0034140893258154392,-0.5774387717247009,0.01953059776498275,-0.5611881543073954,-0.10124417356364698,-0.0759335063982925,-0.1251182754113488,0.0,0.0,-0.6,0.0,0.006676912307739258,0
3.0266358852386475,-0.03084571473300457,-0.0034140893258154392,-0.5774387717247009,0.01953059776498275,-0.5611881543073954,-0.10124417356364698,-0.0759335063982925,-0.1251182754113488,0.0,0.0,-0.6,0.0,0.0013194084167480469,0
3.034782886505127,-0.030891885980963707,-0.0034929425455629826,-0.577157199382782,0.019619837280950937,-0.5617524960791465,-0.1393372340254157,-0.06365140205496449,-0.12572844933995972,0.0,0.0,-0.6,0.0,0.0071680545806884766,0
3.0484375953674316,-0.030891885980963707,-0.0034929425455629826,-0.577157199382782,0.019619837280950937,-0.5617524960791465,-0.1393372340254157,-0.06365140205496449,-0.12572844933995972,0.0,0.0,-0.6,0.0,0.0013146400451660156,0
3.0596208572387695,-0.030747251585125923,-0.0036020593252032995,-0.5769060850143433,0.019701577817392457,-0.5609061430330081,-0.035815012566139816,0.05824432378739621,-0.12601040625690973,0.0,0.0,-0.6,0.0,0.0067827701568603516,0
3.073230028152466,-0.030747251585125923,-0.0036020593252032995,-0.5769060850143433,0.019701577817392457,-0.5609061430330081,-0.035815012566139816,0.05824432378739621,-0.12601040625690973,0.0,0.0,-0.6,0.0,0.0011565685272216797,0
3.081936836242676,-0.03079763427376747,-0.0036900818813592196,-0.5765942931175232,0.019808505087632187,-0.5613138730066237,-0.042739458478113085,-0.03097374554668795,-0.1267787762181171,0.0,0.0,-0.6,0.0,0.006833314895629883,0
3.0958218574523926,-0.03079763427376747,-0.0036900818813592196,-0.5765942931175232,0.019808505087632187,-0.5613138730066237,-0.042739458478113085,-0.03097374554668795,-0.1267787762181171,0.0,0.0,-0.6,0.0,0.001405477523803711,0
3.105034589767456,-0.03064963035285473,-0.003664273303002119,-0.5763792395591736,0.019869829974202738,-0.5611231886908677,-0.084043394005042,0.009013552062735115,-0.12720012547765594,0.0,0.0,-0.6,0.0,0.00666356086730957,0
3.118908643722534,-0.03064963035285473,-0.003664273303002119,-0.5763792395591736,0.019869829974202738,-0.5611231886908677,-0.084043394005042,0.009013552062735115,-0.12720012547765594,0.0,0.0,-0.6,0.0,0.0012857913970947266,0
3.128181219100952,-0.030421938747167587,-0.0037804178427904844,-0.5760952830314636,0.02008085960677785,-0.5634512949293884,-0.07201424869552639,-0.011784978077918925,-0.128551560945173,0.0,0.0,-0.6,0.0,0.006415367126464844,0
