time,x,y,z,yaw,throttle,roll_rate,pitch_rate,yaw_rate,x_ref,y_ref,z_ref,yaw_ref,mpc_time,metadata
3.337860107421875e-06,-0.06889044493436813,-0.0890774056315422,-0.2414681613445282,-0.0239705029699812,-0.5700189229285098,0.6083216423662455,-0.399218922269212,0.15367250039817293,0.0,0.0,-0.6,0.0,0.01651620864868164,Hardware
0.022059917449951172,-0.06889044493436813,-0.0890774056315422,-0.2414681613445282,-0.0239705029699812,-0.5700189229285098,0.6083216423662455,-0.399218922269212,0.15367250039817293,0.0,0.0,-0.6,0.0,0.0011951923370361328,Horizon:3.0
0.029807567596435547,-0.0688309371471405,-0.08914309740066528,-0.24142496287822723,-0.023890070532716183,-0.5701685924298202,0.6147224630616809,-0.3968020700247179,0.15316582218836972,0.0,0.0,-0.6,0.0,0.0054433345794677734,Num Steps:20
0.041007041931152344,-0.0688309371471405,-0.08914309740066528,-0.24142496287822723,-0.023890070532716183,-0.5701685924298202,0.6147224630616809,-0.3968020700247179,0.15316582218836972,0.0,0.0,-0.6,0.0,0.0011322498321533203,No Pyjoules
0.05016970634460449,-0.06874509155750275,-0.08925172686576843,-0.2413499355316162,-0.023865683440719942,-0.5704001534307783,0.615868431856375,-0.38993881112039164,0.1530219924641619,0.0,0.0,-0.6,0.0,0.005289316177368164,0
0.06117129325866699,-0.06874509155750275,-0.08925172686576843,-0.2413499355316162,-0.023865683440719942,-0.5704001534307783,0.615868431856375,-0.38993881112039164,0.1530219924641619,0.0,0.0,-0.6,0.0,0.0011341571807861328,0
0.0698239803314209,-0.06870703399181366,-0.08929147571325302,-0.24133893847465515,-0.023813933262496357,-0.5704927493932154,0.6211294459916229,-0.3917854658712432,0.15269706087164495,0.0,0.0,-0.6,0.0,0.005444765090942383,0
0.08077692985534668,-0.06870703399181366,-0.08929147571325302,-0.24133893847465515,-0.023813933262496357,-0.5704927493932154,0.6211294459916229,-0.3917854658712432,0.15269706087164495,0.0,0.0,-0.6,0.0,0.0011677742004394531,0
0.0910191535949707,-0.06861653178930283,-0.08941639214754105,-0.2413158118724823,-0.023928569604380872,-0.5697557478089157,0.6260374615234305,-0.39045981342995634,0.15343589769608706,0.0,0.0,-0.6,0.0,0.0062961578369140625,0
0.10280847549438477,-0.06861653178930283,-0.08941639214754105,-0.2413158118724823,-0.023928569604380872,-0.5697557478089157,0.6260374615234305,-0.39045981342995634,0.15343589769608706,0.0,0.0,-0.6,0.0,0.0011963844299316406,0
0.1104741096496582,-0.06857787072658539,-0.08945933729410172,-0.2413320541381836,-0.02372245179659116,-0.5696451514807372,0.6151031721884489,-0.3702228901624226,0.15212911331349527,0.0,0.0,-0.6,0.0,0.005538463592529297,0
0.12209486961364746,-0.0684160590171814,-0.08953732997179031,-0.2413848340511322,-0.023118253488988535,-0.5690661702073693,0.6166563936044397,-0.3350239397831978,0.14830863059310828,0.0,0.0,-0.6,0.0,0.0051882266998291016,0
0.13290858268737793,-0.0684160590171814,-0.08953732997179031,-0.2413848340511322,-0.023118253488988535,-0.5690661702073693,0.6166563936044397,-0.3350239397831978,0.14830863059310828,0.0,0.0,-0.6,0.0,0.0012154579162597656,0
0.14021825790405273,-0.06806932389736176,-0.08960390836000443,-0.24151578545570374,-0.023329307835960857,-0.5685036386573785,0.5929461296369715,-0.2715362481878292,0.14970645977643715,0.0,0.0,-0.6,0.0,0.006529331207275391,0
0.15254926681518555,-0.06806932389736176,-0.08960390836000443,-0.24151578545570374,-0.023329307835960857,-0.5685036386573785,0.5929461296369715,-0.2715362481878292,0.14970645977643715,0.0,0.0,-0.6,0.0,0.0011219978332519531,0
0.16011571884155273,-0.06755539029836655,-0.08963929116725922,-0.2417411357164383,-0.023347417510237542,-0.566752973478537,0.6180446037055626,-0.1884505899676454,0.14994042037684113,0.0,0.0,-0.6,0.0,0.007523059844970703,0
0.17308402061462402,-0.06755539029836655,-0.08963929116725922,-0.2417411357164383,-0.023347417510237542,-0.566752973478537,0.6180446037055626,-0.1884505899676454,0.14994042037684113,0.0,0.0,-0.6,0.0,0.001108407974243164,0
0.18033933639526367,-0.06671056151390076,-0.0895448848605156,-0.24232597649097443,-0.02279499988623383,-0.5633889195196722,0.5364165095489404,-0.10220263648093485,0.14648490310648674,0.0,0.0,-0.6,0.0,0.005890369415283203,0
0.19202804565429688,-0.06671056151390076,-0.0895448848605156,-0.24232597649097443,-0.02279499988623383,-0.5633889195196722,0.5364165095489404,-0.10220263648093485,0.14648490310648674,0.0,0.0,-0.6,0.0,0.0010879039764404297,0
0.20016145706176758,-0.06555704027414322,-0.08923137933015823,-0.2434031367301941,-0.02179281229610127,-0.558616391794581,0.4494684647858352,-0.008540839880583708,0.1401600769236479,0.0,0.0,-0.6,0.0,0.0054988861083984375,0
0.21087026596069336,-0.06555704027414322,-0.08923137933015823,-0.2434031367301941,-0.02179281229610127,-0.558616391794581,0.4494684647858352,-0.008540839880583708,0.1401600769236479,0.0,0.0,-0.6,0.0,0.0011010169982910156,0
0.21988630294799805,-0.06421268731355667,-0.08866669237613678,-0.24511034786701202,-0.020169278136227622,-0.5530529153115044,0.3463737381523753,0.12559741366644447,0.12986357669409526,0.0,0.0,-0.6,0.0,0.006879568099975586,0
0.23233675956726074,-0.06421268731355667,-0.08866669237613678,-0.24511034786701202,-0.020169278136227622,-0.5530529153115044,0.3463737381523753,0.12559741366644447,0.12986357669409526,0.0,0.0,-0.6,0.0,0.0010764598846435547,0
0.24006247520446777,-0.06274449080228806,-0.08783504366874695,-0.2474897801876068,-0.017821204847024427,-0.5474803064526432,0.21346182479778966,0.23851946884932895,0.11494248824545629,0.0,0.0,-0.6,0.0,0.005826473236083984,0
0.25121283531188965,-0.06274449080228806,-0.08783504366874695,-0.2474897801876068,-0.017821204847024427,-0.5474803064526432,0.21346182479778966,0.23851946884932895,0.11494248824545629,0.0,0.0,-0.6,0.0,0.0011372566223144531,0
0.25985217094421387,-0.06113702431321144,-0.08674799650907516,-0.25048625469207764,-0.014959899920532161,-0.5423284281049517,0.06033331199203715,0.34269158087762486,0.09671830881020768,0.0,0.0,-0.6,0.0,0.005697011947631836,0
0.27106308937072754,-0.06113702431321144,-0.08674799650907516,-0.25048625469207764,-0.014959899920532161,-0.5423284281049517,0.06033331199203715,0.34269158087762486,0.09671830881020768,0.0,0.0,-0.6,0.0,0.0011649131774902344,0
0.27980566024780273,-0.0585760623216629,-0.08475226163864136,-0.2560069262981415,-0.009900876494155064,-0.5354997860059888,-0.18061735389615477,0.4628897974849116,0.0643854771380694,0.0,0.0,-0.6,0.0,0.006407737731933594,0
0.29216885566711426,-0.0585760623216629,-0.08475226163864136,-0.2560069262981415,-0.009900876494155064,-0.5354997860059888,-0.18061735389615477,0.4628897974849116,0.0643854771380694,0.0,0.0,-0.6,0.0,0.0010826587677001953,0
0.3002049922943115,-0.05772404745221138,-0.08408696949481964,-0.2581275403499603,-0.008017565801581606,-0.5335234339456076,-0.2509057675357833,0.47928606824754005,0.052303331151124205,0.0,0.0,-0.6,0.0,0.005443572998046875,0
0.3109142780303955,-0.05772404745221138,-0.08408696949481964,-0.2581275403499603,-0.008017565801581606,-0.5335234339456076,-0.2509057675357833,0.47928606824754005,0.052303331151124205,0.0,0.0,-0.6,0.0,0.0011532306671142578,0
0.3198733329772949,-0.05608444660902023,-0.08270351588726044,-0.262727826833725,-0.004212537364641392,-0.5285061616499825,-0.4384600738856273,0.49693005972240734,0.027603113128918975,0.0,0.0,-0.6,0.0,0.006531953811645508,0
0.33151984214782715,-0.05608444660902023,-0.08270351588726044,-0.262727826833725,-0.004212537364641392,-0.5285061616499825,-0.4384600738856273,0.49693005972240734,0.027603113128918975,0.0,0.0,-0.6,0.0,0.0011262893676757812,0
0.3401765823364258,-0.05427331477403641,-0.08096364140510559,-0.26850730180740356,0.0006125543092139754,-0.522595935722736,-0.6461580770705387,0.5628273656102559,-0.0034343985842100982,0.0,0.0,-0.6,0.0,0.006907224655151367,0
0.35214734077453613,-0.05427331477403641,-0.08096364140510559,-0.26850730180740356,0.0006125543092139754,-0.522595935722736,-0.6461580770705387,0.5628273656102559,-0.0034343985842100982,0.0,0.0,-0.6,0.0,0.0010859966278076172,0
0.36038732528686523,-0.052656009793281555,-0.0793231800198555,-0.2740532159805298,0.0046315014944759815,-0.5178301807752704,-0.703885162763845,0.5729125921441457,-0.029105146716684405,0.0,0.0,-0.6,0.0,0.006256818771362305,0
0.37192821502685547,-0.052656009793281555,-0.0793231800198555,-0.2740532159805298,0.0046315014944759815,-0.5178301807752704,-0.703885162763845,0.5729125921441457,-0.029105146716684405,0.0,0.0,-0.6,0.0,0.001092672348022461,0
0.38008618354797363,-0.050908297300338745,-0.07743318378925323,-0.2806912362575531,0.010274579814199752,-0.5139035638327789,-0.6893748446028816,0.5487327770493222,-0.0651065846938545,0.0,0.0,-0.6,0.0,0.005402565002441406,0
0.39197373390197754,-0.050908297300338745,-0.07743318378925323,-0.2806912362575531,0.010274579814199752,-0.5139035638327789,-0.6893748446028816,0.5487327770493222,-0.0651065846938545,0.0,0.0,-0.6,0.0,0.0010585784912109375,0
0.4002811908721924,-0.05015982687473297,-0.07657419890165329,-0.2837509512901306,0.012395758932933426,-0.512131170107346,-0.6841119634978888,0.5125049850389597,-0.07879381194121178,0.0,0.0,-0.6,0.0,0.00551915168762207,0
0.41115784645080566,-0.05015982687473297,-0.07657419890165329,-0.2837509512901306,0.012395758932933426,-0.512131170107346,-0.6841119634978888,0.5125049850389597,-0.07879381194121178,0.0,0.0,-0.6,0.0,0.0010907649993896484,0
0.41997432708740234,-0.04801170527935028,-0.07434405386447906,-0.29237452149391174,0.019587605825019946,-0.5078290576721008,-0.6352553289140183,0.44535652340070536,-0.12490064719199832,0.0,0.0,-0.6,0.0,0.005455970764160156,0
0.43116235733032227,-0.04801170527935028,-0.07434405386447906,-0.29237452149391174,0.019587605825019946,-0.5078290576721008,-0.6352553289140183,0.44535652340070536,-0.12490064719199832,0.0,0.0,-0.6,0.0,0.0011358261108398438,0
0.4399418830871582,-0.046441689133644104,-0.07276120781898499,-0.2987872362136841,0.02414878683761818,-0.5057523423177951,-0.55285744655759,0.3477563752211274,-0.15429713766433972,0.0,0.0,-0.6,0.0,0.0055599212646484375,0
0.45061516761779785,-0.046441689133644104,-0.07276120781898499,-0.2987872362136841,0.02414878683761818,-0.5057523423177951,-0.55285744655759,0.3477563752211274,-0.15429713766433972,0.0,0.0,-0.6,0.0,0.0011327266693115234,0
0.45982813835144043,-0.04505625367164612,-0.07144643366336823,-0.30439236760139465,0.02888187407182378,-0.5041489850446127,-0.36495408086903103,0.4007852972285409,-0.18404832738050658,0.0,0.0,-0.6,0.0,0.0067217350006103516,0
0.4721658229827881,-0.04505625367164612,-0.07144643366336823,-0.30439236760139465,0.02888187407182378,-0.5041489850446127,-0.36495408086903103,0.4007852972285409,-0.18404832738050658,0.0,0.0,-0.6,0.0,0.0012362003326416016,0
0.4800558090209961,-0.044287290424108505,-0.07067669183015823,-0.3075484037399292,0.03096660522503275,-0.5038816495114151,-0.292318178730215,0.3622056132677728,-0.197442699642372,0.0,0.0,-0.6,0.0,0.005499839782714844,0
0.492267370223999,-0.04211312532424927,-0.06861311197280884,-0.3160610795021057,0.0374436443452319,-0.5031194233983934,-0.17649848030735155,0.21753823508369358,-0.23924634063492464,0.0,0.0,-0.6,0.0,0.004953145980834961,0
0.5030279159545898,-0.04211312532424927,-0.06861311197280884,-0.3160610795021057,0.0374436443452319,-0.5031194233983934,-0.17649848030735155,0.21753823508369358,-0.23924634063492464,0.0,0.0,-0.6,0.0,0.0010905265808105469,0
0.5117182731628418,-0.041341155767440796,-0.06782533973455429,-0.3190671503543854,0.039359776919038816,-0.5029491633441184,-0.12732599434222056,0.17306994168586162,-0.2515576243088406,0.0,0.0,-0.6,0.0,0.005438566207885742,0
0.522371768951416,-0.041341155767440796,-0.06782533973455429,-0.3190671503543854,0.039359776919038816,-0.5029491633441184,-0.12732599434222056,0.17306994168586162,-0.2515576243088406,0.0,0.0,-0.6,0.0,0.0011136531829833984,0
0.5299603939056396,-0.039301227778196335,-0.06568904221057892,-0.327111154794693,0.04483573550333455,-0.5024143187146866,0.1423058345152523,0.0993600386883882,-0.28661052799402326,0.0,0.0,-0.6,0.0,0.005432844161987305,0
0.540644645690918,-0.039301227778196335,-0.06568904221057892,-0.327111154794693,0.04483573550333455,-0.5024143187146866,0.1423058345152523,0.0993600386883882,-0.28661052799402326,0.0,0.0,-0.6,0.0,0.0011060237884521484,0
0.5499246120452881,-0.03858448565006256,-0.06489631533622742,-0.3299521505832672,0.04644521788991735,-0.502368755181853,0.19943616070025796,0.0690033481029245,-0.29694570482605526,0.0,0.0,-0.6,0.0,0.00555872917175293,0
0.5607585906982422,-0.03858448565006256,-0.06489631533622742,-0.3299521505832672,0.04644521788991735,-0.502368755181853,0.19943616070025796,0.0690033481029245,-0.29694570482605526,0.0,0.0,-0.6,0.0,0.0010833740234375,0
0.5701186656951904,-0.03680417314171791,-0.06273017823696136,-0.33745816349983215,0.05064895894713161,-0.5030679685406171,0.29818604948107785,-0.08095972064817256,-0.3238649214624909,0.0,0.0,-0.6,0.0,0.005605936050415039,0
0.580897331237793,-0.03680417314171791,-0.06273017823696136,-0.33745816349983215,0.05064895894713161,-0.5030679685406171,0.29818604948107785,-0.08095972064817256,-0.3238649214624909,0.0,0.0,-0.6,0.0,0.0010428428649902344,0
0.591080904006958,-0.03622017428278923,-0.06193074956536293,-0.3401017189025879,0.051927730025207584,-0.5027882764550332,0.31680803166752847,-0.08992684968628782,-0.3320767995204225,0.0,0.0,-0.6,0.0,0.005895853042602539,0
0.603050708770752,-0.03504939004778862,-0.060285668820142746,-0.3453296720981598,0.05414329279075346,-0.5017354252100682,0.31394987980481787,-0.10999508995322485,-0.34628494479663796,0.0,0.0,-0.6,0.0,0.0052928924560546875,0
0.6139354705810547,-0.03504939004778862,-0.060285668820142746,-0.3453296720981598,0.05414329279075346,-0.5017354252100682,0.31394987980481787,-0.10999508995322485,-0.34628494479663796,0.0,0.0,-0.6,0.0,0.0011103153228759766,0
0.6210508346557617,-0.03389807790517807,-0.058632537722587585,-0.3503749370574951,0.05619908015786979,-0.5011363361559545,0.3593831257058228,-0.16902604100761778,-0.35940460376338446,0.0,0.0,-0.6,0.0,0.005962371826171875,0
0.6321985721588135,-0.03389807790517807,-0.058632537722587585,-0.3503749370574951,0.05619908015786979,-0.5011363361559545,0.3593831257058228,-0.16902604100761778,-0.35940460376338446,0.0,0.0,-0.6,0.0,0.0010902881622314453,0
0.640261173248291,-0.03277500718832016,-0.057076092809438705,-0.3552987277507782,0.058198683657278524,-0.5015955233496767,0.34549970080331055,-0.20644133363560455,-0.3721332715049648,0.0,0.0,-0.6,0.0,0.005477428436279297,0
0.6508588790893555,-0.03277500718832016,-0.057076092809438705,-0.3552987277507782,0.058198683657278524,-0.5015955233496767,0.34549970080331055,-0.20644133363560455,-0.3721332715049648,0.0,0.0,-0.6,0.0,0.0011093616485595703,0
0.6602737903594971,-0.031682033091783524,-0.05558086559176445,-0.36006176471710205,0.05978992531392457,-0.5005719585080303,0.3124068744630175,-0.18778280469622516,-0.3823278081366176,0.0,0.0,-0.6,0.0,0.005568265914916992,0
0.6711633205413818,-0.031682033091783524,-0.05558086559176445,-0.36006176471710205,0.05978992531392457,-0.5005719585080303,0.3124068744630175,-0.18778280469622516,-0.3823278081366176,0.0,0.0,-0.6,0.0,0.0010769367218017578,0
0.6806690692901611,-0.030674438923597336,-0.054226815700531006,-0.3647741377353668,0.061169889501978894,-0.5003782207747297,0.30122414505410894,-0.15743131973152058,-0.39119938950840544,0.0,0.0,-0.6,0.0,0.005315065383911133,0
0.6916658878326416,-0.030674438923597336,-0.054226815700531006,-0.3647741377353668,0.061169889501978894,-0.5003782207747297,0.30122414505410894,-0.15743131973152058,-0.39119938950840544,0.0,0.0,-0.6,0.0,0.0011169910430908203,0
0.6999309062957764,-0.02979102171957493,-0.05299767851829529,-0.3694019913673401,0.0625297422399436,-0.4988241598319799,0.30170759420214116,-0.16908739285102636,-0.3998896998944695,0.0,0.0,-0.6,0.0,0.005555391311645508,0
0.710482120513916,-0.02979102171957493,-0.05299767851829529,-0.3694019913673401,0.0625297422399436,-0.4988241598319799,0.30170759420214116,-0.16908739285102636,-0.3998896998944695,0.0,0.0,-0.6,0.0,0.0011315345764160156,0
0.7198853492736816,-0.029361408203840256,-0.05241905525326729,-0.3717396855354309,0.0630749856321883,-0.4987424217448094,0.29993498158814536,-0.1662901074512068,-0.4033707709450327,0.0,0.0,-0.6,0.0,0.0057315826416015625,0
0.7307906150817871,-0.029361408203840256,-0.05241905525326729,-0.3717396855354309,0.0630749856321883,-0.4987424217448094,0.29993498158814536,-0.1662901074512068,-0.4033707709450327,0.0,0.0,-0.6,0.0,0.0012013912200927734,0
0.739983081817627,-0.02827558107674122,-0.050767771899700165,-0.3784719705581665,0.06437062687788435,-0.49750981248666304,0.18684407170879327,-0.10759825196430872,-0.41164991577493887,0.0,0.0,-0.6,0.0,0.005233049392700195,0
0.7502684593200684,-0.02827558107674122,-0.050767771899700165,-0.3784719705581665,0.06437062687788435,-0.49750981248666304,0.18684407170879327,-0.10759825196430872,-0.41164991577493887,0.0,0.0,-0.6,0.0,0.001148223876953125,0
0.7607920169830322,-0.0276469923555851,-0.0497765876352787,-0.3828614056110382,0.06481030304628732,-0.49753886293150884,0.13111962758190626,-0.06822820050439775,-0.41444287465463303,0.0,0.0,-0.6,0.0,0.0046346187591552734,0
0.7707486152648926,-0.0276469923555851,-0.0497765876352787,-0.3828614056110382,0.06481030304628732,-0.49753886293150884,0.13111962758190626,-0.06822820050439775,-0.41444287465463303,0.0,0.0,-0.6,0.0,0.0011358261108398438,0
0.779944896697998,-0.02737428992986679,-0.04930282011628151,-0.3850264847278595,0.06502436731549904,-0.49631149475082714,0.13708050412438325,-0.05284902155571278,-0.4158062414933194,0.0,0.0,-0.6,0.0,0.005273580551147461,0
0.7914736270904541,-0.02737428992986679,-0.04930282011628151,-0.3850264847278595,0.06502436731549904,-0.49631149475082714,0.13708050412438325,-0.05284902155571278,-0.4158062414933194,0.0,0.0,-0.6,0.0,0.001150369644165039,0
0.7998466491699219,-0.026758063584566116,-0.04825196787714958,-0.389877587556839,0.0652422246828197,-0.4966415299808571,0.03589262705313105,-0.036042165809760184,-0.41719803211409434,0.0,0.0,-0.6,0.0,0.00566554069519043,0
0.810798168182373,-0.026758063584566116,-0.04825196787714958,-0.389877587556839,0.0652422246828197,-0.4966415299808571,0.03589262705313105,-0.036042165809760184,-0.41719803211409434,0.0,0.0,-0.6,0.0,0.0011248588562011719,0
0.8201565742492676,-0.026115788146853447,-0.046961456537246704,-0.39550378918647766,0.06518533978671753,-0.4964384473719988,-0.06254603996954934,-0.004747510806819529,-0.4168594433056461,0.0,0.0,-0.6,0.0,0.005648374557495117,0
0.8310210704803467,-0.026115788146853447,-0.046961456537246704,-0.39550378918647766,0.06518533978671753,-0.4964384473719988,-0.06254603996954934,-0.004747510806819529,-0.4168594433056461,0.0,0.0,-0.6,0.0,0.0010673999786376953,0
0.8399052619934082,-0.025932999327778816,-0.04652009904384613,-0.3974938690662384,0.0651606571959606,-0.496458715964905,-0.08705048025862684,0.027223546204595255,-0.41667851607471773,0.0,0.0,-0.6,0.0,0.005450010299682617,0
0.8506772518157959,-0.025932999327778816,-0.04652009904384613,-0.3974938690662384,0.0651606571959606,-0.496458715964905,-0.08705048025862684,0.027223546204595255,-0.41667851607471773,0.0,0.0,-0.6,0.0,0.001142263412475586,0
0.8599505424499512,-0.02552167698740959,-0.04535764083266258,-0.40273013710975647,0.06452804532929256,-0.4967202220658651,-0.1666305365117679,0.02648663499789584,-0.41272408148593576,0.0,0.0,-0.6,0.0,0.005542278289794922,0
0.8707678318023682,-0.02552167698740959,-0.04535764083266258,-0.40273013710975647,0.06452804532929256,-0.4967202220658651,-0.1666305365117679,0.02648663499789584,-0.41272408148593576,0.0,0.0,-0.6,0.0,0.0011746883392333984,0
0.8800861835479736,-0.025283601135015488,-0.044551171362400055,-0.40636929869651794,0.06398421849452653,-0.4965079971249837,-0.17193054378985165,0.03786327457771726,-0.4092464102749809,0.0,0.0,-0.6,0.0,0.0055561065673828125,0
0.89156174659729,-0.025283601135015488,-0.044551171362400055,-0.40636929869651794,0.06398421849452653,-0.4965079971249837,-0.17193054378985165,0.03786327457771726,-0.4092464102749809,0.0,0.0,-0.6,0.0,0.0010704994201660156,0
0.8999226093292236,-0.025079963728785515,-0.04383055493235588,-0.4094283878803253,0.0633549465515778,-0.49717927415479923,-0.18825950542947256,0.04091132916398577,-0.4052515652151403,0.0,0.0,-0.6,0.0,0.0043904781341552734,0
0.9109516143798828,-0.024984726682305336,-0.043459586799144745,-0.41110289096832275,0.06300669106304523,-0.4971066902138517,-0.17831318397260645,0.04313484564230035,-0.40301402774554484,0.0,0.0,-0.6,0.0,0.005303382873535156,0
0.9214990139007568,-0.024984726682305336,-0.043459586799144745,-0.41110289096832275,0.06300669106304523,-0.4971066902138517,-0.17831318397260645,0.04313484564230035,-0.40301402774554484,0.0,0.0,-0.6,0.0,0.0010807514190673828,0
0.9298233985900879,-0.0248071551322937,-0.042646657675504684,-0.4147654175758362,0.062135086873359384,-0.4983916201729002,-0.18338882885966903,0.047766584599128525,-0.3974497180532698,0.0,0.0,-0.6,0.0,0.004383563995361328,0
0.941399097442627,-0.0247304979711771,-0.04229212552309036,-0.4163486957550049,0.06170595423921763,-0.49790167297517596,-0.1723864615443639,0.05917457089119676,-0.3946689184763035,0.0,0.0,-0.6,0.0,0.004411458969116211,0
0.9510178565979004,-0.0247304979711771,-0.04229212552309036,-0.4163486957550049,0.06170595423921763,-0.49790167297517596,-0.1723864615443639,0.05917457089119676,-0.3946689184763035,0.0,0.0,-0.6,0.0,0.001148223876953125,0
0.961040735244751,-0.02461337298154831,-0.041587214916944504,-0.4194106161594391,0.06081596320864003,-0.4976742256055826,-0.17198512005287378,0.06425117157378596,-0.38897500317489847,0.0,0.0,-0.6,0.0,0.004531145095825195,0
0.9709062576293945,-0.02461337298154831,-0.041587214916944504,-0.4194106161594391,0.06081596320864003,-0.4976742256055826,-0.17198512005287378,0.06425117157378596,-0.38897500317489847,0.0,0.0,-0.6,0.0,0.0011518001556396484,0
0.9799983501434326,-0.02452814020216465,-0.04092070460319519,-0.4218948185443878,0.059644673336372286,-0.4985153523691851,-0.1540870063897897,0.07107281484595815,-0.3814522495261175,0.0,0.0,-0.6,0.0,0.004402875900268555,0
0.9913556575775146,-0.024491166695952415,-0.040556538850069046,-0.4232710003852844,0.05915614925417506,-0.4983866479448381,-0.14910364804064016,0.07169714707224108,-0.37832277802217135,0.0,0.0,-0.6,0.0,0.00437164306640625,0
1.0011482238769531,-0.024491166695952415,-0.040556538850069046,-0.4232710003852844,0.05915614925417506,-0.4983866479448381,-0.14910364804064016,0.07169714707224108,-0.37832277802217135,0.0,0.0,-0.6,0.0,0.0010743141174316406,0
1.009958028793335,-0.024388708174228668,-0.039743561297655106,-0.4262602627277374,0.057641621896575124,-0.49962359816553314,-0.09798732553937271,0.052020771576444975,-0.3686000899294774,0.0,0.0,-0.6,0.0,0.004506587982177734,0
1.0201020240783691,-0.024388708174228668,-0.039743561297655106,-0.4262602627277374,0.057641621896575124,-0.49962359816553314,-0.09798732553937271,0.052020771576444975,-0.3686000899294774,0.0,0.0,-0.6,0.0,0.0010924339294433594,0
1.0297966003417969,-0.02429979294538498,-0.03903888538479805,-0.42875349521636963,0.056331398222027464,-0.5001278553794191,-0.0754359482150785,0.055719815943753734,-0.36018448776217915,0.0,0.0,-0.6,0.0,0.004649639129638672,0
1.0412325859069824,-0.024266259744763374,-0.03859459608793259,-0.43026214838027954,0.05501185234140223,-0.4997819118346828,-0.080348638605948,0.07792067361661759,-0.3517290857697008,0.0,0.0,-0.6,0.0,0.005631685256958008,0
1.0520846843719482,-0.024266259744763374,-0.03859459608793259,-0.43026214838027954,0.05501185234140223,-0.4997819118346828,-0.080348638605948,0.07792067361661759,-0.3517290857697008,0.0,0.0,-0.6,0.0,0.0010437965393066406,0
1.059995174407959,-0.024245735257864,-0.038222670555114746,-0.4313996136188507,0.05424134658192643,-0.4999871934707897,-0.04448038810409542,0.07470479766812096,-0.34675222453945403,0.0,0.0,-0.6,0.0,0.004641056060791016,0
1.0699729919433594,-0.024245735257864,-0.038222670555114746,-0.4313996136188507,0.05424134658192643,-0.4999871934707897,-0.04448038810409542,0.07470479766812096,-0.34675222453945403,0.0,0.0,-0.6,0.0,0.0011856555938720703,0
1.0798838138580322,-0.024205779656767845,-0.03719152882695198,-0.4344247281551361,0.05158336511692866,-0.5002233255715304,-0.012510608167737134,0.06629289291991676,-0.32972456868450717,0.0,0.0,-0.6,0.0,0.004822254180908203,0
1.0909638404846191,-0.024205779656767845,-0.03719152882695198,-0.4344247281551361,0.05158336511692866,-0.5002233255715304,-0.012510608167737134,0.06629289291991676,-0.32972456868450717,0.0,0.0,-0.6,0.0,0.0012171268463134766,0
1.099879264831543,-0.024155059829354286,-0.03646490350365639,-0.4365358054637909,0.049764062739971845,-0.5005774078602798,0.02865248093371956,0.045785894096096715,-0.3180452039285976,0.0,0.0,-0.6,0.0,0.004438161849975586,0
1.1104488372802734,-0.024155059829354286,-0.03646490350365639,-0.4365358054637909,0.049764062739971845,-0.5005774078602798,0.02865248093371956,0.045785894096096715,-0.3180452039285976,0.0,0.0,-0.6,0.0,0.001226663589477539,0
1.1202747821807861,-0.024115923792123795,-0.03574526309967041,-0.43856513500213623,0.048193089476363506,-0.5008192648701739,0.03222348335287983,0.0704608373787838,-0.3079807793319312,0.0,0.0,-0.6,0.0,0.004601478576660156,0
1.1301236152648926,-0.024115923792123795,-0.03574526309967041,-0.43856513500213623,0.048193089476363506,-0.5008192648701739,0.03222348335287983,0.0704608373787838,-0.3079807793319312,0.0,0.0,-0.6,0.0,0.0010974407196044922,0
1.1399168968200684,-0.024098286405205727,-0.03539782389998436,-0.43954965472221375,0.047283005491267856,-0.5007031519810408,0.030684552759575212,0.08618584033750051,-0.30215868490544706,0.0,0.0,-0.6,0.0,0.004603385925292969,0
1.1500396728515625,-0.024098286405205727,-0.03539782389998436,-0.43954965472221375,0.047283005491267856,-0.5007031519810408,0.030684552759575212,0.08618584033750051,-0.30215868490544706,0.0,0.0,-0.6,0.0,0.0012214183807373047,0
1.1602609157562256,-0.024004289880394936,-0.03432833030819893,-0.44240638613700867,0.044673946821891165,-0.4998632825693744,0.08894094838755291,0.10776769769693724,-0.28538269233566177,0.0,0.0,-0.6,0.0,0.0055539608001708984,0
1.171130895614624,-0.024004289880394936,-0.03432833030819893,-0.44240638613700867,0.044673946821891165,-0.4998632825693744,0.08894094838755291,0.10776769769693724,-0.28538269233566177,0.0,0.0,-0.6,0.0,0.001111745834350586,0
1.1801440715789795,-0.0238654725253582,-0.03368949890136719,-0.44424161314964294,0.04294344815219494,-0.500196185617591,0.12986558968955975,0.09321505098726751,-0.27427169623428554,0.0,0.0,-0.6,0.0,0.004498481750488281,0
1.190305233001709,-0.0238654725253582,-0.03368949890136719,-0.44424161314964294,0.04294344815219494,-0.500196185617591,0.12986558968955975,0.09321505098726751,-0.27427169623428554,0.0,0.0,-0.6,0.0,0.0011005401611328125,0
1.2004978656768799,-0.02372584119439125,-0.033093761652708054,-0.4459855556488037,0.041461871589184476,-0.50144638948201,0.08555310252892148,0.041224338529666504,-0.26489412185686523,0.0,0.0,-0.6,0.0,0.0058040618896484375,0
1.2121238708496094,-0.02372584119439125,-0.033093761652708054,-0.4459855556488037,0.041461871589184476,-0.50144638948201,0.08555310252892148,0.041224338529666504,-0.26489412185686523,0.0,0.0,-0.6,0.0,0.0012025833129882812,0
1.2198047637939453,-0.02359725907444954,-0.03236572444438934,-0.447633296251297,0.039862978391913474,-0.5015639634826934,0.061232969678245236,0.052846808324022686,-0.2547192125431058,0.0,0.0,-0.6,0.0,0.0042858123779296875,0
1.229935884475708,-0.02359725907444954,-0.03236572444438934,-0.447633296251297,0.039862978391913474,-0.5015639634826934,0.061232969678245236,0.052846808324022686,-0.2547192125431058,0.0,0.0,-0.6,0.0,0.001127481460571289,0
1.2400836944580078,-0.023456087335944176,-0.03156707063317299,-0.4491533935070038,0.038550100237307185,-0.5017114981977039,0.06495978444661449,0.08154818694996534,-0.24632223188274732,0.0,0.0,-0.6,0.0,0.005520820617675781,0
1.250687837600708,-0.023456087335944176,-0.03156707063317299,-0.4491533935070038,0.038550100237307185,-0.5017114981977039,0.06495978444661449,0.08154818694996534,-0.24632223188274732,0.0,0.0,-0.6,0.0,0.0011081695556640625,0
1.2599658966064453,-0.02334008924663067,-0.03069593757390976,-0.4505630433559418,0.037197203648941676,-0.5022018444814906,0.056178352941756576,0.049793304025079234,-0.23770585101918187,0.0,0.0,-0.6,0.0,0.004373788833618164,0
1.2709293365478516,-0.02334008924663067,-0.03069593757390976,-0.4505630433559418,0.037197203648941676,-0.5022018444814906,0.056178352941756576,0.049793304025079234,-0.23770585101918187,0.0,0.0,-0.6,0.0,0.0010821819305419922,0
1.279930591583252,-0.023218264803290367,-0.029778534546494484,-0.4518517553806305,0.035831692892341484,-0.5032614251352714,0.023197050236105122,-0.008166853314783454,-0.22905841540867442,0.0,0.0,-0.6,0.0,0.00454258918762207,0
1.291571855545044,-0.023218264803290367,-0.029778534546494484,-0.4518517553806305,0.035831692892341484,-0.5032614251352714,0.023197050236105122,-0.008166853314783454,-0.22905841540867442,0.0,0.0,-0.6,0.0,0.0010700225830078125,0
1.300177812576294,-0.023119037970900536,-0.028812726959586143,-0.4531797468662262,0.03419989103365862,-0.502918444402463,-0.04116335494887512,0.0021852048438671836,-0.21870245034532784,0.0,0.0,-0.6,0.0,0.004642009735107422,0
1.310168743133545,-0.023119037970900536,-0.028812726959586143,-0.4531797468662262,0.03419989103365862,-0.502918444402463,-0.04116335494887512,0.0021852048438671836,-0.21870245034532784,0.0,0.0,-0.6,0.0,0.0011074542999267578,0
1.319939136505127,-0.023065989837050438,-0.02835169993340969,-0.4537295401096344,0.033604339111564775,-0.5030869224089218,-0.046368188064297,-0.007262777167210494,-0.21491317283159725,0.0,0.0,-0.6,0.0,0.0046041011810302734,0
1.330054521560669,-0.023065989837050438,-0.02835169993340969,-0.4537295401096344,0.033604339111564775,-0.5030869224089218,-0.046368188064297,-0.007262777167210494,-0.21491317283159725,0.0,0.0,-0.6,0.0,0.0012652873992919922,0
1.3398847579956055,-0.022987203672528267,-0.027400240302085876,-0.45488545298576355,0.032376345582678205,-0.5043140709493167,-0.03793023081448662,-0.048781320224884524,-0.2071113933983415,0.0,0.0,-0.6,0.0,0.004423618316650391,0
1.3514301776885986,-0.02293473668396473,-0.026930086314678192,-0.45536988973617554,0.03195079301195899,-0.5047494355899941,-0.05126950761537803,-0.04327453392857535,-0.2044010042732171,0.0,0.0,-0.6,0.0,0.004546642303466797,0
1.3613109588623047,-0.02293473668396473,-0.026930086314678192,-0.45536988973617554,0.03195079301195899,-0.5047494355899941,-0.05126950761537803,-0.04327453392857535,-0.2044010042732171,0.0,0.0,-0.6,0.0,0.0010821819305419922,0
1.3702113628387451,-0.02279270999133587,-0.025611059740185738,-0.456560879945755,0.03074028831635534,-0.5055604925735389,-0.114448632653473,-0.1037881587028235,-0.19680424390079995,0.0,0.0,-0.6,0.0,0.005254030227661133,0
1.38124418258667,-0.02279270999133587,-0.025611059740185738,-0.456560879945755,0.03074028831635534,-0.5055604925735389,-0.114448632653473,-0.1037881587028235,-0.19680424390079995,0.0,0.0,-0.6,0.0,0.0011105537414550781,0
1.390479326248169,-0.022747701033949852,-0.02515350468456745,-0.45694977045059204,0.030414433947728962,-0.5054153197495677,-0.10873912751965602,-0.08738177160967626,-0.19469475503255837,0.0,0.0,-0.6,0.0,0.004273891448974609,0
1.400137186050415,-0.022747701033949852,-0.02515350468456745,-0.45694977045059204,0.030414433947728962,-0.5054153197495677,-0.10873912751965602,-0.08738177160967626,-0.19469475503255837,0.0,0.0,-0.6,0.0,0.0010647773742675781,0
1.4098598957061768,-0.02263864502310753,-0.023809093981981277,-0.4578942060470581,0.02947690784453652,-0.5058389813790035,-0.09314327930394645,-0.05324999969485011,-0.18864292076325184,0.0,0.0,-0.6,0.0,0.0046193599700927734,0
1.4198858737945557,-0.02263864502310753,-0.023809093981981277,-0.4578942060470581,0.02947690784453652,-0.5058389813790035,-0.09314327930394645,-0.05324999969485011,-0.18864292076325184,0.0,0.0,-0.6,0.0,0.001177072525024414,0
1.429985761642456,-0.022614937275648117,-0.023323817178606987,-0.45821326971054077,0.029158565389098827,-0.5059854267183176,-0.1175762761951061,-0.05299104993240879,-0.1866274815223238,0.0,0.0,-0.6,0.0,0.004766225814819336,0
1.4401617050170898,-0.022614937275648117,-0.023323817178606987,-0.45821326971054077,0.029158565389098827,-0.5059854267183176,-0.1175762761951061,-0.05299104993240879,-0.1866274815223238,0.0,0.0,-0.6,0.0,0.0011141300201416016,0
1.449876308441162,-0.022563498467206955,-0.022297263145446777,-0.45885783433914185,0.02830040904759094,-0.5059714228047029,-0.09876961294665419,-0.016901625604225933,-0.18107905080144468,0.0,0.0,-0.6,0.0,0.004544973373413086,0
1.4598326683044434,-0.022563498467206955,-0.022297263145446777,-0.45885783433914185,0.02830040904759094,-0.5059714228047029,-0.09876961294665419,-0.016901625604225933,-0.18107905080144468,0.0,0.0,-0.6,0.0,0.0011606216430664062,0
1.469944953918457,-0.022542184218764305,-0.02130335196852684,-0.4593081772327423,0.027669340620531124,-0.5069172053410886,-0.07207285785502189,-0.0627284059122048,-0.17707195235692502,0.0,0.0,-0.6,0.0,0.0059206485748291016,0
1.4812695980072021,-0.022542184218764305,-0.02130335196852684,-0.4593081772327423,0.027669340620531124,-0.5069172053410886,-0.07207285785502189,-0.0627284059122048,-0.17707195235692502,0.0,0.0,-0.6,0.0,0.0011093616485595703,0
1.4911940097808838,-0.022505519911646843,-0.02032051607966423,-0.4596221148967743,0.02717184324395803,-0.5069260943970743,-0.08187497029962393,-0.04424238704229733,-0.1738757266742053,0.0,0.0,-0.6,0.0,0.0044476985931396484,0
1.501624584197998,-0.022511793300509453,-0.019818894565105438,-0.4597780406475067,0.026956632590801444,-0.5078479914909874,-0.07756397847279058,-0.057196884527549424,-0.17250565147507674,0.0,0.0,-0.6,0.0,0.0042951107025146484,0
1.5119094848632812,-0.022554468363523483,-0.018895627930760384,-0.4600227475166321,0.026436181143493467,-0.5071751099154896,-0.03905370447536343,-0.02169204252034493,-0.16909487318719507,0.0,0.0,-0.6,0.0,0.004529476165771484,0
1.5221664905548096,-0.022554468363523483,-0.018895627930760384,-0.4600227475166321,0.026436181143493467,-0.5071751099154896,-0.03905370447536343,-0.02169204252034493,-0.16909487318719507,0.0,0.0,-0.6,0.0,0.0011136531829833984,0
1.5299046039581299,-0.02258700504899025,-0.01839517243206501,-0.4601394236087799,0.026166050040402098,-0.5078414224553119,-0.04011703223958872,-0.033400617799238426,-0.167376697020239,0.0,0.0,-0.6,0.0,0.0044765472412109375,0
1.5403635501861572,-0.02258484810590744,-0.017364811152219772,-0.46040672063827515,0.025679419071661092,-0.508165599187116,-0.008149448006782422,0.007373713846930223,-0.1641938755877603,0.0,0.0,-0.6,0.0,0.004506826400756836,0
1.5502471923828125,-0.02258484810590744,-0.017364811152219772,-0.46040672063827515,0.025679419071661092,-0.508165599187116,-0.008149448006782422,0.007373713846930223,-0.1641938755877603,0.0,0.0,-0.6,0.0,0.0011010169982910156,0
1.5599143505096436,-0.022597068920731544,-0.016436409205198288,-0.4605790972709656,0.025279167847537944,-0.5091352156221455,-0.07077644528298496,-0.04360211419878284,-0.16175050629123588,0.0,0.0,-0.6,0.0,0.006078958511352539,0
1.5714566707611084,-0.022597068920731544,-0.016436409205198288,-0.4605790972709656,0.025279167847537944,-0.5091352156221455,-0.07077644528298496,-0.04360211419878284,-0.16175050629123588,0.0,0.0,-0.6,0.0,0.0010766983032226562,0
1.5799317359924316,-0.02260553650557995,-0.015504374168813229,-0.46076446771621704,0.024881309302494006,-0.5089930438113133,-0.05297184073667971,-0.013014130307724678,-0.15916277308147533,0.0,0.0,-0.6,0.0,0.0045888423919677734,0
1.5920701026916504,-0.022608013823628426,-0.015033741481602192,-0.4608490765094757,0.024772921669898012,-0.5093395876641962,-0.0641386212922831,0.017518080384753894,-0.1584685678910231,0.0,0.0,-0.6,0.0,0.004536151885986328,0
1.6016645431518555,-0.022608013823628426,-0.015033741481602192,-0.4608490765094757,0.024772921669898012,-0.5093395876641962,-0.0641386212922831,0.017518080384753894,-0.1584685678910231,0.0,0.0,-0.6,0.0,0.0011038780212402344,0
1.6100375652313232,-0.022673415020108223,-0.014088344760239124,-0.4609610438346863,0.024534887677290604,-0.5090935274692846,-0.05845135565259742,0.04797876445566722,-0.15692598382246312,0.0,0.0,-0.6,0.0,0.00462031364440918,0
1.6206419467926025,-0.022673415020108223,-0.014088344760239124,-0.4609610438346863,0.024534887677290604,-0.5090935274692846,-0.05845135565259742,0.04797876445566722,-0.15692598382246312,0.0,0.0,-0.6,0.0,0.0011069774627685547,0
1.6298441886901855,-0.02274148166179657,-0.01309813093394041,-0.46103376150131226,0.024317709986305336,-0.508789793067863,-0.053601266022032724,0.05839060812279236,-0.15552809673958015,0.0,0.0,-0.6,0.0,0.004972696304321289,0
1.640289545059204,-0.02274148166179657,-0.01309813093394041,-0.46103376150131226,0.024317709986305336,-0.508789793067863,-0.053601266022032724,0.05839060812279236,-0.15552809673958015,0.0,0.0,-0.6,0.0,0.0011980533599853516,0
1.649827241897583,-0.022807857021689415,-0.012115743942558765,-0.46109193563461304,0.024310528123850986,-0.508664670236331,-0.03317454857508199,0.03590917215543822,-0.15546616553692344,0.0,0.0,-0.6,0.0,0.00430607795715332,0
1.6606786251068115,-0.022817566990852356,-0.011613666079938412,-0.46113789081573486,0.02423208368222519,-0.5089257327098052,-0.012484295644488327,0.027689045867269044,-0.15493786143650165,0.0,0.0,-0.6,0.0,0.004553556442260742,0
1.6706383228302002,-0.022817566990852356,-0.011613666079938412,-0.46113789081573486,0.02423208368222519,-0.5089257327098052,-0.012484295644488327,0.027689045867269044,-0.15493786143650165,0.0,0.0,-0.6,0.0,0.001134634017944336,0
1.6799116134643555,-0.022839058190584183,-0.010679514147341251,-0.4612514078617096,0.024151860973165417,-0.5097232505540584,-0.027442812622165216,0.04755879996375996,-0.15443991813569918,0.0,0.0,-0.6,0.0,0.005739450454711914,0
1.6917915344238281,-0.022839058190584183,-0.010679514147341251,-0.4612514078617096,0.024151860973165417,-0.5097232505540584,-0.027442812622165216,0.04755879996375996,-0.15443991813569918,0.0,0.0,-0.6,0.0,0.0011436939239501953,0
1.7000181674957275,-0.02285556122660637,-0.009795776568353176,-0.46140244603157043,0.024184949058339417,-0.5092122957612453,-0.03483269583351649,0.06233649781158488,-0.15465759695846135,0.0,0.0,-0.6,0.0,0.0044786930084228516,0
1.7115309238433838,-0.02286694198846817,-0.0093891816213727,-0.46149471402168274,0.024135076768439144,-0.5092884220212193,-0.059406407794457536,0.06126719468102767,-0.15437894359899235,0.0,0.0,-0.6,0.0,0.0044405460357666016,0
1.7216720581054688,-0.022877933457493782,-0.008997485041618347,-0.46159055829048157,0.024127727218119,-0.5081252221211185,-0.05205949842411521,0.05462277049269257,-0.15432437561337542,0.0,0.0,-0.6,0.0,0.004499673843383789,0
1.7314307689666748,-0.022877933457493782,-0.008997485041618347,-0.46159055829048157,0.024127727218119,-0.5081252221211185,-0.05205949842411521,0.05462277049269257,-0.15432437561337542,0.0,0.0,-0.6,0.0,0.0010905265808105469,0
1.7398548126220703,-0.022868670523166656,-0.008257148787379265,-0.46179550886154175,0.024210760697270538,-0.5077452719315113,-0.05140367514258038,0.02704679610594544,-0.1548706679038987,0.0,0.0,-0.6,0.0,0.004530906677246094,0
1.7514221668243408,-0.02286476083099842,-0.007901957258582115,-0.46191275119781494,0.02428741296624518,-0.5072078611956458,-0.021058211484059446,0.033324279939889054,-0.15531135367614474,0.0,0.0,-0.6,0.0,0.0044863224029541016,0
1.7613327503204346,-0.02286476083099842,-0.007901957258582115,-0.46191275119781494,0.02428741296624518,-0.5072078611956458,-0.021058211484059446,0.033324279939889054,-0.15531135367614474,0.0,0.0,-0.6,0.0,0.001085042953491211,0
1.7698345184326172,-0.022847754880785942,-0.007200272288173437,-0.4621752202510834,0.024355441726160214,-0.5077548646153826,-0.003185070885801925,0.056689542783769795,-0.15570975090488925,0.0,0.0,-0.6,0.0,0.004617929458618164,0
1.7798027992248535,-0.022847754880785942,-0.007200272288173437,-0.4621752202510834,0.024355441726160214,-0.5077548646153826,-0.003185070885801925,0.056689542783769795,-0.15570975090488925,0.0,0.0,-0.6,0.0,0.0011267662048339844,0
1.7910010814666748,-0.0228225439786911,-0.006557781714946032,-0.4625054895877838,0.02456368913695595,-0.5073452302139884,0.005489383748997574,0.08117002866514408,-0.15701847154596604,0.0,0.0,-0.6,0.0,0.0047435760498046875,0
1.800995111465454,-0.0228225439786911,-0.006557781714946032,-0.4625054895877838,0.02456368913695595,-0.5073452302139884,0.005489383748997574,0.08117002866514408,-0.15701847154596604,0.0,0.0,-0.6,0.0,0.001094818115234375,0
1.809875249862671,-0.022778460755944252,-0.005992858670651913,-0.4629334807395935,0.024745831757949154,-0.5057990464646179,-0.0072312830802221985,0.1008455718766419,-0.15819452730259012,0.0,0.0,-0.6,0.0,0.004363536834716797,0
1.8217341899871826,-0.0227194894105196,-0.005742023233324289,-0.46325695514678955,0.024824589773520884,-0.5048660427146692,0.0058466770659407535,0.0878708272319268,-0.15868465758541583,0.0,0.0,-0.6,0.0,0.004616498947143555,0
1.8315885066986084,-0.0227194894105196,-0.005742023233324289,-0.46325695514678955,0.024824589773520884,-0.5048660427146692,0.0058466770659407535,0.0878708272319268,-0.15868465758541583,0.0,0.0,-0.6,0.0,0.0011682510375976562,0
1.8399488925933838,-0.02263648808002472,-0.005290044471621513,-0.46385982632637024,0.024956249016790704,-0.5050284794055963,0.0015246691276561864,0.08014653373469566,-0.15953707508551263,0.0,0.0,-0.6,0.0,0.0043637752532958984,0
1.8502366542816162,-0.02263648808002472,-0.005290044471621513,-0.46385982632637024,0.024956249016790704,-0.5050284794055963,0.0015246691276561864,0.08014653373469566,-0.15953707508551263,0.0,0.0,-0.6,0.0,0.0011060237884521484,0
1.8603529930114746,-0.022538956254720688,-0.004905947484076023,-0.4646102488040924,0.025144981853983228,-0.5042466439639018,-0.014721876409018557,0.09479978483495542,-0.16075922865626707,0.0,0.0,-0.6,0.0,0.004313468933105469,0
1.8699369430541992,-0.022538956254720688,-0.004905947484076023,-0.4646102488040924,0.025144981853983228,-0.5042466439639018,-0.014721876409018557,0.09479978483495542,-0.16075922865626707,0.0,0.0,-0.6,0.0,0.0011382102966308594,0
1.8809914588928223,-0.022497456520795822,-0.004638423211872578,-0.46529269218444824,0.025279757761949906,-0.5032067599274752,0.01334876578762583,0.06950157853833273,-0.16159126189945108,0.0,0.0,-0.6,0.0,0.0045702457427978516,0
1.8915655612945557,-0.022497456520795822,-0.004638423211872578,-0.46529269218444824,0.025279757761949906,-0.5032067599274752,0.01334876578762583,0.06950157853833273,-0.16159126189945108,0.0,0.0,-0.6,0.0,0.001131296157836914,0
1.9007387161254883,-0.022511813789606094,-0.004329943098127842,-0.46588075160980225,0.025433836353360814,-0.5037910483513024,-0.013374413298234971,0.036405841192796065,-0.16263753384782156,0.0,0.0,-0.6,0.0,0.0044748783111572266,0
1.910494327545166,-0.022511813789606094,-0.004329943098127842,-0.46588075160980225,0.025433836353360814,-0.5037910483513024,-0.013374413298234971,0.036405841192796065,-0.16263753384782156,0.0,0.0,-0.6,0.0,0.0011203289031982422,0
1.9203968048095703,-0.02260330319404602,-0.004082405474036932,-0.46647366881370544,0.025729753797674806,-0.5038735928019025,0.002686692061084593,0.005450589286870784,-0.16452590513019985,0.0,0.0,-0.6,0.0,0.004618644714355469,0
1.9302282333374023,-0.02260330319404602,-0.004082405474036932,-0.46647366881370544,0.025729753797674806,-0.5038735928019025,0.002686692061084593,0.005450589286870784,-0.16452590513019985,0.0,0.0,-0.6,0.0,0.0011489391326904297,0
1.9398105144500732,-0.022703872993588448,-0.0038522041868418455,-0.4669681191444397,0.025954564334627915,-0.5039889714440949,0.04727719898468548,0.016065959414662608,-0.16590324468673037,0.0,0.0,-0.6,0.0,0.004525661468505859,0
1.9499568939208984,-0.022703872993588448,-0.0038522041868418455,-0.4669681191444397,0.025954564334627915,-0.5039889714440949,0.04727719898468548,0.016065959414662608,-0.16590324468673037,0.0,0.0,-0.6,0.0,0.0012624263763427734,0
1.9599878787994385,-0.02283628284931183,-0.0037767095491290092,-0.4674936532974243,0.026207000157641124,-0.5046664582716911,0.07220725362423192,-0.028083317663470286,-0.16752427326539515,0.0,0.0,-0.6,0.0,0.004942178726196289,0
1.9701457023620605,-0.02283628284931183,-0.0037767095491290092,-0.4674936532974243,0.026207000157641124,-0.5046664582716911,0.07220725362423192,-0.028083317663470286,-0.16752427326539515,0.0,0.0,-0.6,0.0,0.0011675357818603516,0
1.9799177646636963,-0.02298193983733654,-0.003705571638420224,-0.46792447566986084,0.02643763595061945,-0.5048159674510401,0.039818641694611044,-0.06314238134817812,-0.1690567710871202,0.0,0.0,-0.6,0.0,0.004861116409301758,0
1.9907431602478027,-0.02298193983733654,-0.003705571638420224,-0.46792447566986084,0.02643763595061945,-0.5048159674510401,0.039818641694611044,-0.06314238134817812,-0.1690567710871202,0.0,0.0,-0.6,0.0,0.0011668205261230469,0
1.999948501586914,-0.023310281336307526,-0.0036611577961593866,-0.46841296553611755,0.026803101434593263,-0.5055355543962662,0.07373272723723714,-0.08754086798989034,-0.17138239591463636,0.0,0.0,-0.6,0.0,0.0045130252838134766,0
2.0111000537872314,-0.023458531126379967,-0.0036597875878214836,-0.46857568621635437,0.026872694455072177,-0.5055889238214959,0.08298301874204733,-0.11307971889633034,-0.17183949763195505,0.0,0.0,-0.6,0.0,0.00399017333984375,0
2.020855188369751,-0.023458531126379967,-0.0036597875878214836,-0.46857568621635437,0.026872694455072177,-0.5055889238214959,0.08298301874204733,-0.11307971889633034,-0.17183949763195505,0.0,0.0,-0.6,0.0,0.0011115074157714844,0
2.0299129486083984,-0.02361525408923626,-0.0036701951175928116,-0.4687238335609436,0.026900567141136113,-0.5058508392122789,0.08802762448961803,-0.1303426001685742,-0.172028620751692,0.0,0.0,-0.6,0.0,0.004572391510009766,0
2.041483163833618,-0.023774750530719757,-0.0037083046045154333,-0.46888038516044617,0.02700170401446385,-0.5057822834472517,0.08827661929143124,-0.14300594172621287,-0.1726904675538733,0.0,0.0,-0.6,0.0,0.0045583248138427734,0
2.0518252849578857,-0.024070704355835915,-0.0036877458915114403,-0.4691239595413208,0.02718201009329014,-0.5055996492237766,0.048926720716830595,-0.16396583711419468,-0.17389754335437935,0.0,0.0,-0.6,0.0,0.004663228988647461,0
2.0615806579589844,-0.024070704355835915,-0.0036877458915114403,-0.4691239595413208,0.02718201009329014,-0.5055996492237766,0.048926720716830595,-0.16396583711419468,-0.17389754335437935,0.0,0.0,-0.6,0.0,0.001035928726196289,0
2.0699868202209473,-0.024217205122113228,-0.003696192055940628,-0.4692770838737488,0.027266397025957765,-0.5055443011609507,0.023832541849825233,-0.16665643966531957,-0.17445943491958765,0.0,0.0,-0.6,0.0,0.004598140716552734,0
2.079740524291992,-0.024217205122113228,-0.003696192055940628,-0.4692770838737488,0.027266397025957765,-0.5055443011609507,0.023832541849825233,-0.16665643966531957,-0.17445943491958765,0.0,0.0,-0.6,0.0,0.0010862350463867188,0
2.0910000801086426,-0.024592947214841843,-0.003791476134210825,-0.46977660059928894,0.027372400091771287,-0.5043917120802968,0.027829624649937015,-0.08382960718177355,-0.17509366209710117,0.0,0.0,-0.6,0.0,0.005655527114868164,0
2.1020846366882324,-0.024592947214841843,-0.003791476134210825,-0.46977660059928894,0.027372400091771287,-0.5043917120802968,0.027829624649937015,-0.08382960718177355,-0.17509366209710117,0.0,0.0,-0.6,0.0,0.001138448715209961,0
2.1108858585357666,-0.024872655048966408,-0.0038875238969922066,-0.4701272249221802,0.027418435166285244,-0.503884098593292,0.047652778912717346,-0.05222488597027941,-0.17535037233426778,0.0,0.0,-0.6,0.0,0.004590511322021484,0
2.120650291442871,-0.024872655048966408,-0.0038875238969922066,-0.4701272249221802,0.027418435166285244,-0.503884098593292,0.047652778912717346,-0.05222488597027941,-0.17535037233426778,0.0,0.0,-0.6,0.0,0.001079559326171875,0
2.1298224925994873,-0.02499702200293541,-0.003948220517486334,-0.47032469511032104,0.027444419192028793,-0.5035580845129619,0.0649575489356134,-0.05728132063258263,-0.17550305941493466,0.0,0.0,-0.6,0.0,0.005038022994995117,0
2.140472412109375,-0.02499702200293541,-0.003948220517486334,-0.47032469511032104,0.027444419192028793,-0.5035580845129619,0.0649575489356134,-0.05728132063258263,-0.17550305941493466,0.0,0.0,-0.6,0.0,0.0011854171752929688,0
2.1498093605041504,-0.025398723781108856,-0.00419602869078517,-0.47095173597335815,0.027337705147486544,-0.5036403499931305,0.08570691643201964,-0.04590316388494481,-0.17476643134172204,0.0,0.0,-0.6,0.0,0.004256725311279297,0
2.1599228382110596,-0.025398723781108856,-0.00419602869078517,-0.47095173597335815,0.027337705147486544,-0.5036403499931305,0.08570691643201964,-0.04590316388494481,-0.17476643134172204,0.0,0.0,-0.6,0.0,0.001148223876953125,0
2.169865131378174,-0.025539159774780273,-0.0042873565107584,-0.4711819887161255,0.027314363855081517,-0.5031851750567485,0.07403241163683325,-0.02905350379270186,-0.17460994007992997,0.0,0.0,-0.6,0.0,0.004683732986450195,0
2.180133581161499,-0.025539159774780273,-0.0042873565107584,-0.4711819887161255,0.027314363855081517,-0.5031851750567485,0.07403241163683325,-0.02905350379270186,-0.17460994007992997,0.0,0.0,-0.6,0.0,0.0011641979217529297,0
2.191178798675537,-0.02584603615105152,-0.004499648232012987,-0.47168952226638794,0.027146950995725765,-0.5030884228879517,0.008119211395704528,0.022512781972129723,-0.1735780088519657,0.0,0.0,-0.6,0.0,0.004729032516479492,0
2.2014148235321045,-0.02584603615105152,-0.004499648232012987,-0.47168952226638794,0.027146950995725765,-0.5030884228879517,0.008119211395704528,0.022512781972129723,-0.1735780088519657,0.0,0.0,-0.6,0.0,0.0010993480682373047,0
2.211097002029419,-0.02640608884394169,-0.0048180436715483665,-0.47244828939437866,0.026933548477332928,-0.502934850402813,0.017135956869242245,-0.012788810932334662,-0.17223161195942693,0.0,0.0,-0.6,0.0,0.005435466766357422,0
2.2217512130737305,-0.02640608884394169,-0.0048180436715483665,-0.47244828939437866,0.026933548477332928,-0.502934850402813,0.017135956869242245,-0.012788810932334662,-0.17223161195942693,0.0,0.0,-0.6,0.0,0.0011138916015625,0
2.2301158905029297,-0.026613466441631317,-0.004978043958544731,-0.4727596044540405,0.02675516241366863,-0.5027452024744353,-0.024543748033338524,0.037171567473887356,-0.17111581130970344,0.0,0.0,-0.6,0.0,0.0046634674072265625,0
2.2398438453674316,-0.026613466441631317,-0.004978043958544731,-0.4727596044540405,0.02675516241366863,-0.5027452024744353,-0.024543748033338524,0.037171567473887356,-0.17111581130970344,0.0,0.0,-0.6,0.0,0.0010797977447509766,0
2.2498748302459717,-0.027072547003626823,-0.0051393210887908936,-0.4731840491294861,0.02650743642684202,-0.5025136530367454,-0.0194349043451542,0.05489770681824655,-0.16950298931059662,0.0,0.0,-0.6,0.0,0.004693269729614258,0
2.2599668502807617,-0.027072547003626823,-0.0051393210887908936,-0.4731840491294861,0.02650743642684202,-0.5025136530367454,-0.0194349043451542,0.05489770681824655,-0.16950298931059662,0.0,0.0,-0.6,0.0,0.0011239051818847656,0
2.2703118324279785,-0.027680277824401855,-0.00531911151483655,-0.47375109791755676,0.02639655143415614,-0.5024140344065392,-0.01899088776509659,0.07141495810614575,-0.16877184814301865,0.0,0.0,-0.6,0.0,0.004424333572387695,0
2.2810375690460205,-0.027680277824401855,-0.00531911151483655,-0.47375109791755676,0.02639655143415614,-0.5024140344065392,-0.01899088776509659,0.07141495810614575,-0.16877184814301865,0.0,0.0,-0.6,0.0,0.0011086463928222656,0
2.2903077602386475,-0.027901751920580864,-0.0054194508120417595,-0.47394877672195435,0.02634656603791498,-0.5023280283378053,-0.013903141363364954,0.04365996273648721,-0.16847911628862985,0.0,0.0,-0.6,0.0,0.0047075748443603516,0
2.3003530502319336,-0.027901751920580864,-0.0054194508120417595,-0.47394877672195435,0.02634656603791498,-0.5023280283378053,-0.013903141363364954,0.04365996273648721,-0.16847911628862985,0.0,0.0,-0.6,0.0,0.001138925552368164,0
2.3099024295806885,-0.028315342962741852,-0.005583112593740225,-0.47426486015319824,0.02627536565266164,-0.5026804543529834,-0.02969894171690333,0.05534548210085919,-0.16803883261856703,0.0,0.0,-0.6,0.0,0.004467010498046875,0
2.321711301803589,-0.028544465079903603,-0.005716048181056976,-0.47441938519477844,0.026288017878021028,-0.5034490431796195,-0.019760269708639394,0.027101604977982308,-0.16813955469695274,0.0,0.0,-0.6,0.0,0.004786252975463867,0
2.332095146179199,-0.028544465079903603,-0.005716048181056976,-0.47441938519477844,0.026288017878021028,-0.5034490431796195,-0.019760269708639394,0.027101604977982308,-0.16813955469695274,0.0,0.0,-0.6,0.0,0.0010874271392822266,0
2.3408010005950928,-0.029193943366408348,-0.006031522527337074,-0.4747447371482849,0.026267756739312052,-0.5038661696477658,-0.023500518964156974,0.026477384318022892,-0.16801881606780178,0.0,0.0,-0.6,0.0,0.004340648651123047,0
2.350250244140625,-0.029193943366408348,-0.006031522527337074,-0.4747447371482849,0.026267756739312052,-0.5038661696477658,-0.023500518964156974,0.026477384318022892,-0.16801881606780178,0.0,0.0,-0.6,0.0,0.0011038780212402344,0
2.3609297275543213,-0.029626144096255302,-0.006312662269920111,-0.4749193787574768,0.026311907362849673,-0.5042452577316995,0.0015559368077142323,0.015792934712443477,-0.16826859873180966,0.0,0.0,-0.6,0.0,0.0045659542083740234,0
2.3708949089050293,-0.029626144096255302,-0.006312662269920111,-0.4749193787574768,0.026311907362849673,-0.5042452577316995,0.0015559368077142323,0.015792934712443477,-0.16826859873180966,0.0,0.0,-0.6,0.0,0.0012600421905517578,0
2.3798677921295166,-0.03009224683046341,-0.006527562625706196,-0.4750185012817383,0.02646178096542049,-0.5046980146594844,-0.025814968827196354,0.010447784352044574,-0.16928350675100703,0.0,0.0,-0.6,0.0,0.005703926086425781,0
2.3914029598236084,-0.03009224683046341,-0.006527562625706196,-0.4750185012817383,0.02646178096542049,-0.5046980146594844,-0.025814968827196354,0.010447784352044574,-0.16928350675100703,0.0,0.0,-0.6,0.0,0.0010998249053955078,0
2.3998184204101562,-0.030551841482520103,-0.006815826985985041,-0.47516265511512756,0.02643354373483592,-0.505134573892256,0.0020848528773870665,0.028809700320515066,-0.16902546490328751,0.0,0.0,-0.6,0.0,0.004402637481689453,0
2.411456346511841,-0.03077252209186554,-0.006953366566449404,-0.4752397835254669,0.026337743216361103,-0.5050597101953739,0.005439475239488506,0.04006572659219735,-0.16839251980778164,0.0,0.0,-0.6,0.0,0.004313468933105469,0
2.4211981296539307,-0.03077252209186554,-0.006953366566449404,-0.4752397835254669,0.026337743216361103,-0.5050597101953739,0.005439475239488506,0.04006572659219735,-0.16839251980778164,0.0,0.0,-0.6,0.0,0.0011167526245117188,0
2.4299476146698,-0.031204737722873688,-0.007182807195931673,-0.47535693645477295,0.026404676712681444,-0.5049749203992102,-0.0384857867758886,0.020493200119556226,-0.16892364351149583,0.0,0.0,-0.6,0.0,0.005175590515136719,0
2.4400787353515625,-0.031204737722873688,-0.007182807195931673,-0.47535693645477295,0.026404676712681444,-0.5049749203992102,-0.0384857867758886,0.020493200119556226,-0.16892364351149583,0.0,0.0,-0.6,0.0,0.0010521411895751953,0
2.451141119003296,-0.03166095167398453,-0.007378287613391876,-0.47543463110923767,0.026425964667800794,-0.504764464079469,-0.07784186965993031,-0.010789189411399386,-0.16917132219014275,0.0,0.0,-0.6,0.0,0.004937648773193359,0
2.4620189666748047,-0.03166095167398453,-0.007378287613391876,-0.47543463110923767,0.026425964667800794,-0.504764464079469,-0.07784186965993031,-0.010789189411399386,-0.16917132219014275,0.0,0.0,-0.6,0.0,0.00110626220703125,0
2.4700026512145996,-0.032120637595653534,-0.007501617074012756,-0.47546157240867615,0.026442085334189704,-0.5046951649149437,-0.0600829459608867,0.023428446454716253,-0.16920066722715818,0.0,0.0,-0.6,0.0,0.0044956207275390625,0
2.481680393218994,-0.03233976289629936,-0.007553208153694868,-0.47546467185020447,0.026421106466106813,-0.5052534886103053,-0.049515846524678164,0.026780321775095088,-0.16904440013688132,0.0,0.0,-0.6,0.0,0.004292964935302734,0
2.4919252395629883,-0.03233976289629936,-0.007553208153694868,-0.47546467185020447,0.026421106466106813,-0.5052534886103053,-0.049515846524678164,0.026780321775095088,-0.16904440013688132,0.0,0.0,-0.6,0.0,0.0010776519775390625,0
2.5000345706939697,-0.03280292823910713,-0.007656948175281286,-0.4754173457622528,0.026415525326072158,-0.5063072121218185,-0.058660658551375,0.019699934197306482,-0.16903974880972697,0.0,0.0,-0.6,0.0,0.004502534866333008,0
2.510197401046753,-0.03280292823910713,-0.007656948175281286,-0.4754173457622528,0.026415525326072158,-0.5063072121218185,-0.058660658551375,0.019699934197306482,-0.16903974880972697,0.0,0.0,-0.6,0.0,0.0011487007141113281,0
2.5198733806610107,-0.03325651213526726,-0.007769049145281315,-0.47533106803894043,0.02659058915414256,-0.5068084561237487,-0.06621966029116494,0.0006725935272447757,-0.17020010498191068,0.0,0.0,-0.6,0.0,0.004618406295776367,0
2.529906749725342,-0.03325651213526726,-0.007769049145281315,-0.47533106803894043,0.02659058915414256,-0.5068084561237487,-0.06621966029116494,0.0006725935272447757,-0.17020010498191068,0.0,0.0,-0.6,0.0,0.001085042953491211,0
2.5400962829589844,-0.03371500223875046,-0.00793458055704832,-0.4751892685890198,0.026641573634890916,-0.5068217919704302,-0.0779976738977622,0.0017568724765809392,-0.1705468892488171,0.0,0.0,-0.6,0.0,0.004652976989746094,0
2.550152540206909,-0.03371500223875046,-0.00793458055704832,-0.4751892685890198,0.026641573634890916,-0.5068217919704302,-0.0779976738977622,0.0017568724765809392,-0.1705468892488171,0.0,0.0,-0.6,0.0,0.0011570453643798828,0
2.559788703918457,-0.03420689329504967,-0.00812466163188219,-0.4749624729156494,0.02674678931809692,-0.507261576330097,-0.07224598627418695,0.028239979587455877,-0.1711720217398757,0.0,0.0,-0.6,0.0,0.005506753921508789,0
2.5705718994140625,-0.03420689329504967,-0.00812466163188219,-0.4749624729156494,0.02674678931809692,-0.507261576330097,-0.07224598627418695,0.028239979587455877,-0.1711720217398757,0.0,0.0,-0.6,0.0,0.001176595687866211,0
2.579749822616577,-0.034707147628068924,-0.00833397451788187,-0.4746643304824829,0.026913812757200273,-0.5075723265302471,-0.051828327924006254,0.025906198833629306,-0.17220381648310026,0.0,0.0,-0.6,0.0,0.004568815231323242,0
2.5913238525390625,-0.03496083244681358,-0.008421641774475574,-0.4744800627231598,0.027001163526426224,-0.508800588292053,-0.043072366105998273,-0.0004014959354854348,-0.17277877557549265,0.0,0.0,-0.6,0.0,0.005440711975097656,0
2.6018502712249756,-0.03496083244681358,-0.008421641774475574,-0.4744800627231598,0.027001163526426224,-0.508800588292053,-0.043072366105998273,-0.0004014959354854348,-0.17277877557549265,0.0,0.0,-0.6,0.0,0.0010805130004882812,0
2.6101303100585938,-0.035472407937049866,-0.008619945496320724,-0.4741103947162628,0.027270497038055314,-0.509148325033153,-0.000445534416708027,-0.03141357476244055,-0.1744572292724136,0.0,0.0,-0.6,0.0,0.005579471588134766,0
2.6213557720184326,-0.035472407937049866,-0.008619945496320724,-0.4741103947162628,0.027270497038055314,-0.509148325033153,-0.000445534416708027,-0.03141357476244055,-0.1744572292724136,0.0,0.0,-0.6,0.0,0.0010824203491210938,0
2.629703998565674,-0.036020077764987946,-0.008920143358409405,-0.4736679196357727,0.027371989634876623,-0.5091254714442501,-0.02213573697662167,0.006406285471221618,-0.1750943471262415,0.0,0.0,-0.6,0.0,0.00570225715637207,0
2.6405696868896484,-0.036020077764987946,-0.008920143358409405,-0.4736679196357727,0.027371989634876623,-0.5091254714442501,-0.02213573697662167,0.006406285471221618,-0.1750943471262415,0.0,0.0,-0.6,0.0,0.0010597705841064453,0
