time,x,y,z,yaw,throttle,roll_rate,pitch_rate,yaw_rate,x_ref,y_ref,z_ref,yaw_ref,mpc_time,metadata
3.0994415283203125e-06,-0.08640525490045547,-0.058552663773298264,-0.24220657348632812,-0.01603885187426295,-0.5695740888009352,0.39164667982717644,-0.4775598679116395,0.10289476080620363,0.0,0.0,-0.6,0.0,0.013101339340209961,Hardware
0.018728017807006836,-0.08640525490045547,-0.058552663773298264,-0.24220657348632812,-0.01603885187426295,-0.5695740888009352,0.39164667982717644,-0.4775598679116395,0.10289476080620363,0.0,0.0,-0.6,0.0,0.0010716915130615234,Horizon:3.0
0.026324033737182617,-0.08634135872125626,-0.05864816531538963,-0.24218228459358215,-0.0160472815805913,-0.5695128088948554,0.39363571253978685,-0.4716768033749694,0.10295067713742312,0.0,0.0,-0.6,0.0,0.00544285774230957,Num Steps:20
0.03716874122619629,-0.08634135872125626,-0.05864816531538963,-0.24218228459358215,-0.0160472815805913,-0.5695128088948554,0.39363571253978685,-0.4716768033749694,0.10295067713742312,0.0,0.0,-0.6,0.0,0.0011150836944580078,No Pyjoules
0.04450345039367676,-0.08629820495843887,-0.05871858447790146,-0.2421683669090271,-0.016053837719714914,-0.5694508236548719,0.3979441546411032,-0.47470603524891325,0.10299822439197247,0.0,0.0,-0.6,0.0,0.005325794219970703,0
0.05504488945007324,-0.08629820495843887,-0.05871858447790146,-0.2421683669090271,-0.016053837719714914,-0.5694508236548719,0.3979441546411032,-0.47470603524891325,0.10299822439197247,0.0,0.0,-0.6,0.0,0.0010979175567626953,0
0.06242251396179199,-0.08628297597169876,-0.05875677987933159,-0.24215486645698547,-0.016086800301511273,-0.5697392920721965,0.39222217383291436,-0.47319121215997806,0.10320279007075825,0.0,0.0,-0.6,0.0,0.005518436431884766,0
0.0728902816772461,-0.08628297597169876,-0.05875677987933159,-0.24215486645698547,-0.016086800301511273,-0.5697392920721965,0.39222217383291436,-0.47319121215997806,0.10320279007075825,0.0,0.0,-0.6,0.0,0.0010619163513183594,0
0.07974123954772949,-0.08622399717569351,-0.05891838297247887,-0.242242231965065,-0.016249945563515306,-0.5690148898675675,0.4101719425244352,-0.45777586950408,0.10427939420004471,0.0,0.0,-0.6,0.0,0.005444049835205078,0
0.09043192863464355,-0.08622399717569351,-0.05891838297247887,-0.242242231965065,-0.016249945563515306,-0.5690148898675675,0.4101719425244352,-0.45777586950408,0.10427939420004471,0.0,0.0,-0.6,0.0,0.001165628433227539,0
0.09992837905883789,-0.0861530676484108,-0.058978669345378876,-0.24228547513484955,-0.015861342290607493,-0.568968372645761,0.40347651717473676,-0.4445665166258331,0.10179536664806516,0.0,0.0,-0.6,0.0,0.005308389663696289,0
0.11064434051513672,-0.0861530676484108,-0.058978669345378876,-0.24228547513484955,-0.015861342290607493,-0.568968372645761,0.40347651717473676,-0.4445665166258331,0.10179536664806516,0.0,0.0,-0.6,0.0,0.0010838508605957031,0
0.11908292770385742,-0.08585851639509201,-0.05911915749311447,-0.2423936277627945,-0.015181390423521516,-0.5680950395542655,0.4168555762643146,-0.3596563829330587,0.09750801471924085,0.0,0.0,-0.6,0.0,0.007069110870361328,0
0.13170909881591797,-0.08585851639509201,-0.05911915749311447,-0.2423936277627945,-0.015181390423521516,-0.5680950395542655,0.4168555762643146,-0.3596563829330587,0.09750801471924085,0.0,0.0,-0.6,0.0,0.0010957717895507812,0
0.13907551765441895,-0.08540578931570053,-0.059264469891786575,-0.2426016628742218,-0.015201587883629495,-0.5666230954924711,0.4347690425397891,-0.30435349000272593,0.09770613333851184,0.0,0.0,-0.6,0.0,0.00545191764831543,0
0.14996600151062012,-0.08540578931570053,-0.059264469891786575,-0.2426016628742218,-0.015201587883629495,-0.5666230954924711,0.4347690425397891,-0.30435349000272593,0.09770613333851184,0.0,0.0,-0.6,0.0,0.0011019706726074219,0
0.15912199020385742,-0.08469982445240021,-0.059347134083509445,-0.24310517311096191,-0.01476194170801208,-0.5637496457051724,0.40523067743261243,-0.22640482779140908,0.09494438205811115,0.0,0.0,-0.6,0.0,0.005910158157348633,0
0.1704709529876709,-0.08469982445240021,-0.059347134083509445,-0.24310517311096191,-0.01476194170801208,-0.5637496457051724,0.40523067743261243,-0.22640482779140908,0.09494438205811115,0.0,0.0,-0.6,0.0,0.0010881423950195312,0
0.17918729782104492,-0.08365870267152786,-0.05936890095472336,-0.24412456154823303,-0.01347802257710068,-0.5589233522465095,0.3840289247088676,-0.10912879935413995,0.08686484012547536,0.0,0.0,-0.6,0.0,0.005949735641479492,0
0.1909947395324707,-0.08299902826547623,-0.059368666261434555,-0.24485646188259125,-0.012706718829252787,-0.5565411744942983,0.3680434276888271,-0.030735393253497237,0.08203709334703706,0.0,0.0,-0.6,0.0,0.0053980350494384766,0
0.20296478271484375,-0.08299902826547623,-0.059368666261434555,-0.24485646188259125,-0.012706718829252787,-0.5565411744942983,0.3680434276888271,-0.030735393253497237,0.08203709334703706,0.0,0.0,-0.6,0.0,0.00112152099609375,0
0.21012091636657715,-0.08147676289081573,-0.059287529438734055,-0.24685309827327728,-0.011012680209764692,-0.5509659578084609,0.3169608424832301,0.17018424578502644,0.07144104724270448,0.0,0.0,-0.6,0.0,0.007135868072509766,0
0.2229633331298828,-0.08147676289081573,-0.059287529438734055,-0.24685309827327728,-0.011012680209764692,-0.5509659578084609,0.3169608424832301,0.17018424578502644,0.07144104724270448,0.0,0.0,-0.6,0.0,0.0010592937469482422,0
0.2300105094909668,-0.07945742458105087,-0.05906795710325241,-0.2499484419822693,-0.008339494803396607,-0.5446785105533173,0.16329063032937038,0.3298547565373963,0.054394494489808744,0.0,0.0,-0.6,0.0,0.0060465335845947266,0
0.24127650260925293,-0.07945742458105087,-0.05906795710325241,-0.2499484419822693,-0.008339494803396607,-0.5446785105533173,0.16329063032937038,0.3298547565373963,0.054394494489808744,0.0,0.0,-0.6,0.0,0.0011057853698730469,0
0.24944305419921875,-0.07728520035743713,-0.05877111479640007,-0.25412288308143616,-0.004952466498972623,-0.5352958603335732,0.027018760916748284,0.6077243908304957,0.03296710045019937,0.0,0.0,-0.6,0.0,0.0067026615142822266,0
0.26107168197631836,-0.07728520035743713,-0.05877111479640007,-0.25412288308143616,-0.004952466498972623,-0.5352958603335732,0.027018760916748284,0.6077243908304957,0.03296710045019937,0.0,0.0,-0.6,0.0,0.001094818115234375,0
0.2698051929473877,-0.07508780062198639,-0.0584595650434494,-0.258664071559906,-0.0018100434548270845,-0.5290262640400115,-0.06565222304055289,0.7999985828506795,0.013577386329462935,0.0,0.0,-0.6,0.0,0.009796619415283203,0
0.284961462020874,-0.07508780062198639,-0.0584595650434494,-0.258664071559906,-0.0018100434548270845,-0.5290262640400115,-0.06565222304055289,0.7999985828506795,0.013577386329462935,0.0,0.0,-0.6,0.0,0.0010995864868164062,0
0.2924785614013672,-0.07294505834579468,-0.05798183009028435,-0.26325246691703796,0.001936914472580919,-0.5219292255885186,-0.18105423649155364,0.7999999939819903,-0.00833039197787086,0.0,0.0,-0.6,0.0,0.008004426956176758,0
0.30647945404052734,-0.07294505834579468,-0.05798183009028435,-0.26325246691703796,0.001936914472580919,-0.5219292255885186,-0.18105423649155364,0.7999999939819903,-0.00833039197787086,0.0,0.0,-0.6,0.0,0.0011150836944580078,0
0.31395578384399414,-0.07019729912281036,-0.05734698101878166,-0.2693118453025818,0.005560525255733288,-0.5133973331776689,-0.2668681600405788,0.7999999999511289,-0.029625917099427197,0.0,0.0,-0.6,0.0,0.010735273361206055,0
0.32987165451049805,-0.07019729912281036,-0.05734698101878166,-0.2693118453025818,0.005560525255733288,-0.5133973331776689,-0.2668681600405788,0.7999999999511289,-0.029625917099427197,0.0,0.0,-0.6,0.0,0.001131296157836914,0
0.3391458988189697,-0.06582483649253845,-0.05617556720972061,-0.2790283262729645,0.011628221331538372,-0.49997994447841143,-0.4327248844373247,0.7999999999818902,-0.06544926548486743,0.0,0.0,-0.6,0.0,0.012828826904296875,0
0.35744619369506836,-0.06582483649253845,-0.05617556720972061,-0.2790283262729645,0.011628221331538372,-0.49997994447841143,-0.4327248844373247,0.7999999999818902,-0.06544926548486743,0.0,0.0,-0.6,0.0,0.0011398792266845703,0
0.3648536205291748,-0.0615178719162941,-0.054849471896886826,-0.28796592354774475,0.016814589119138683,-0.4871003552760079,-0.6078967497901663,0.7999999999973127,-0.10594252279958023,0.0,0.0,-0.6,0.0,0.020594358444213867,0
0.39125943183898926,-0.054707419127225876,-0.052572593092918396,-0.30123382806777954,0.023190162910058727,-0.4650712390399194,-0.7559377289656681,0.799999999999758,-0.16621626812927692,0.0,0.0,-0.6,0.0,0.021097660064697266,0
0.41864466667175293,-0.054707419127225876,-0.052572593092918396,-0.30123382806777954,0.023190162910058727,-0.4650712390399194,-0.7559377289656681,0.799999999999758,-0.16621626812927692,0.0,0.0,-0.6,0.0,0.0010838508605957031,0
0.42566919326782227,-0.04425777494907379,-0.04881769046187401,-0.3197331428527832,0.032682158645243764,-0.4377694238670121,-0.7999999807979101,0.7999999999075318,-0.2551939785115518,0.0,0.0,-0.6,0.0,0.026002168655395508,0
0.45767974853515625,-0.04425777494907379,-0.04881769046187401,-0.3197331428527832,0.032682158645243764,-0.4377694238670121,-0.7999999807979101,0.7999999999075318,-0.2551939785115518,0.0,0.0,-0.6,0.0,0.0011167526245117188,0
0.4646601676940918,-0.031460899859666824,-0.04388276860117912,-0.34124672412872314,0.044093187117198486,-0.408876157315892,-0.799999999356819,0.7999999999994145,-0.3419607596605664,0.0,0.0,-0.6,0.0,0.025623798370361328,0
0.4958529472351074,-0.031460899859666824,-0.04388276860117912,-0.34124672412872314,0.044093187117198486,-0.408876157315892,-0.799999999356819,0.7999999999994145,-0.3419607596605664,0.0,0.0,-0.6,0.0,0.0010581016540527344,0
0.5037808418273926,-0.02119119092822075,-0.040171440690755844,-0.3578898012638092,0.05228057469519012,-0.4068438016135262,-0.7999999830339305,0.799999999998991,-0.41882335678521726,0.0,0.0,-0.6,0.0,0.02464914321899414,0
0.5336127281188965,-0.02119119092822075,-0.040171440690755844,-0.3578898012638092,0.05228057469519012,-0.4068438016135262,-0.7999999830339305,0.799999999998991,-0.41882335678521726,0.0,0.0,-0.6,0.0,0.0011265277862548828,0
0.5413796901702881,-0.006487826816737652,-0.03563247248530388,-0.37909847497940063,0.06175801979496068,-0.4109643741688055,-0.7999999996087374,0.799999999999998,-0.5488834488512441,0.0,0.0,-0.6,0.0,0.03462052345275879,0
0.5812079906463623,-0.006487826816737652,-0.03563247248530388,-0.37909847497940063,0.06175801979496068,-0.4109643741688055,-0.7999999996087374,0.799999999999998,-0.5488834488512441,0.0,0.0,-0.6,0.0,0.0010895729064941406,0
0.5890324115753174,0.013406125828623772,-0.03047148510813713,-0.4015084207057953,0.06968137298845915,-0.4326388689859062,-0.5462765841182459,0.8,-0.5955166153807078,0.0,0.0,-0.6,0.0,0.05914926528930664,0
0.6538631916046143,0.013406125828623772,-0.03047148510813713,-0.4015084207057953,0.06968137298845915,-0.4326388689859062,-0.5462765841182459,0.8,-0.5955166153807078,0.0,0.0,-0.6,0.0,0.0010805130004882812,0
0.6610612869262695,0.04348239675164223,-0.023814115673303604,-0.42279133200645447,0.07138625502027902,-0.47082894004055653,0.02767646741314939,0.7999999999659431,-0.5436951952549297,0.0,0.0,-0.6,0.0,0.0225985050201416,0
0.6887917518615723,0.04348239675164223,-0.023814115673303604,-0.42279133200645447,0.07138625502027902,-0.47082894004055653,0.02767646741314939,0.7999999999659431,-0.5436951952549297,0.0,0.0,-0.6,0.0,0.0010786056518554688,0
0.6996402740478516,0.06239195540547371,-0.020651770755648613,-0.42984575033187866,0.06763985329879488,-0.491602933274339,0.5250903523087807,0.7999999999994891,-0.4568879491056678,0.0,0.0,-0.6,0.0,0.022211313247680664,0
0.7272295951843262,0.06239195540547371,-0.020651770755648613,-0.42984575033187866,0.06763985329879488,-0.491602933274339,0.5250903523087807,0.7999999999994891,-0.4568879491056678,0.0,0.0,-0.6,0.0,0.0010590553283691406,0
0.73465895652771,0.07687332481145859,-0.018929997459053993,-0.4325948655605316,0.06296451795898751,-0.5052672485281035,0.7999999989013873,0.7999999999999999,-0.41442639535014364,0.0,0.0,-0.6,0.0,0.014354467391967773,0
0.7543716430664062,0.07687332481145859,-0.018929997459053993,-0.4325948655605316,0.06296451795898751,-0.5052672485281035,0.7999999989013873,0.7999999999999999,-0.41442639535014364,0.0,0.0,-0.6,0.0,0.0011534690856933594,0
0.7616093158721924,0.09102632105350494,-0.017664410173892975,-0.4334402084350586,0.05715527937513553,-0.5190394308435561,0.7999999999999999,0.7999999999999999,-0.41257612904915003,0.0,0.0,-0.6,0.0,0.011057138442993164,0
0.7778611183166504,0.09102632105350494,-0.017664410173892975,-0.4334402084350586,0.05715527937513553,-0.5190394308435561,0.7999999999999999,0.7999999999999999,-0.41257612904915003,0.0,0.0,-0.6,0.0,0.0010793209075927734,0
0.7855181694030762,0.09943770617246628,-0.017090242356061935,-0.4333047866821289,0.054099436184475616,-0.5231124904525597,0.7999999999459628,0.7999999999907068,-0.4021631197525794,0.0,0.0,-0.6,0.0,0.011064529418945312,0
0.8023333549499512,0.09943770617246628,-0.017090242356061935,-0.4333047866821289,0.054099436184475616,-0.5231124904525597,0.7999999999459628,0.7999999999907068,-0.4021631197525794,0.0,0.0,-0.6,0.0,0.0011196136474609375,0
0.8097794055938721,0.10655511170625687,-0.016675034537911415,-0.4329116642475128,0.05100119316624643,-0.5267857960745793,0.7999999998931994,0.7999999999970757,-0.3830537861670103,0.0,0.0,-0.6,0.0,0.008593559265136719,0
0.8235931396484375,0.10655511170625687,-0.016675034537911415,-0.4329116642475128,0.05100119316624643,-0.5267857960745793,0.7999999998931994,0.7999999999970757,-0.3830537861670103,0.0,0.0,-0.6,0.0,0.0011267662048339844,0
0.830939531326294,0.11733836680650711,-0.01615998148918152,-0.4319119155406952,0.04687793754726411,-0.5313491763210015,0.7999999980055642,0.7999999996603043,-0.34700367573747903,0.0,0.0,-0.6,0.0,0.008269548416137695,0
0.8443121910095215,0.11733836680650711,-0.01615998148918152,-0.4319119155406952,0.04687793754726411,-0.5313491763210015,0.7999999980055642,0.7999999996603043,-0.34700367573747903,0.0,0.0,-0.6,0.0,0.0010700225830078125,0
0.8518059253692627,0.12477201223373413,-0.01600596494972706,-0.4311564564704895,0.04457301994899008,-0.532486237636457,0.7999999999999944,0.7999999999999985,-0.32412665498208,0.0,0.0,-0.6,0.0,0.010611772537231445,0
0.8674783706665039,0.12477201223373413,-0.01600596494972706,-0.4311564564704895,0.04457301994899008,-0.532486237636457,0.7999999999999944,0.7999999999999985,-0.32412665498208,0.0,0.0,-0.6,0.0,0.0010645389556884766,0
0.8748478889465332,0.13400062918663025,-0.016277087852358818,-0.42985013127326965,0.04170621045665004,-0.5344420089825596,0.7999999999999898,0.774142304831135,-0.28791708857964265,0.0,0.0,-0.6,0.0,0.009367704391479492,0
0.8894596099853516,0.13400062918663025,-0.016277087852358818,-0.42985013127326965,0.04170621045665004,-0.5344420089825596,0.7999999999999898,0.774142304831135,-0.28791708857964265,0.0,0.0,-0.6,0.0,0.0010476112365722656,0
0.8995800018310547,0.14014093577861786,-0.01681368425488472,-0.4290016293525696,0.040124988190532535,-0.534117057122728,0.7999999964866713,0.6137414581258299,-0.26707636943559865,0.0,0.0,-0.6,0.0,0.010589361190795898,0
0.9155278205871582,0.14014093577861786,-0.01681368425488472,-0.4290016293525696,0.040124988190532535,-0.534117057122728,0.7999999964866713,0.6137414581258299,-0.26707636943559865,0.0,0.0,-0.6,0.0,0.0010821819305419922,0
0.9229433536529541,0.1449781358242035,-0.01748504489660263,-0.42825835943222046,0.038596780136390424,-0.5339995063056315,0.7656384423701071,0.4205149840489412,-0.24969561150723418,0.0,0.0,-0.6,0.0,0.00989389419555664,0
0.9380927085876465,0.1449781358242035,-0.01748504489660263,-0.42825835943222046,0.038596780136390424,-0.5339995063056315,0.7656384423701071,0.4205149840489412,-0.24969561150723418,0.0,0.0,-0.6,0.0,0.001079559326171875,0
0.9453692436218262,0.15184614062309265,-0.019047455862164497,-0.4271048903465271,0.03751155687844905,-0.5323002743139517,0.6076319366798055,0.05074915408090799,-0.24221046679936076,0.0,0.0,-0.6,0.0,0.008545398712158203,0
0.9593591690063477,0.15184614062309265,-0.019047455862164497,-0.4271048903465271,0.03751155687844905,-0.5323002743139517,0.6076319366798055,0.05074915408090799,-0.24221046679936076,0.0,0.0,-0.6,0.0,0.001035451889038086,0
0.9696953296661377,0.15693943202495575,-0.02084696665406227,-0.4261586666107178,0.03766336432298633,-0.5291585003830565,0.3705486129745352,-0.2640744470257952,-0.24279804478964598,0.0,0.0,-0.6,0.0,0.010151386260986328,0
0.9855563640594482,0.15693943202495575,-0.02084696665406227,-0.4261586666107178,0.03766336432298633,-0.5291585003830565,0.3705486129745352,-0.2640744470257952,-0.24279804478964598,0.0,0.0,-0.6,0.0,0.0011072158813476562,0
0.9924294948577881,0.15832240879535675,-0.021476637572050095,-0.4258933961391449,0.037985769239741916,-0.5285504884473585,0.3036254840096557,-0.3880416515693865,-0.24479978110111486,0.0,0.0,-0.6,0.0,0.006888866424560547,0
1.0053374767303467,0.15832240879535675,-0.021476637572050095,-0.4258933961391449,0.037985769239741916,-0.5285504884473585,0.3036254840096557,-0.3880416515693865,-0.24479978110111486,0.0,0.0,-0.6,0.0,0.0011069774627685547,0
1.0126428604125977,0.16126194596290588,-0.02331499755382538,-0.425254762172699,0.039282557258173825,-0.525786027504164,0.08237654223039054,-0.7166129020700587,-0.2524624519239167,0.0,0.0,-0.6,0.0,0.0075833797454833984,0
1.0254442691802979,0.16126194596290588,-0.02331499755382538,-0.425254762172699,0.039282557258173825,-0.525786027504164,0.08237654223039054,-0.7166129020700587,-0.2524624519239167,0.0,0.0,-0.6,0.0,0.0011055469512939453,0
1.0322902202606201,0.16126194596290588,-0.02331499755382538,-0.425254762172699,0.039282557258173825,-0.525786027504164,0.08237654223039054,-0.7166129020700587,-0.2524624519239167,0.0,0.0,-0.6,0.0,0.0011034011840820312,0
1.039726972579956,0.1623462587594986,-0.02453014999628067,-0.42497265338897705,0.040389651925493465,-0.5231493610864136,-0.03428632959686173,-0.7999999999732698,-0.26977919817835444,0.0,0.0,-0.6,0.0,0.009258270263671875,0
1.0548386573791504,0.1626078188419342,-0.025125645101070404,-0.42483970522880554,0.040814256025759846,-0.5226142317570732,-0.13157652588507707,-0.7999999977076843,-0.2799942689137823,0.0,0.0,-0.6,0.0,0.009607553482055664,0
1.0703065395355225,0.1626078188419342,-0.025125645101070404,-0.42483970522880554,0.040814256025759846,-0.5226142317570732,-0.13157652588507707,-0.7999999977076843,-0.2799942689137823,0.0,0.0,-0.6,0.0,0.0011203289031982422,0
1.0791163444519043,0.1624372899532318,-0.0268217995762825,-0.42464396357536316,0.04184155020836917,-0.5156443232160915,-0.26433778061982527,-0.7999999960137466,-0.30315204351286773,0.0,0.0,-0.6,0.0,0.009054899215698242,0
1.0936353206634521,0.1624372899532318,-0.0268217995762825,-0.42464396357536316,0.04184155020836917,-0.5156443232160915,-0.26433778061982527,-0.7999999960137466,-0.30315204351286773,0.0,0.0,-0.6,0.0,0.0010952949523925781,0
1.1014857292175293,0.16146400570869446,-0.02779160626232624,-0.4245509207248688,0.04203886663855564,-0.514336697266533,-0.36999259659026457,-0.7999999978083158,-0.3021438468910054,0.0,0.0,-0.6,0.0,0.009509563446044922,0
1.1170344352722168,0.15981841087341309,-0.02871278114616871,-0.42455363273620605,0.04170183045078499,-0.5126200916510677,-0.4027682163001771,-0.7999999826340778,-0.29891587113210605,0.0,0.0,-0.6,0.0,0.010111331939697266,0
1.1329360008239746,0.15981841087341309,-0.02871278114616871,-0.42455363273620605,0.04170183045078499,-0.5126200916510677,-0.4027682163001771,-0.7999999826340778,-0.29891587113210605,0.0,0.0,-0.6,0.0,0.0010728836059570312,0
1.1401045322418213,0.1570303738117218,-0.02965342067182064,-0.4247179627418518,0.04091628422757685,-0.5131676325867902,-0.40579376932981764,-0.7999999999988601,-0.2926549419312242,0.0,0.0,-0.6,0.0,0.009485244750976562,0
1.1553223133087158,0.1570303738117218,-0.02965342067182064,-0.4247179627418518,0.04091628422757685,-0.5131676325867902,-0.40579376932981764,-0.7999999999988601,-0.2926549419312242,0.0,0.0,-0.6,0.0,0.001127481460571289,0
1.1621367931365967,0.15398484468460083,-0.03022381104528904,-0.42483922839164734,0.039985864044142845,-0.5125817680983055,-0.4039902570826398,-0.7999999999014159,-0.2810554921865026,0.0,0.0,-0.6,0.0,0.008568048477172852,0
1.1765615940093994,0.15398484468460083,-0.03022381104528904,-0.42483922839164734,0.039985864044142845,-0.5125817680983055,-0.4039902570826398,-0.7999999999014159,-0.2810554921865026,0.0,0.0,-0.6,0.0,0.0010538101196289062,0
1.183931827545166,0.15089796483516693,-0.030561110004782677,-0.4247658848762512,0.03907259150153023,-0.5127138997544751,-0.4453197295082766,-0.7999999912337662,-0.26939833843299726,0.0,0.0,-0.6,0.0,0.009690284729003906,0
1.1988070011138916,0.15089796483516693,-0.030561110004782677,-0.4247658848762512,0.03907259150153023,-0.5127138997544751,-0.4453197295082766,-0.7999999912337662,-0.26939833843299726,0.0,0.0,-0.6,0.0,0.001064300537109375,0
1.2091588973999023,0.14490020275115967,-0.030776865780353546,-0.42475223541259766,0.037611863531119075,-0.51335549811379,-0.43372997851661693,-0.7999999995113084,-0.25272021741711437,0.0,0.0,-0.6,0.0,0.009092330932617188,0
1.2237074375152588,0.14490020275115967,-0.030776865780353546,-0.42475223541259766,0.037611863531119075,-0.51335549811379,-0.43372997851661693,-0.7999999995113084,-0.25272021741711437,0.0,0.0,-0.6,0.0,0.0011684894561767578,0
1.2314836978912354,0.13978169858455658,-0.030818648636341095,-0.4248324930667877,0.03677133044687976,-0.5135815183607442,-0.40316002858519046,-0.7999999857566837,-0.24488628380388583,0.0,0.0,-0.6,0.0,0.008316993713378906,0
1.2450010776519775,0.13978169858455658,-0.030818648636341095,-0.4248324930667877,0.03677133044687976,-0.5135815183607442,-0.40316002858519046,-0.7999999857566837,-0.24488628380388583,0.0,0.0,-0.6,0.0,0.0010557174682617188,0
1.2520620822906494,0.13200142979621887,-0.030576612800359726,-0.42484989762306213,0.03543353327591911,-0.5143809178921355,-0.2899065983345177,-0.7999999978456687,-0.23382831960399117,0.0,0.0,-0.6,0.0,0.0083770751953125,0
1.2656242847442627,0.13200142979621887,-0.030576612800359726,-0.42484989762306213,0.03543353327591911,-0.5143809178921355,-0.2899065983345177,-0.7999999978456687,-0.23382831960399117,0.0,0.0,-0.6,0.0,0.0011281967163085938,0
1.2729089260101318,0.1258191615343094,-0.030374519526958466,-0.4249456226825714,0.03484763464412715,-0.5162903446036502,-0.271072272067272,-0.7999999999657457,-0.22897702238046197,0.0,0.0,-0.6,0.0,0.00801849365234375,0
1.2863707542419434,0.1258191615343094,-0.030374519526958466,-0.4249456226825714,0.03484763464412715,-0.5162903446036502,-0.271072272067272,-0.7999999999657457,-0.22897702238046197,0.0,0.0,-0.6,0.0,0.001108407974243164,0
1.2938709259033203,0.12014330178499222,-0.03007042407989502,-0.42493101954460144,0.03423200421312892,-0.5163551855549198,-0.17093803925328824,-0.7999999999582009,-0.22411641048399375,0.0,0.0,-0.6,0.0,0.0077114105224609375,0
1.3082630634307861,0.11674787849187851,-0.02985481731593609,-0.4249202013015747,0.03410374834987702,-0.5164759729368493,-0.16851644555471412,-0.7999999997681025,-0.22184629995100835,0.0,0.0,-0.6,0.0,0.006781101226806641,0
1.3203840255737305,0.11674787849187851,-0.02985481731593609,-0.4249202013015747,0.03410374834987702,-0.5164759729368493,-0.16851644555471412,-0.7999999997681025,-0.22184629995100835,0.0,0.0,-0.6,0.0,0.0010619163513183594,0
1.329178810119629,0.10656709223985672,-0.029069319367408752,-0.4250701665878296,0.03402764688462053,-0.5166770688618707,-0.08993942259198125,-0.7999999999999355,-0.21924923983726183,0.0,0.0,-0.6,0.0,0.007991552352905273,0
1.342651128768921,0.10656709223985672,-0.029069319367408752,-0.4250701665878296,0.03402764688462053,-0.5166770688618707,-0.08993942259198125,-0.7999999999999355,-0.21924923983726183,0.0,0.0,-0.6,0.0,0.0010633468627929688,0
1.3499743938446045,0.09968145936727524,-0.028435220941901207,-0.42530179023742676,0.034219650975124305,-0.5159167064383824,-0.026861139500903995,-0.7753046484501294,-0.2194384614102251,0.0,0.0,-0.6,0.0,0.009175300598144531,0
1.364372968673706,0.09968145936727524,-0.028435220941901207,-0.42530179023742676,0.034219650975124305,-0.5159167064383824,-0.026861139500903995,-0.7753046484501294,-0.2194384614102251,0.0,0.0,-0.6,0.0,0.0010592937469482422,0
1.3716769218444824,0.09268097579479218,-0.027714025229215622,-0.425543874502182,0.03430919567061518,-0.5158427585183012,-0.0044391298256235105,-0.6409033326016627,-0.21961722269596962,0.0,0.0,-0.6,0.0,0.005486965179443359,0
1.3824856281280518,0.09268097579479218,-0.027714025229215622,-0.425543874502182,0.03430919567061518,-0.5158427585183012,-0.0044391298256235105,-0.6409033326016627,-0.21961722269596962,0.0,0.0,-0.6,0.0,0.0011227130889892578,0
1.3897035121917725,0.08589747548103333,-0.026908572763204575,-0.4259882867336273,0.034601141114491675,-0.5155993180277736,0.004093001431750458,-0.4498886128399782,-0.22118484742026195,0.0,0.0,-0.6,0.0,0.005562782287597656,0
1.4010324478149414,0.08589747548103333,-0.026908572763204575,-0.4259882867336273,0.034601141114491675,-0.5155993180277736,0.004093001431750458,-0.4498886128399782,-0.22118484742026195,0.0,0.0,-0.6,0.0,0.0010917186737060547,0
1.4090337753295898,0.07917511463165283,-0.02601027302443981,-0.42648595571517944,0.03499258176340939,-0.5144836646999137,0.02477379087831143,-0.2922673389170181,-0.2234465312882584,0.0,0.0,-0.6,0.0,0.005643606185913086,0
1.4198651313781738,0.07917511463165283,-0.02601027302443981,-0.42648595571517944,0.03499258176340939,-0.5144836646999137,0.02477379087831143,-0.2922673389170181,-0.2234465312882584,0.0,0.0,-0.6,0.0,0.0010962486267089844,0
1.4303200244903564,0.07258269935846329,-0.025084208697080612,-0.4270532727241516,0.03525274037236731,-0.5143622252237734,0.05913894310003424,-0.17053664732404356,-0.22480501965601896,0.0,0.0,-0.6,0.0,0.005929708480834961,0
1.4414799213409424,0.07258269935846329,-0.025084208697080612,-0.4270532727241516,0.03525274037236731,-0.5143622252237734,0.05913894310003424,-0.17053664732404356,-0.22480501965601896,0.0,0.0,-0.6,0.0,0.001177072525024414,0
1.449143648147583,0.0661475658416748,-0.024050934240221977,-0.42784902453422546,0.035521135770902885,-0.5136505444735696,0.035246264267715426,0.06643078752150658,-0.22657965780327033,0.0,0.0,-0.6,0.0,0.005349636077880859,0
1.459885597229004,0.0661475658416748,-0.024050934240221977,-0.42784902453422546,0.035521135770902885,-0.5136505444735696,0.035246264267715426,0.06643078752150658,-0.22657965780327033,0.0,0.0,-0.6,0.0,0.0010573863983154297,0
1.4694242477416992,0.05898120254278183,-0.022900599986314774,-0.42887231707572937,0.0356752296396972,-0.5128452076700402,0.04233241439221845,0.20525169387877834,-0.22742768095409904,0.0,0.0,-0.6,0.0,0.005466461181640625,0
1.4799246788024902,0.05898120254278183,-0.022900599986314774,-0.42887231707572937,0.0356752296396972,-0.5128452076700402,0.04233241439221845,0.20525169387877834,-0.22742768095409904,0.0,0.0,-0.6,0.0,0.0010657310485839844,0
1.4891078472137451,0.055935949087142944,-0.022332115098834038,-0.42938631772994995,0.03578416809310215,-0.5118369164861681,0.05379788515038172,0.2684215797008945,-0.22799188616501967,0.0,0.0,-0.6,0.0,0.004457235336303711,0
1.5009853839874268,0.05007996782660484,-0.02126491628587246,-0.430527001619339,0.03582910411428261,-0.5110827390646736,0.015168054332945161,0.38188994580618624,-0.22853517234904203,0.0,0.0,-0.6,0.0,0.005351066589355469,0
1.5115561485290527,0.05007996782660484,-0.02126491628587246,-0.430527001619339,0.03582910411428261,-0.5110827390646736,0.015168054332945161,0.38188994580618624,-0.22853517234904203,0.0,0.0,-0.6,0.0,0.0010731220245361328,0
1.5190012454986572,0.04524637386202812,-0.020218584686517715,-0.4316234886646271,0.035784297004596254,-0.5103276100921859,-0.03494750319757938,0.4198115004627678,-0.22867365757747113,0.0,0.0,-0.6,0.0,0.005523204803466797,0
1.5299241542816162,0.04524637386202812,-0.020218584686517715,-0.4316234886646271,0.035784297004596254,-0.5103276100921859,-0.03494750319757938,0.4198115004627678,-0.22867365757747113,0.0,0.0,-0.6,0.0,0.0011088848114013672,0
1.5396063327789307,0.03983438014984131,-0.01918140798807144,-0.43299299478530884,0.03556882581803397,-0.5094151743652904,-0.01467246089876463,0.47347495123282834,-0.22707121553048443,0.0,0.0,-0.6,0.0,0.0056035518646240234,0
1.5504422187805176,0.03983438014984131,-0.01918140798807144,-0.43299299478530884,0.03556882581803397,-0.5094151743652904,-0.01467246089876463,0.47347495123282834,-0.22707121553048443,0.0,0.0,-0.6,0.0,0.001074075698852539,0
1.5591294765472412,0.03535277768969536,-0.018283957615494728,-0.4342881739139557,0.03544878332658099,-0.5087751772864958,0.004541817735173476,0.5165782277996479,-0.22608524790240256,0.0,0.0,-0.6,0.0,0.005423545837402344,0
1.5702037811279297,0.03535277768969536,-0.018283957615494728,-0.4342881739139557,0.03544878332658099,-0.5087751772864958,0.004541817735173476,0.5165782277996479,-0.22608524790240256,0.0,0.0,-0.6,0.0,0.001138448715209961,0
1.579080581665039,0.03047356940805912,-0.017350975424051285,-0.435912162065506,0.03542982010328219,-0.5076262645692565,-0.048155269265567166,0.5381999167613194,-0.22644060370963393,0.0,0.0,-0.6,0.0,0.005232334136962891,0
1.5897047519683838,0.03047356940805912,-0.017350975424051285,-0.435912162065506,0.03542982010328219,-0.5076262645692565,-0.048155269265567166,0.5381999167613194,-0.22644060370963393,0.0,0.0,-0.6,0.0,0.0011749267578125,0
1.6002938747406006,0.026499174535274506,-0.016479672864079475,-0.4374094307422638,0.035350069485692706,-0.5066179342825499,-0.039337018168962005,0.5237311589256418,-0.225851532906595,0.0,0.0,-0.6,0.0,0.005347013473510742,0
1.6108238697052002,0.026499174535274506,-0.016479672864079475,-0.4374094307422638,0.035350069485692706,-0.5066179342825499,-0.039337018168962005,0.5237311589256418,-0.225851532906595,0.0,0.0,-0.6,0.0,0.0011043548583984375,0
1.6195571422576904,0.02218419313430786,-0.015706179663538933,-0.4391474425792694,0.035095396992026594,-0.5064055027109851,-0.006038265370632739,0.5335958504626336,-0.2239394265915696,0.0,0.0,-0.6,0.0,0.005108356475830078,0
1.6299049854278564,0.02218419313430786,-0.015706179663538933,-0.4391474425792694,0.035095396992026594,-0.5064055027109851,-0.006038265370632739,0.5335958504626336,-0.2239394265915696,0.0,0.0,-0.6,0.0,0.0010945796966552734,0
1.640146255493164,0.016781266778707504,-0.014591514132916927,-0.4415742754936218,0.03505439849617753,-0.5065065377568776,-0.04460278055298215,0.4004457401874815,-0.22410542780415912,0.0,0.0,-0.6,0.0,0.005312204360961914,0
1.6507313251495361,0.016781266778707504,-0.014591514132916927,-0.4415742754936218,0.03505439849617753,-0.5065065377568776,-0.04460278055298215,0.4004457401874815,-0.22410542780415912,0.0,0.0,-0.6,0.0,0.0010497570037841797,0
1.6591098308563232,0.014431933872401714,-0.014202175661921501,-0.44260475039482117,0.034885997210342475,-0.5059651344183654,-0.017090961885013363,0.344602092402057,-0.22286416489461797,0.0,0.0,-0.6,0.0,0.0044345855712890625,0
1.6705272197723389,0.012641901150345802,-0.013847164809703827,-0.44343382120132446,0.03474329923718667,-0.5057333758781732,-0.03140946090476547,0.3000947271631558,-0.22208061620754752,0.0,0.0,-0.6,0.0,0.004556179046630859,0
1.6801795959472656,0.012641901150345802,-0.013847164809703827,-0.44343382120132446,0.03474329923718667,-0.5057333758781732,-0.03140946090476547,0.3000947271631558,-0.22208061620754752,0.0,0.0,-0.6,0.0,0.0010683536529541016,0
1.6891682147979736,0.009270468726754189,-0.013191957026720047,-0.4450285732746124,0.03445843438527852,-0.50552504156305,0.02550569392309451,0.23920569343840498,-0.21993834561049816,0.0,0.0,-0.6,0.0,0.005222320556640625,0
1.6999990940093994,0.009270468726754189,-0.013191957026720047,-0.4450285732746124,0.03445843438527852,-0.50552504156305,0.02550569392309451,0.23920569343840498,-0.21993834561049816,0.0,0.0,-0.6,0.0,0.0010650157928466797,0
1.7091259956359863,0.006211935076862574,-0.012557030655443668,-0.4466497600078583,0.03424745571599068,-0.50611466631137,0.0529400564802569,0.18220881575137485,-0.21850657114790842,0.0,0.0,-0.6,0.0,0.0051801204681396484,0
1.7196123600006104,0.006211935076862574,-0.012557030655443668,-0.4466497600078583,0.03424745571599068,-0.50611466631137,0.0529400564802569,0.18220881575137485,-0.21850657114790842,0.0,0.0,-0.6,0.0,0.0010547637939453125,0
1.7290809154510498,0.003401015419512987,-0.01196952536702156,-0.4481654465198517,0.03404273209419495,-0.5055184941170215,0.06637724632360674,0.11823949262856827,-0.21722156525605296,0.0,0.0,-0.6,0.0,0.005721569061279297,0
1.7401835918426514,0.003401015419512987,-0.01196952536702156,-0.4481654465198517,0.03404273209419495,-0.5055184941170215,0.06637724632360674,0.11823949262856827,-0.21722156525605296,0.0,0.0,-0.6,0.0,0.001085519790649414,0
1.7490956783294678,0.0009169356198981404,-0.011532137170433998,-0.44973310828208923,0.03383086909963088,-0.5047273128580818,0.07372257685811895,0.05406437216603794,-0.21591460994650252,0.0,0.0,-0.6,0.0,0.0043430328369140625,0
1.7598605155944824,-0.00022248984896577895,-0.011313778348267078,-0.4504837691783905,0.033658105749601694,-0.5048352675455957,0.08801159004358815,0.04418393320411517,-0.21478426114429938,0.0,0.0,-0.6,0.0,0.0046231746673583984,0
1.7696709632873535,-0.00022248984896577895,-0.011313778348267078,-0.4504837691783905,0.033658105749601694,-0.5048352675455957,0.08801159004358815,0.04418393320411517,-0.21478426114429938,0.0,0.0,-0.6,0.0,0.0011143684387207031,0
1.7791709899902344,-0.0022709129843860865,-0.01097151916474104,-0.4520055949687958,0.03346520307073062,-0.5041170485297116,0.12155916421091685,0.006588493756914545,-0.21349066963891233,0.0,0.0,-0.6,0.0,0.004644155502319336,0
1.789121150970459,-0.0022709129843860865,-0.01097151916474104,-0.4520055949687958,0.03346520307073062,-0.5041170485297116,0.12155916421091685,0.006588493756914545,-0.21349066963891233,0.0,0.0,-0.6,0.0,0.0011029243469238281,0
1.800485372543335,-0.0040976982563734055,-0.010632576420903206,-0.45349010825157166,0.03321875053226338,-0.5040124676867205,0.08944830617025896,-0.03112866604780355,-0.21207451254914703,0.0,0.0,-0.6,0.0,0.0048465728759765625,0
1.810927391052246,-0.0040976982563734055,-0.010632576420903206,-0.45349010825157166,0.03321875053226338,-0.5040124676867205,0.08944830617025896,-0.03112866604780355,-0.21207451254914703,0.0,0.0,-0.6,0.0,0.0011110305786132812,0
1.8189637660980225,-0.005694294348359108,-0.010363416746258736,-0.45501652359962463,0.03283301591218499,-0.5029933654210902,0.08822099569707696,-0.04135902753939127,-0.20964764017412274,0.0,0.0,-0.6,0.0,0.004356861114501953,0
1.8297069072723389,-0.006442070938646793,-0.010213392786681652,-0.4557739794254303,0.03257831480176168,-0.5026513714989354,0.08628744916250561,-0.027713971808739964,-0.20803492466620474,0.0,0.0,-0.6,0.0,0.004431009292602539,0
1.8393611907958984,-0.006442070938646793,-0.010213392786681652,-0.4557739794254303,0.03257831480176168,-0.5026513714989354,0.08628744916250561,-0.027713971808739964,-0.20803492466620474,0.0,0.0,-0.6,0.0,0.001062631607055664,0
1.8490750789642334,-0.007795520126819611,-0.00994850043207407,-0.4572974741458893,0.03202056431737044,-0.5017818438033181,0.09140930309547267,-0.024829935920318305,-0.20447506686021677,0.0,0.0,-0.6,0.0,0.00472259521484375,0
1.8593332767486572,-0.007795520126819611,-0.00994850043207407,-0.4572974741458893,0.03202056431737044,-0.5017818438033181,0.09140930309547267,-0.024829935920318305,-0.20447506686021677,0.0,0.0,-0.6,0.0,0.00115203857421875,0
1.8691895008087158,-0.008999728597700596,-0.00964860524982214,-0.4588615596294403,0.03151745599374635,-0.5015874553411834,0.06361027745529083,-0.01897066809282609,-0.201339416145864,0.0,0.0,-0.6,0.0,0.004913330078125,0
1.879746437072754,-0.008999728597700596,-0.00964860524982214,-0.4588615596294403,0.03151745599374635,-0.5015874553411834,0.06361027745529083,-0.01897066809282609,-0.201339416145864,0.0,0.0,-0.6,0.0,0.0012085437774658203,0
1.8891549110412598,-0.010095201432704926,-0.00935533456504345,-0.46045276522636414,0.030866016271051556,-0.500242003533469,0.048014989359298495,0.012681764342843063,-0.19720414334702918,0.0,0.0,-0.6,0.0,0.004950284957885742,0
1.9003560543060303,-0.010095201432704926,-0.00935533456504345,-0.46045276522636414,0.030866016271051556,-0.500242003533469,0.048014989359298495,0.012681764342843063,-0.19720414334702918,0.0,0.0,-0.6,0.0,0.0011708736419677734,0
1.9091193675994873,-0.01114482432603836,-0.009054622612893581,-0.46203699707984924,0.030144053209406243,-0.499541989923622,0.027707120698109593,0.03553251792976012,-0.19262404397759122,0.0,0.0,-0.6,0.0,0.004475593566894531,0
1.9207968711853027,-0.011636227369308472,-0.008920053951442242,-0.4628351032733917,0.029739878580733653,-0.4994878428489139,-0.007153496947459929,0.03367345254187881,-0.1901281394982841,0.0,0.0,-0.6,0.0,0.0044231414794921875,0
1.9307327270507812,-0.011636227369308472,-0.008920053951442242,-0.4628351032733917,0.029739878580733653,-0.4994878428489139,-0.007153496947459929,0.03367345254187881,-0.1901281394982841,0.0,0.0,-0.6,0.0,0.0010728836059570312,0
1.9399943351745605,-0.012564430013298988,-0.008677251636981964,-0.4644276201725006,0.02906585658957056,-0.49958028036683755,-0.04069399896740884,0.01162508101845362,-0.18592880949687318,0.0,0.0,-0.6,0.0,0.004518985748291016,0
1.949965238571167,-0.012564430013298988,-0.008677251636981964,-0.4644276201725006,0.02906585658957056,-0.49958028036683755,-0.04069399896740884,0.01162508101845362,-0.18592880949687318,0.0,0.0,-0.6,0.0,0.0010800361633300781,0
1.9592087268829346,-0.013612015172839165,-0.008558567613363266,-0.4661674201488495,0.028221481702708606,-0.49889206530626584,-0.07045845841255581,0.023544673041216893,-0.1805957211713698,0.0,0.0,-0.6,0.0,0.004845142364501953,0
1.9695439338684082,-0.013612015172839165,-0.008558567613363266,-0.4661674201488495,0.028221481702708606,-0.49889206530626584,-0.07045845841255581,0.023544673041216893,-0.1805957211713698,0.0,0.0,-0.6,0.0,0.0012788772583007812,0
1.980001449584961,-0.014620844274759293,-0.008513704873621464,-0.46786487102508545,0.027485662692494667,-0.4985999283913789,-0.057977736931371704,0.015273232717167675,-0.1758725402669176,0.0,0.0,-0.6,0.0,0.004717826843261719,0
1.9902746677398682,-0.014620844274759293,-0.008513704873621464,-0.46786487102508545,0.027485662692494667,-0.4985999283913789,-0.057977736931371704,0.015273232717167675,-0.1758725402669176,0.0,0.0,-0.6,0.0,0.0011420249938964844,0
2.0002872943878174,-0.015440572053194046,-0.008390321396291256,-0.4694024324417114,0.02672260966415358,-0.498454812273203,-0.08426481093141493,0.005849234904437372,-0.1710755396086112,0.0,0.0,-0.6,0.0,0.0043392181396484375,0
2.010042428970337,-0.015440572053194046,-0.008390321396291256,-0.4694024324417114,0.02672260966415358,-0.498454812273203,-0.08426481093141493,0.005849234904437372,-0.1710755396086112,0.0,0.0,-0.6,0.0,0.0011837482452392578,0
2.019541025161743,-0.01633809693157673,-0.008349275216460228,-0.47105756402015686,0.025763113556480467,-0.497847517741984,-0.061263256764120456,0.03343877747240212,-0.16484071488002774,0.0,0.0,-0.6,0.0,0.0041124820709228516,0
2.0293760299682617,-0.01633809693157673,-0.008349275216460228,-0.47105756402015686,0.025763113556480467,-0.497847517741984,-0.061263256764120456,0.03343877747240212,-0.16484071488002774,0.0,0.0,-0.6,0.0,0.0010714530944824219,0
2.0394835472106934,-0.01670778915286064,-0.008323985151946545,-0.47177812457084656,0.025467738387119465,-0.49780083737212244,-0.05259981822188174,0.01514061204462816,-0.16295995269463004,0.0,0.0,-0.6,0.0,0.004540920257568359,0
2.0493125915527344,-0.01670778915286064,-0.008323985151946545,-0.47177812457084656,0.025467738387119465,-0.49780083737212244,-0.05259981822188174,0.01514061204462816,-0.16295995269463004,0.0,0.0,-0.6,0.0,0.0010678768157958984,0
2.0599453449249268,-0.017636366188526154,-0.008266609162092209,-0.4737197160720825,0.02459386038248747,-0.49777082632373326,0.0030443110923828805,0.015683517722174002,-0.1572368811163543,0.0,0.0,-0.6,0.0,0.004339456558227539,0
2.06956148147583,-0.017636366188526154,-0.008266609162092209,-0.4737197160720825,0.02459386038248747,-0.49777082632373326,0.0030443110923828805,0.015683517722174002,-0.1572368811163543,0.0,0.0,-0.6,0.0,0.001096963882446289,0
2.0790600776672363,-0.017967071384191513,-0.008299989625811577,-0.4743844270706177,0.024270256034237,-0.49833402306667873,0.005897993875983926,0.01857674240621142,-0.15515674511858993,0.0,0.0,-0.6,0.0,0.004263162612915039,0
2.0909981727600098,-0.018519822508096695,-0.008364900946617126,-0.47553327679634094,0.023673110192403875,-0.4980931862677118,0.002867120847444404,0.007417192284303293,-0.15135984716004772,0.0,0.0,-0.6,0.0,0.005050182342529297,0
2.1018354892730713,-0.018519822508096695,-0.008364900946617126,-0.47553327679634094,0.023673110192403875,-0.4980931862677118,0.002867120847444404,0.007417192284303293,-0.15135984716004772,0.0,0.0,-0.6,0.0,0.0011234283447265625,0
2.109121561050415,-0.018832391127943993,-0.008421283215284348,-0.47614356875419617,0.0233724052725747,-0.49820786566482356,-0.007861596560933687,-0.014931813816542404,-0.14948895466818055,0.0,0.0,-0.6,0.0,0.004444599151611328,0
2.1194682121276855,-0.019433770328760147,-0.008545929566025734,-0.4773489534854889,0.02281836994883397,-0.4980989821889882,0.006040085316682849,0.011563406541324511,-0.14588024285336518,0.0,0.0,-0.6,0.0,0.00443577766418457,0
2.1292150020599365,-0.019433770328760147,-0.008545929566025734,-0.4773489534854889,0.02281836994883397,-0.4980989821889882,0.006040085316682849,0.011563406541324511,-0.14588024285336518,0.0,0.0,-0.6,0.0,0.0011029243469238281,0
2.1390929222106934,-0.019944146275520325,-0.008598105050623417,-0.47834643721580505,0.0223225269926832,-0.4980273324671127,0.0409468665325141,0.011923701256312366,-0.14263065923685608,0.0,0.0,-0.6,0.0,0.004567623138427734,0
2.1510560512542725,-0.02026202529668808,-0.008663086220622063,-0.47890040278434753,0.021975786793304874,-0.49798001913500256,0.03627524860232159,0.015616301191173129,-0.14042198507914105,0.0,0.0,-0.6,0.0,0.004979610443115234,0
2.161530017852783,-0.02026202529668808,-0.008663086220622063,-0.47890040278434753,0.021975786793304874,-0.49798001913500256,0.03627524860232159,0.015616301191173129,-0.14042198507914105,0.0,0.0,-0.6,0.0,0.0010585784912109375,0
2.1695713996887207,-0.02085305191576481,-0.008801668882369995,-0.4799746572971344,0.02144878913529286,-0.49762257139855515,0.05266007642125318,0.012757188922387802,-0.1370208503413304,0.0,0.0,-0.6,0.0,0.004454851150512695,0
2.179119825363159,-0.02085305191576481,-0.008801668882369995,-0.4799746572971344,0.02144878913529286,-0.49762257139855515,0.05266007642125318,0.012757188922387802,-0.1370208503413304,0.0,0.0,-0.6,0.0,0.0010597705841064453,0
2.1892473697662354,-0.021400442346930504,-0.008935568854212761,-0.48103275895118713,0.021082897069188353,-0.49740271937670466,0.08590817387915668,0.011657329948779728,-0.13461663458261258,0.0,0.0,-0.6,0.0,0.0045740604400634766,0
2.1997811794281006,-0.021400442346930504,-0.008935568854212761,-0.48103275895118713,0.021082897069188353,-0.49740271937670466,0.08590817387915668,0.011657329948779728,-0.13461663458261258,0.0,0.0,-0.6,0.0,0.0010616779327392578,0
2.209501028060913,-0.021855494007468224,-0.009104722179472446,-0.4820537567138672,0.020750263538894382,-0.4979891397692783,0.0608636896114335,-0.024165220343771204,-0.1325781763100719,0.0,0.0,-0.6,0.0,0.004733085632324219,0
2.2197036743164062,-0.021855494007468224,-0.009104722179472446,-0.4820537567138672,0.020750263538894382,-0.4979891397692783,0.0608636896114335,-0.024165220343771204,-0.1325781763100719,0.0,0.0,-0.6,0.0,0.001055002212524414,0
2.2291502952575684,-0.022284535691142082,-0.009264020249247551,-0.48302027583122253,0.020433303987267202,-0.4980775346825226,0.013905144358915267,-0.03237966079754962,-0.1306566440269484,0.0,0.0,-0.6,0.0,0.00497746467590332,0
2.2397918701171875,-0.022284535691142082,-0.009264020249247551,-0.48302027583122253,0.020433303987267202,-0.4980775346825226,0.013905144358915267,-0.03237966079754962,-0.1306566440269484,0.0,0.0,-0.6,0.0,0.0011677742004394531,0
2.2494213581085205,-0.022699406370520592,-0.009434347040951252,-0.48399731516838074,0.02020160599438123,-0.49709612236567524,0.03597200692332755,0.005246086965569114,-0.12910054549134833,0.0,0.0,-0.6,0.0,0.00459599494934082,0
2.2594079971313477,-0.022699406370520592,-0.009434347040951252,-0.48399731516838074,0.02020160599438123,-0.49709612236567524,0.03597200692332755,0.005246086965569114,-0.12910054549134833,0.0,0.0,-0.6,0.0,0.001068115234375,0
2.269138813018799,-0.023097973316907883,-0.009596924297511578,-0.4849075675010681,0.019948812602040383,-0.49738022148773997,0.06020414223728258,0.009343059320115726,-0.1274341212306171,0.0,0.0,-0.6,0.0,0.005076408386230469,0
2.2800371646881104,-0.023097973316907883,-0.009596924297511578,-0.4849075675010681,0.019948812602040383,-0.49738022148773997,0.06020414223728258,0.009343059320115726,-0.1274341212306171,0.0,0.0,-0.6,0.0,0.0010614395141601562,0
2.2890942096710205,-0.023409992456436157,-0.009774217382073402,-0.48575764894485474,0.019956387173618355,-0.49846474449501255,0.07419636746163347,0.01543433754397951,-0.12744969126570913,0.0,0.0,-0.6,0.0,0.004606723785400391,0
2.299914836883545,-0.023409992456436157,-0.009774217382073402,-0.48575764894485474,0.019956387173618355,-0.49846474449501255,0.07419636746163347,0.01543433754397951,-0.12744969126570913,0.0,0.0,-0.6,0.0,0.0010714530944824219,0
2.3094704151153564,-0.023638024926185608,-0.010000305250287056,-0.4865202009677887,0.019865733530151773,-0.4987837674652005,0.0881484701716278,0.033716661901073246,-0.12681926003282595,0.0,0.0,-0.6,0.0,0.004437446594238281,0
2.3191335201263428,-0.023638024926185608,-0.010000305250287056,-0.4865202009677887,0.019865733530151773,-0.4987837674652005,0.0881484701716278,0.033716661901073246,-0.12681926003282595,0.0,0.0,-0.6,0.0,0.001065969467163086,0
2.3290460109710693,-0.023852771148085594,-0.010321352630853653,-0.4873087704181671,0.019792013614994622,-0.4987363112051576,0.0699922218818266,0.08656708150300016,-0.12632277391270738,0.0,0.0,-0.6,0.0,0.0046536922454833984,0
2.3398025035858154,-0.023852771148085594,-0.010321352630853653,-0.4873087704181671,0.019792013614994622,-0.4987363112051576,0.0699922218818266,0.08656708150300016,-0.12632277391270738,0.0,0.0,-0.6,0.0,0.0012378692626953125,0
2.3490383625030518,-0.023948518559336662,-0.010409759357571602,-0.48759981989860535,0.01978634078484167,-0.499002495801688,0.08414937342479119,0.0918334693959134,-0.12624863963064484,0.0,0.0,-0.6,0.0,0.004528045654296875,0
2.360200881958008,-0.024047475308179855,-0.010497854091227055,-0.48802876472473145,0.019701789617741515,-0.49991008326346487,0.018422379078502485,0.07010026406644415,-0.12586580037996697,0.0,0.0,-0.6,0.0,0.005322933197021484,0
2.3705546855926514,-0.024047475308179855,-0.010497854091227055,-0.48802876472473145,0.019701789617741515,-0.49991008326346487,0.018422379078502485,0.07010026406644415,-0.12586580037996697,0.0,0.0,-0.6,0.0,0.0010852813720703125,0
2.37905216217041,-0.024177581071853638,-0.010666224174201488,-0.4884245991706848,0.019610916042339548,-0.5007339623123164,0.0198467856948993,0.07292652768287858,-0.12527375257801585,0.0,0.0,-0.6,0.0,0.004503011703491211,0
2.390713691711426,-0.024246471002697945,-0.01075802929699421,-0.488598495721817,0.01956860248622118,-0.5008790282581055,0.010829499746159077,0.09337408225265764,-0.12499795230452307,0.0,0.0,-0.6,0.0,0.0044176578521728516,0
2.400940179824829,-0.024246471002697945,-0.01075802929699421,-0.488598495721817,0.01956860248622118,-0.5008790282581055,0.010829499746159077,0.09337408225265764,-0.12499795230452307,0.0,0.0,-0.6,0.0,0.0010693073272705078,0
2.408957004547119,-0.0243549682199955,-0.010853848420083523,-0.48886895179748535,0.01949193561291441,-0.5011920747406485,-0.00515685498000784,0.09383586724799735,-0.12453676692378689,0.0,0.0,-0.6,0.0,0.004711627960205078,0
2.4200470447540283,-0.024427950382232666,-0.010941294021904469,-0.4890079200267792,0.019350129832217292,-0.5011121357585738,-0.01898504863819417,0.09838631004814047,-0.12365236839582787,0.0,0.0,-0.6,0.0,0.004435300827026367,0
2.429506778717041,-0.024427950382232666,-0.010941294021904469,-0.4890079200267792,0.019350129832217292,-0.5011121357585738,-0.01898504863819417,0.09838631004814047,-0.12365236839582787,0.0,0.0,-0.6,0.0,0.001077413558959961,0
2.439244270324707,-0.02452973462641239,-0.011033609509468079,-0.48917973041534424,0.0190863624971329,-0.5023052828575282,-0.0702897180288749,0.09984073410041645,-0.12207022457242941,0.0,0.0,-0.6,0.0,0.004565000534057617,0
2.4493043422698975,-0.02452973462641239,-0.011033609509468079,-0.48917973041534424,0.0190863624971329,-0.5023052828575282,-0.0702897180288749,0.09984073410041645,-0.12207022457242941,0.0,0.0,-0.6,0.0,0.0014388561248779297,0
2.4592764377593994,-0.024665407836437225,-0.011178410612046719,-0.4892602264881134,0.019118457841278608,-0.5024013783391237,-0.10726074725760106,0.1013482962800217,-0.12234725063260157,0.0,0.0,-0.6,0.0,0.004926919937133789,0
2.471771001815796,-0.024665407836437225,-0.011178410612046719,-0.4892602264881134,0.019118457841278608,-0.5024013783391237,-0.10726074725760106,0.1013482962800217,-0.12234725063260157,0.0,0.0,-0.6,0.0,0.0014545917510986328,0
2.481245994567871,-0.024801090359687805,-0.011278879828751087,-0.4891919791698456,0.018902250023938586,-0.503293908956216,-0.11418871123193242,0.12652444075989103,-0.12091227519991715,0.0,0.0,-0.6,0.0,0.0060536861419677734,0
2.493741750717163,-0.024801090359687805,-0.011278879828751087,-0.4891919791698456,0.018902250023938586,-0.503293908956216,-0.11418871123193242,0.12652444075989103,-0.12091227519991715,0.0,0.0,-0.6,0.0,0.0013628005981445312,0
2.503598928451538,-0.024896981194615364,-0.011340617202222347,-0.48901480436325073,0.018683204852946413,-0.5044741165789866,-0.18205736671961154,0.10314221476085386,-0.11968696502844124,0.0,0.0,-0.6,0.0,0.005753755569458008,0
2.516113042831421,-0.024896981194615364,-0.011340617202222347,-0.48901480436325073,0.018683204852946413,-0.5044741165789866,-0.18205736671961154,0.10314221476085386,-0.11968696502844124,0.0,0.0,-0.6,0.0,0.001348257064819336,0
2.5248804092407227,-0.024958249181509018,-0.011362542398273945,-0.4887564480304718,0.018387099729805814,-0.5054876266235684,-0.2312239458348539,0.06229702022093592,-0.11797246765676025,0.0,0.0,-0.6,0.0,0.005796194076538086,0
2.5378565788269043,-0.024958249181509018,-0.011362542398273945,-0.4887564480304718,0.018387099729805814,-0.5054876266235684,-0.2312239458348539,0.06229702022093592,-0.11797246765676025,0.0,0.0,-0.6,0.0,0.0013775825500488281,0
2.5466790199279785,-0.02506537176668644,-0.01138177141547203,-0.488431453704834,0.018244117384013752,-0.505817690790502,-0.24501037751120672,0.06571672981654603,-0.11705645228718778,0.0,0.0,-0.6,0.0,0.004697084426879883,0
2.5594403743743896,-0.02506537176668644,-0.01138177141547203,-0.488431453704834,0.018244117384013752,-0.505817690790502,-0.24501037751120672,0.06571672981654603,-0.11705645228718778,0.0,0.0,-0.6,0.0,0.0011730194091796875,0
2.5702688694000244,-0.025285504758358,-0.011417355388402939,-0.4878818392753601,0.01801625769525164,-0.5057755817740899,-0.21329878543972977,0.04574829966941191,-0.11555125377966649,0.0,0.0,-0.6,0.0,0.006131410598754883,0
2.583230972290039,-0.025285504758358,-0.011417355388402939,-0.4878818392753601,0.01801625769525164,-0.5057755817740899,-0.21329878543972977,0.04574829966941191,-0.11555125377966649,0.0,0.0,-0.6,0.0,0.0013620853424072266,0
2.592038869857788,-0.02539156563580036,-0.01142131071537733,-0.48766931891441345,0.01789996456107034,-0.5059891820772169,-0.21875519381326863,0.03012887916037616,-0.1148418821446971,0.0,0.0,-0.6,0.0,0.004852294921875,0
2.6054866313934326,-0.02555237151682377,-0.011445132084190845,-0.4872507154941559,0.017908893179214975,-0.5068292297056821,-0.19697464864454203,-0.020197182631352582,-0.11494542994531363,0.0,0.0,-0.6,0.0,0.005141496658325195,0
2.617454767227173,-0.02555237151682377,-0.011445132084190845,-0.4872507154941559,0.017908893179214975,-0.5068292297056821,-0.19697464864454203,-0.020197182631352582,-0.11494542994531363,0.0,0.0,-0.6,0.0,0.0011959075927734375,0
2.6267590522766113,-0.02573394402861595,-0.01152239553630352,-0.4867713153362274,0.017906518736878648,-0.5079452869089016,-0.17320797648846425,-0.0624926460894573,-0.11494200964354248,0.0,0.0,-0.6,0.0,0.005568265914916992,0
2.6383326053619385,-0.02573394402861595,-0.01152239553630352,-0.4867713153362274,0.017906518736878648,-0.5079452869089016,-0.17320797648846425,-0.0624926460894573,-0.11494200964354248,0.0,0.0,-0.6,0.0,0.0014722347259521484,0
2.64697003364563,-0.025891438126564026,-0.011626369319856167,-0.48627179861068726,0.017992239364727183,-0.5081719266903478,-0.10490572669815024,-0.0816663393116096,-0.11537485237328783,0.0,0.0,-0.6,0.0,0.005821943283081055,0
2.6600825786590576,-0.025891438126564026,-0.011626369319856167,-0.48627179861068726,0.017992239364727183,-0.5081719266903478,-0.10490572669815024,-0.0816663393116096,-0.11537485237328783,0.0,0.0,-0.6,0.0,0.0015075206756591797,0
2.669620990753174,-0.026155907660722733,-0.011794381774961948,-0.4856455624103546,0.018051440635245154,-0.5080380932892226,-0.03891117013539219,-0.10219236425622927,-0.11564150620191027,0.0,0.0,-0.6,0.0,0.004904508590698242,0
2.680572032928467,-0.026155907660722733,-0.011794381774961948,-0.4856455624103546,0.018051440635245154,-0.5080380932892226,-0.03891117013539219,-0.10219236425622927,-0.11564150620191027,0.0,0.0,-0.6,0.0,0.0011489391326904297,0
2.689863920211792,-0.026316629722714424,-0.011925019323825836,-0.4851013422012329,0.018233906465721428,-0.5079863322261589,0.014886819393779038,-0.12304356015540324,-0.11672956328389802,0.0,0.0,-0.6,0.0,0.005140066146850586,0
2.7020459175109863,-0.026316629722714424,-0.011925019323825836,-0.4851013422012329,0.018233906465721428,-0.5079863322261589,0.014886819393779038,-0.12304356015540324,-0.11672956328389802,0.0,0.0,-0.6,0.0,0.0014827251434326172,0
2.7114486694335938,-0.026447370648384094,-0.012088051065802574,-0.4844365119934082,0.01836759090532608,-0.5083810152687696,0.11819225539410298,-0.09777184366564949,-0.11739354239286003,0.0,0.0,-0.6,0.0,0.005918025970458984,0
2.7244269847869873,-0.026447370648384094,-0.012088051065802574,-0.4844365119934082,0.01836759090532608,-0.5083810152687696,0.11819225539410298,-0.09777184366564949,-0.11739354239286003,0.0,0.0,-0.6,0.0,0.0013508796691894531,0
2.732893228530884,-0.026562094688415527,-0.012203526683151722,-0.4839569330215454,0.018435533441372,-0.5078997112485847,0.1096937141604434,-0.09584778828549745,-0.1178057984556359,0.0,0.0,-0.6,0.0,0.0057604312896728516,0
2.7457079887390137,-0.026562094688415527,-0.012203526683151722,-0.4839569330215454,0.018435533441372,-0.5078997112485847,0.1096937141604434,-0.09584778828549745,-0.1178057984556359,0.0,0.0,-0.6,0.0,0.0013148784637451172,0
2.7546873092651367,-0.026669243350625038,-0.012215791270136833,-0.4835737943649292,0.018427808099798024,-0.5073686056569809,0.10485217321738478,-0.12286374786501217,-0.11773875284472066,0.0,0.0,-0.6,0.0,0.006536960601806641,0
2.768517255783081,-0.026669243350625038,-0.012215791270136833,-0.4835737943649292,0.018427808099798024,-0.5073686056569809,0.10485217321738478,-0.12286374786501217,-0.11773875284472066,0.0,0.0,-0.6,0.0,0.001352548599243164,0
2.7779903411865234,-0.02682783454656601,-0.012247798964381218,-0.4831378757953644,0.018410182750138355,-0.5066204639046603,0.10366447389641158,-0.08653526920804344,-0.11759774661941734,0.0,0.0,-0.6,0.0,0.005402565002441406,0
2.7894952297210693,-0.02682783454656601,-0.012247798964381218,-0.4831378757953644,0.018410182750138355,-0.5066204639046603,0.10366447389641158,-0.08653526920804344,-0.11759774661941734,0.0,0.0,-0.6,0.0,0.001438140869140625,0
2.8012096881866455,-0.026951322332024574,-0.012300590984523296,-0.482909619808197,0.01846703629045827,-0.5059820464656714,0.13598923647072123,-0.049388493237099644,-0.11790486997256093,0.0,0.0,-0.6,0.0,0.006083011627197266,0
2.8149945735931396,-0.026951322332024574,-0.012300590984523296,-0.482909619808197,0.01846703629045827,-0.5059820464656714,0.13598923647072123,-0.049388493237099644,-0.11790486997256093,0.0,0.0,-0.6,0.0,0.0014145374298095703,0
2.8241333961486816,-0.0270692165941,-0.0124477818608284,-0.4827527403831482,0.018616216871517995,-0.5050952725538433,0.13360907455108417,-0.05968105560391765,-0.11886220691597572,0.0,0.0,-0.6,0.0,0.005841732025146484,0
2.8358774185180664,-0.0270692165941,-0.0124477818608284,-0.4827527403831482,0.018616216871517995,-0.5050952725538433,0.13360907455108417,-0.05968105560391765,-0.11886220691597572,0.0,0.0,-0.6,0.0,0.001157999038696289,0
2.8430137634277344,-0.027130641043186188,-0.01254757959395647,-0.4827502369880676,0.018676319342922736,-0.5049476499369544,0.12329087876457175,-0.07321870001847075,-0.11926603786179406,0.0,0.0,-0.6,0.0,0.005455970764160156,0
2.8547208309173584,-0.027130641043186188,-0.01254757959395647,-0.4827502369880676,0.018676319342922736,-0.5049476499369544,0.12329087876457175,-0.07321870001847075,-0.11926603786179406,0.0,0.0,-0.6,0.0,0.0011529922485351562,0
2.864520788192749,-0.027319947257637978,-0.012888280674815178,-0.4829011857509613,0.01883373336163695,-0.5032668309407539,0.05875433723980946,-0.014823383962672845,-0.12034074223336937,0.0,0.0,-0.6,0.0,0.004769325256347656,0
2.8763880729675293,-0.027319947257637978,-0.012888280674815178,-0.4829011857509613,0.01883373336163695,-0.5032668309407539,0.05875433723980946,-0.014823383962672845,-0.12034074223336937,0.0,0.0,-0.6,0.0,0.0011751651763916016,0
2.884910821914673,-0.027421502396464348,-0.013174883089959621,-0.4831047058105469,0.01902507952154831,-0.5024927205393455,0.041918515643379846,0.010944949678326025,-0.12156904483944041,0.0,0.0,-0.6,0.0,0.005663156509399414,0
2.896940231323242,-0.027421502396464348,-0.013174883089959621,-0.4831047058105469,0.01902507952154831,-0.5024927205393455,0.041918515643379846,0.010944949678326025,-0.12156904483944041,0.0,0.0,-0.6,0.0,0.0014286041259765625,0
2.907318353652954,-0.027480393648147583,-0.013527605682611465,-0.4833713471889496,0.019254661815660122,-0.5027575102949964,0.06760494393783557,0.012852407629289568,-0.12298231006610093,0.0,0.0,-0.6,0.0,0.006524562835693359,0
2.92048978805542,-0.027480393648147583,-0.013527605682611465,-0.4833713471889496,0.019254661815660122,-0.5027575102949964,0.06760494393783557,0.012852407629289568,-0.12298231006610093,0.0,0.0,-0.6,0.0,0.001573324203491211,0
2.9295830726623535,-0.027516936883330345,-0.013901733793318272,-0.48371732234954834,0.019577021844492278,-0.501861298231889,0.068154397633332,0.06600176146641423,-0.12497363950530617,0.0,0.0,-0.6,0.0,0.0055217742919921875,0
2.941028594970703,-0.027516936883330345,-0.013901733793318272,-0.48371732234954834,0.019577021844492278,-0.501861298231889,0.068154397633332,0.06600176146641423,-0.12497363950530617,0.0,0.0,-0.6,0.0,0.0010950565338134766,0
2.94950532913208,-0.027536971494555473,-0.014279051683843136,-0.48414117097854614,0.019672977640196404,-0.5009151540549326,0.05212734915377848,0.11155145869291105,-0.12555073627365154,0.0,0.0,-0.6,0.0,0.004840850830078125,0
2.96079421043396,-0.027536971494555473,-0.014279051683843136,-0.48414117097854614,0.019672977640196404,-0.5009151540549326,0.05212734915377848,0.11155145869291105,-0.12555073627365154,0.0,0.0,-0.6,0.0,0.0011494159698486328,0
2.969106912612915,-0.02757914364337921,-0.014671934768557549,-0.48463958501815796,0.0198197574796192,-0.5000850132834016,0.025297973390470564,0.11994261521310665,-0.12652213904855295,0.0,0.0,-0.6,0.0,0.005192279815673828,0
2.980912685394287,-0.02757914364337921,-0.014671934768557549,-0.48463958501815796,0.0198197574796192,-0.5000850132834016,0.025297973390470564,0.11994261521310665,-0.12652213904855295,0.0,0.0,-0.6,0.0,0.0012729167938232422,0
