time,x,y,z,yaw,throttle,roll_rate,pitch_rate,yaw_rate,x_ref,y_ref,z_ref,yaw_ref,mpc_time,metadata
4.0531158447265625e-06,-0.1004413515329361,-0.12888455390930176,-0.24118471145629883,-0.013976302263855689,-0.5711401920045786,0.7999992443871814,-0.550136103961107,0.0960338139187947,0.0,0.0,-0.6,0.0,0.017727136611938477,Hardware
0.023142576217651367,-0.1004413515329361,-0.12888455390930176,-0.24118471145629883,-0.013976302263855689,-0.5711401920045786,0.7999992443871814,-0.550136103961107,0.0960338139187947,0.0,0.0,-0.6,0.0,0.0011188983917236328,Horizon:3.0
0.03084278106689453,-0.10039490461349487,-0.1289287805557251,-0.24115192890167236,-0.01389144344462037,-0.5712459155716794,0.7999999999999112,-0.5557902634995457,0.0955716469754924,0.0,0.0,-0.6,0.0,0.008117437362670898,Num Steps:20
0.04496574401855469,-0.10035818815231323,-0.1289735585451126,-0.24111706018447876,-0.01389325853112755,-0.5712896342032303,0.799998966592336,-0.5505610133963832,0.09542723591018487,0.0,0.0,-0.6,0.0,0.007158041000366211,No Pyjoules
0.05793285369873047,-0.10035818815231323,-0.1289735585451126,-0.24111706018447876,-0.01389325853112755,-0.5712896342032303,0.799998966592336,-0.5505610133963832,0.09542723591018487,0.0,0.0,-0.6,0.0,0.001081705093383789,0
0.06487131118774414,-0.10031206905841827,-0.12902545928955078,-0.2410753071308136,-0.013936312287207084,-0.5717591046971541,0.7999999999998781,-0.5573027183193654,0.09581369484204315,0.0,0.0,-0.6,0.0,0.007631063461303711,0
0.07777166366577148,-0.10031206905841827,-0.12902545928955078,-0.2410753071308136,-0.013936312287207084,-0.5717591046971541,0.7999999999998781,-0.5573027183193654,0.09581369484204315,0.0,0.0,-0.6,0.0,0.0011038780212402344,0
0.08516097068786621,-0.10028401017189026,-0.12908689677715302,-0.24104604125022888,-0.013790299584125972,-0.5713072346967986,0.7999999999999833,-0.5551757299325322,0.09525521196716105,0.0,0.0,-0.6,0.0,0.008062362670898438,0
0.09846925735473633,-0.10028401017189026,-0.12908689677715302,-0.24104604125022888,-0.013790299584125972,-0.5713072346967986,0.7999999999999833,-0.5551757299325322,0.09525521196716105,0.0,0.0,-0.6,0.0,0.0010852813720703125,0
0.10949206352233887,-0.10023097693920135,-0.1291949599981308,-0.24109327793121338,-0.013473954464493633,-0.5702988739871403,0.7999995782481317,-0.5038601136972218,0.0925401479807146,0.0,0.0,-0.6,0.0,0.008517742156982422,0
0.12321591377258301,-0.10023097693920135,-0.1291949599981308,-0.24109327793121338,-0.013473954464493633,-0.5702988739871403,0.7999995782481317,-0.5038601136972218,0.0925401479807146,0.0,0.0,-0.6,0.0,0.0011293888092041016,0
0.13012003898620605,-0.0999038890004158,-0.12921546399593353,-0.24122755229473114,-0.013209896185451958,-0.5695875938565481,0.7999999999994798,-0.45218785801517913,0.08971868948156361,0.0,0.0,-0.6,0.0,0.00955963134765625,0
0.144608736038208,-0.0999038890004158,-0.12921546399593353,-0.24122755229473114,-0.013209896185451958,-0.5695875938565481,0.7999999999994798,-0.45218785801517913,0.08971868948156361,0.0,0.0,-0.6,0.0,0.0011632442474365234,0
0.15222811698913574,-0.09960602223873138,-0.12917055189609528,-0.24135488271713257,-0.013014356550175023,-0.568330293000527,0.7999986794458918,-0.38604288151888533,0.0869797931539903,0.0,0.0,-0.6,0.0,0.009994268417358398,0
0.16813302040100098,-0.09813720732927322,-0.1284671276807785,-0.24230273067951202,-0.012126600766443238,-0.5617820259081466,0.6678608136770054,-0.16370682964298913,0.07916366645342675,0.0,0.0,-0.6,0.0,0.00946807861328125,0
0.18331217765808105,-0.09813720732927322,-0.1284671276807785,-0.24230273067951202,-0.012126600766443238,-0.5617820259081466,0.6678608136770054,-0.16370682964298913,0.07916366645342675,0.0,0.0,-0.6,0.0,0.0011260509490966797,0
0.19034099578857422,-0.0966707319021225,-0.12754063308238983,-0.24384434521198273,-0.011470703834329526,-0.554989900111629,0.5453079339566829,-0.028488323066462706,0.0747292749995867,0.0,0.0,-0.6,0.0,0.01105189323425293,0
0.20699620246887207,-0.0966707319021225,-0.12754063308238983,-0.24384434521198273,-0.011470703834329526,-0.554989900111629,0.5453079339566829,-0.028488323066462706,0.0747292749995867,0.0,0.0,-0.6,0.0,0.0010673999786376953,0
0.21409940719604492,-0.09493102878332138,-0.12625287473201752,-0.24625645577907562,-0.010160608150130044,-0.5485854559199906,0.37825703339321143,0.1237420240391891,0.06635965142358129,0.0,0.0,-0.6,0.0,0.007734537124633789,0
0.22699427604675293,-0.09493102878332138,-0.12625287473201752,-0.24625645577907562,-0.010160608150130044,-0.5485854559199906,0.37825703339321143,0.1237420240391891,0.06635965142358129,0.0,0.0,-0.6,0.0,0.0011074542999267578,0
0.23433136940002441,-0.09263318032026291,-0.12428213655948639,-0.24992908537387848,-0.007651180308988971,-0.5404201980535537,0.09969624747895478,0.29791887324744193,0.05021549293002744,0.0,0.0,-0.6,0.0,0.006910562515258789,0
0.2463681697845459,-0.09263318032026291,-0.12428213655948639,-0.24992908537387848,-0.007651180308988971,-0.5404201980535537,0.09969624747895478,0.29791887324744193,0.05021549293002744,0.0,0.0,-0.6,0.0,0.0011057853698730469,0
0.253342866897583,-0.09037262201309204,-0.12216648459434509,-0.2538716793060303,-0.00574339187338989,-0.5346268042477584,-0.12336606611098176,0.4761870700477267,0.03807307179234377,0.0,0.0,-0.6,0.0,0.006604909896850586,0
0.26561832427978516,-0.09037262201309204,-0.12216648459434509,-0.2538716793060303,-0.00574339187338989,-0.5346268042477584,-0.12336606611098176,0.4761870700477267,0.03807307179234377,0.0,0.0,-0.6,0.0,0.0010700225830078125,0
0.2727479934692383,-0.08774866908788681,-0.11945340782403946,-0.2591433823108673,-0.0027575708946447793,-0.5278664960601808,-0.4178869476269177,0.608925451836403,0.01870400112703582,0.0,0.0,-0.6,0.0,0.006765127182006836,0
0.28553295135498047,-0.08774866908788681,-0.11945340782403946,-0.2591433823108673,-0.0027575708946447793,-0.5278664960601808,-0.4178869476269177,0.608925451836403,0.01870400112703582,0.0,0.0,-0.6,0.0,0.0011286735534667969,0
0.29242920875549316,-0.08654328435659409,-0.11827757209539413,-0.26175788044929504,-0.0014097320811209595,-0.5248375203228859,-0.48756817765165794,0.6531485395344033,0.010105564411054096,0.0,0.0,-0.6,0.0,0.005877256393432617,0
0.3046736717224121,-0.08654328435659409,-0.11827757209539413,-0.26175788044929504,-0.0014097320811209595,-0.5248375203228859,-0.48756817765165794,0.6531485395344033,0.010105564411054096,0.0,0.0,-0.6,0.0,0.0010986328125,0
0.31148862838745117,-0.08379469811916351,-0.11558540165424347,-0.2682655155658722,0.0028095902692800395,-0.5166284742589989,-0.6168807980108688,0.7915873004853875,-0.016440305931100872,0.0,0.0,-0.6,0.0,0.010625123977661133,0
0.3273656368255615,-0.08379469811916351,-0.11558540165424347,-0.2682655155658722,0.0028095902692800395,-0.5166284742589989,-0.6168807980108688,0.7915873004853875,-0.016440305931100872,0.0,0.0,-0.6,0.0,0.0011339187622070312,0
0.33485841751098633,-0.08138785511255264,-0.11312032490968704,-0.27469995617866516,0.006427151346139464,-0.5099789604451817,-0.7040275382983762,0.7999974930195749,-0.03939130819863376,0.0,0.0,-0.6,0.0,0.00795435905456543,0
0.3478848934173584,-0.08138785511255264,-0.11312032490968704,-0.27469995617866516,0.006427151346139464,-0.5099789604451817,-0.7040275382983762,0.7999974930195749,-0.03939130819863376,0.0,0.0,-0.6,0.0,0.0010831356048583984,0
0.35535502433776855,-0.07922200858592987,-0.11100829392671585,-0.28076809644699097,0.010751972859295314,-0.5055850222935487,-0.7503998979111726,0.7999999881901162,-0.06699139091026582,0.0,0.0,-0.6,0.0,0.00798797607421875,0
0.3686861991882324,-0.07922200858592987,-0.11100829392671585,-0.28076809644699097,0.010751972859295314,-0.5055850222935487,-0.7503998979111726,0.7999999881901162,-0.06699139091026582,0.0,0.0,-0.6,0.0,0.0011014938354492188,0
0.3787221908569336,-0.07575813680887222,-0.10753223299980164,-0.2909388840198517,0.017829699541058286,-0.49926586977591403,-0.7873111710692386,0.7876255119023208,-0.11296304963544221,0.0,0.0,-0.6,0.0,0.012783288955688477,0
0.39693355560302734,-0.07575813680887222,-0.10753223299980164,-0.2909388840198517,0.017829699541058286,-0.49926586977591403,-0.7873111710692386,0.7876255119023208,-0.11296304963544221,0.0,0.0,-0.6,0.0,0.0011141300201416016,0
0.4047830104827881,-0.07326927781105042,-0.10496703535318375,-0.2986961603164673,0.02242662492076172,-0.4953048651763532,-0.7703913464123858,0.7208791865171507,-0.14264192883499316,0.0,0.0,-0.6,0.0,0.008004903793334961,0
0.41808009147644043,-0.07326927781105042,-0.10496703535318375,-0.2986961603164673,0.02242662492076172,-0.4953048651763532,-0.7703913464123858,0.7208791865171507,-0.14264192883499316,0.0,0.0,-0.6,0.0,0.0011026859283447266,0
0.42544054985046387,-0.06987369060516357,-0.10133779048919678,-0.3095279633998871,0.029969678486253697,-0.4909736335067566,-0.5844523247433161,0.6573191594272356,-0.19061337624816152,0.0,0.0,-0.6,0.0,0.006639719009399414,0
0.4370131492614746,-0.06987369060516357,-0.10133779048919678,-0.3095279633998871,0.029969678486253697,-0.4909736335067566,-0.5844523247433161,0.6573191594272356,-0.19061337624816152,0.0,0.0,-0.6,0.0,0.0010616779327392578,0
0.4439561367034912,-0.06741704791784286,-0.09869089722633362,-0.31743431091308594,0.03456543641319061,-0.488568776867207,-0.4543299469913926,0.5310564993469699,-0.22024194877679534,0.0,0.0,-0.6,0.0,0.005780935287475586,0
0.45557475090026855,-0.06741704791784286,-0.09869089722633362,-0.31743431091308594,0.03456543641319061,-0.488568776867207,-0.4543299469913926,0.5310564993469699,-0.22024194877679534,0.0,0.0,-0.6,0.0,0.0010945796966552734,0
0.462169885635376,-0.06522226333618164,-0.09643346816301346,-0.3243996798992157,0.039257042220000905,-0.48652368187700556,-0.3701694933393654,0.4195169846364641,-0.2505404546131824,0.0,0.0,-0.6,0.0,0.005774736404418945,0
0.47293710708618164,-0.06522226333618164,-0.09643346816301346,-0.3243996798992157,0.039257042220000905,-0.48652368187700556,-0.3701694933393654,0.4195169846364641,-0.2505404546131824,0.0,0.0,-0.6,0.0,0.001135110855102539,0
0.48026609420776367,-0.06400412321090698,-0.09511373192071915,-0.32835766673088074,0.0415303646273098,-0.4856447921587991,-0.3064560244208338,0.34511337883488463,-0.26522880206564187,0.0,0.0,-0.6,0.0,0.005500078201293945,0
0.49155187606811523,-0.06161045283079147,-0.09239545464515686,-0.33624041080474854,0.04525360913200916,-0.48441720323502624,-0.21818616434437568,0.2166873774172475,-0.2892487153565732,0.0,0.0,-0.6,0.0,0.005692481994628906,0
0.5032131671905518,-0.06161045283079147,-0.09239545464515686,-0.33624041080474854,0.04525360913200916,-0.48441720323502624,-0.21818616434437568,0.2166873774172475,-0.2892487153565732,0.0,0.0,-0.6,0.0,0.0011076927185058594,0
0.5101323127746582,-0.06039838865399361,-0.09101226180791855,-0.3401139974594116,0.04701831093401427,-0.48380214447520087,-0.18701048831793418,0.1492794119428636,-0.30061168156472073,0.0,0.0,-0.6,0.0,0.0054280757904052734,0
0.5208160877227783,-0.06039838865399361,-0.09101226180791855,-0.3401139974594116,0.04701831093401427,-0.48380214447520087,-0.18701048831793418,0.1492794119428636,-0.30061168156472073,0.0,0.0,-0.6,0.0,0.0011203289031982422,0
0.5285398960113525,-0.05802612006664276,-0.08819783478975296,-0.34776049852371216,0.04988081519145208,-0.4825942155939025,-0.12040445808943387,0.07917178777519776,-0.31897413148005166,0.0,0.0,-0.6,0.0,0.005312681198120117,0
0.5402090549468994,-0.056864820420742035,-0.08674687147140503,-0.3515161871910095,0.05124442960334233,-0.48195226267777613,-0.06887165799975281,0.04894517749128853,-0.3277363573256192,0.0,0.0,-0.6,0.0,0.005347013473510742,0
0.5513207912445068,-0.056864820420742035,-0.08674687147140503,-0.3515161871910095,0.05124442960334233,-0.48195226267777613,-0.06887165799975281,0.04894517749128853,-0.3277363573256192,0.0,0.0,-0.6,0.0,0.0011563301086425781,0
0.5594594478607178,-0.053402744233608246,-0.08247770369052887,-0.3624468147754669,0.05445581007652512,-0.48128959404804705,0.09612130813991009,-0.07913059589056581,-0.34842934202092474,0.0,0.0,-0.6,0.0,0.005234241485595703,0
0.5701091289520264,-0.053402744233608246,-0.08247770369052887,-0.3624468147754669,0.05445581007652512,-0.48128959404804705,0.09612130813991009,-0.07913059589056581,-0.34842934202092474,0.0,0.0,-0.6,0.0,0.0011060237884521484,0
0.5795676708221436,-0.05116897076368332,-0.07968195527791977,-0.369404673576355,0.056115300202162474,-0.48157602650166453,0.17545465518023393,-0.1485157497436526,-0.3591027384825874,0.0,0.0,-0.6,0.0,0.005499601364135742,0
0.5903027057647705,-0.05116897076368332,-0.07968195527791977,-0.369404673576355,0.056115300202162474,-0.48157602650166453,0.17545465518023393,-0.1485157497436526,-0.3591027384825874,0.0,0.0,-0.6,0.0,0.0010776519775390625,0
0.5996682643890381,-0.050066083669662476,-0.07831837981939316,-0.3727882504463196,0.056995667312880735,-0.48182804233262,0.20890859388797098,-0.1692835615898801,-0.3647634537071189,0.0,0.0,-0.6,0.0,0.004462480545043945,0
0.6094121932983398,-0.050066083669662476,-0.07831837981939316,-0.3727882504463196,0.056995667312880735,-0.48182804233262,0.20890859388797098,-0.1692835615898801,-0.3647634537071189,0.0,0.0,-0.6,0.0,0.0010955333709716797,0
0.6193292140960693,-0.04701273515820503,-0.0743534043431282,-0.3826378583908081,0.059045313492698606,-0.48096569304227477,0.22869063345106094,-0.23931531088220917,-0.3777593273048094,0.0,0.0,-0.6,0.0,0.005314826965332031,0
0.6299266815185547,-0.04701273515820503,-0.0743534043431282,-0.3826378583908081,0.059045313492698606,-0.48096569304227477,0.22869063345106094,-0.23931531088220917,-0.3777593273048094,0.0,0.0,-0.6,0.0,0.0011076927185058594,0
0.6386270523071289,-0.045216165482997894,-0.07186805456876755,-0.388979434967041,0.06010283454362339,-0.480367408435483,0.2986726257205346,-0.334878682950149,-0.38446167957943883,0.0,0.0,-0.6,0.0,0.005321025848388672,0
0.6493721008300781,-0.045216165482997894,-0.07186805456876755,-0.388979434967041,0.06010283454362339,-0.480367408435483,0.2986726257205346,-0.334878682950149,-0.38446167957943883,0.0,0.0,-0.6,0.0,0.0010576248168945312,0
0.6586744785308838,-0.044396571815013885,-0.070670947432518,-0.39209356904029846,0.06070880417123995,-0.48044892075865386,0.33796464147044214,-0.3917405731526542,-0.38828946827384103,0.0,0.0,-0.6,0.0,0.0053327083587646484,0
0.6694371700286865,-0.044396571815013885,-0.070670947432518,-0.39209356904029846,0.06070880417123995,-0.48044892075865386,0.33796464147044214,-0.3917405731526542,-0.38828946827384103,0.0,0.0,-0.6,0.0,0.0011451244354248047,0
0.6788337230682373,-0.04294496029615402,-0.06847633421421051,-0.3981502950191498,0.06178203570800906,-0.48071255447175054,0.41063148527798965,-0.4768504544619094,-0.39510987285967003,0.0,0.0,-0.6,0.0,0.005526304244995117,0
0.6897192001342773,-0.04294496029615402,-0.06847633421421051,-0.3981502950191498,0.06178203570800906,-0.48071255447175054,0.41063148527798965,-0.4768504544619094,-0.39510987285967003,0.0,0.0,-0.6,0.0,0.0011012554168701172,0
0.6998369693756104,-0.04162239283323288,-0.06632929295301437,-0.404823899269104,0.06266244314520586,-0.48015125985273044,0.46885536298872493,-0.5387617866294568,-0.4006956779768765,0.0,0.0,-0.6,0.0,0.005541563034057617,0
0.7105734348297119,-0.04162239283323288,-0.06632929295301437,-0.404823899269104,0.06266244314520586,-0.48015125985273044,0.46885536298872493,-0.5387617866294568,-0.4006956779768765,0.0,0.0,-0.6,0.0,0.0010991096496582031,0
0.718925952911377,-0.040809836238622665,-0.06490319222211838,-0.4098563492298126,0.06306298075058259,-0.4791982039454181,0.5785611761311635,-0.5697492024477623,-0.40347228788202,0.0,0.0,-0.6,0.0,0.005265712738037109,0
0.7300448417663574,-0.04040832817554474,-0.06413687765598297,-0.4127127230167389,0.06317732192498775,-0.47868680395576646,0.6111654922676526,-0.6099874033694639,-0.40417338440515466,0.0,0.0,-0.6,0.0,0.005448102951049805,0
0.7406606674194336,-0.04040832817554474,-0.06413687765598297,-0.4127127230167389,0.06317732192498775,-0.47868680395576646,0.6111654922676526,-0.6099874033694639,-0.40417338440515466,0.0,0.0,-0.6,0.0,0.001066446304321289,0
0.7487812042236328,-0.03957689553499222,-0.06216418743133545,-0.4203965961933136,0.06312983905353715,-0.47757220026203784,0.5707847283987129,-0.6583010753048134,-0.40357048809616813,0.0,0.0,-0.6,0.0,0.005634307861328125,0
0.7597439289093018,-0.03957689553499222,-0.06216418743133545,-0.4203965961933136,0.06312983905353715,-0.47757220026203784,0.5707847283987129,-0.6583010753048134,-0.40357048809616813,0.0,0.0,-0.6,0.0,0.001077890396118164,0
0.7687559127807617,-0.03929624706506729,-0.06146050989627838,-0.4231700599193573,0.06305378738476686,-0.47659474805483604,0.5617074834084028,-0.6502994682254438,-0.4030801727431977,0.0,0.0,-0.6,0.0,0.005941867828369141,0
0.7800593376159668,-0.03929624706506729,-0.06146050989627838,-0.4231700599193573,0.06305378738476686,-0.47659474805483604,0.5617074834084028,-0.6502994682254438,-0.4030801727431977,0.0,0.0,-0.6,0.0,0.001138448715209961,0
0.7886536121368408,-0.038560520857572556,-0.05959725379943848,-0.43069693446159363,0.06263303733330869,-0.47530662775722277,0.48893733376126586,-0.557277583624325,-0.4004128065633354,0.0,0.0,-0.6,0.0,0.005777835845947266,0
0.8003122806549072,-0.038560520857572556,-0.05959725379943848,-0.43069693446159363,0.06263303733330869,-0.47530662775722277,0.48893733376126586,-0.557277583624325,-0.4004128065633354,0.0,0.0,-0.6,0.0,0.0011000633239746094,0
0.8091018199920654,-0.0381198450922966,-0.05832275375723839,-0.43608036637306213,0.062315596773965594,-0.47550010244561214,0.45488871129909436,-0.47817678876775754,-0.39845356636409784,0.0,0.0,-0.6,0.0,0.005593776702880859,0
0.8201227188110352,-0.0381198450922966,-0.05832275375723839,-0.43608036637306213,0.062315596773965594,-0.47550010244561214,0.45488871129909436,-0.47817678876775754,-0.39845356636409784,0.0,0.0,-0.6,0.0,0.0011510848999023438,0
0.8285965919494629,-0.037783730775117874,-0.057370588183403015,-0.44066300988197327,0.06179863781409626,-0.4745854967562133,0.39410448677496146,-0.3916083269772587,-0.39514391991082304,0.0,0.0,-0.6,0.0,0.004667043685913086,0
0.8404030799865723,-0.03761370852589607,-0.05684233829379082,-0.443244993686676,0.061447291742630875,-0.47494852161397494,0.3675564617754635,-0.35570695178145595,-0.39287736389548045,0.0,0.0,-0.6,0.0,0.004375457763671875,0
0.8501408100128174,-0.03761370852589607,-0.05684233829379082,-0.443244993686676,0.061447291742630875,-0.47494852161397494,0.3675564617754635,-0.35570695178145595,-0.39287736389548045,0.0,0.0,-0.6,0.0,0.0010554790496826172,0
0.8586487770080566,-0.03734645992517471,-0.05590120330452919,-0.4482909142971039,0.060665694334141824,-0.4751121344216913,0.27792146010489394,-0.265359389382905,-0.38781129859310887,0.0,0.0,-0.6,0.0,0.005627632141113281,0
0.8695573806762695,-0.03734645992517471,-0.05590120330452919,-0.4482909142971039,0.060665694334141824,-0.4751121344216913,0.27792146010489394,-0.265359389382905,-0.38781129859310887,0.0,0.0,-0.6,0.0,0.0011515617370605469,0
0.8786892890930176,-0.03710479661822319,-0.05505678430199623,-0.4531853199005127,0.059621955085715064,-0.4746956155219131,0.15951020025295018,-0.16816240022131326,-0.38112640492509514,0.0,0.0,-0.6,0.0,0.0055811405181884766,0
0.889502763748169,-0.03710479661822319,-0.05505678430199623,-0.4531853199005127,0.059621955085715064,-0.4746956155219131,0.15951020025295018,-0.16816240022131326,-0.38112640492509514,0.0,0.0,-0.6,0.0,0.0010933876037597656,0
0.8999061584472656,-0.03700872138142586,-0.05426062270998955,-0.4578700065612793,0.05823139195695436,-0.4745135929558937,0.08174302349345981,-0.03738801301356032,-0.3721828238388351,0.0,0.0,-0.6,0.0,0.0057947635650634766,0
0.9113783836364746,-0.03700872138142586,-0.05426062270998955,-0.4578700065612793,0.05823139195695436,-0.4745135929558937,0.08174302349345981,-0.03738801301356032,-0.3721828238388351,0.0,0.0,-0.6,0.0,0.001127004623413086,0
0.9185605049133301,-0.03693966194987297,-0.05344350263476372,-0.46235591173171997,0.05695195185274404,-0.4750152212848541,0.03220283741402671,0.05566992258378809,-0.36392623709666083,0.0,0.0,-0.6,0.0,0.005880594253540039,0
0.9295294284820557,-0.03693966194987297,-0.05344350263476372,-0.46235591173171997,0.05695195185274404,-0.4750152212848541,0.03220283741402671,0.05566992258378809,-0.36392623709666083,0.0,0.0,-0.6,0.0,0.001058340072631836,0
0.938629150390625,-0.036945752799510956,-0.052636586129665375,-0.46655943989753723,0.05551694587798786,-0.4767722821601169,-0.05677933262956456,0.0944911505051653,-0.3548382906888407,0.0,0.0,-0.6,0.0,0.005954742431640625,0
0.950117826461792,-0.036945752799510956,-0.052636586129665375,-0.46655943989753723,0.05551694587798786,-0.4767722821601169,-0.05677933262956456,0.0944911505051653,-0.3548382906888407,0.0,0.0,-0.6,0.0,0.001180410385131836,0
0.9586184024810791,-0.03705015406012535,-0.05182480067014694,-0.4704713523387909,0.05415128655631648,-0.4780496221907504,-0.15074391156240965,0.15814719955410983,-0.34623160149120347,0.0,0.0,-0.6,0.0,0.005598545074462891,0
0.9697072505950928,-0.03705015406012535,-0.05182480067014694,-0.4704713523387909,0.05415128655631648,-0.4780496221907504,-0.15074391156240965,0.15814719955410983,-0.34623160149120347,0.0,0.0,-0.6,0.0,0.0011076927185058594,0
0.9787468910217285,-0.037240397185087204,-0.05100356042385101,-0.4740825891494751,0.05279935052577745,-0.47920196055316067,-0.2257383143310049,0.2456189047973655,-0.3376187984486559,0.0,0.0,-0.6,0.0,0.0055081844329833984,0
0.98972487449646,-0.037240397185087204,-0.05100356042385101,-0.4740825891494751,0.05279935052577745,-0.47920196055316067,-0.2257383143310049,0.2456189047973655,-0.3376187984486559,0.0,0.0,-0.6,0.0,0.0011136531829833984,0
0.9991157054901123,-0.03751290962100029,-0.05011353641748428,-0.4773523807525635,0.05118478536822605,-0.4803634459544509,-0.29805461548885076,0.2815194061462731,-0.32745236577327946,0.0,0.0,-0.6,0.0,0.004466056823730469,0
1.0089473724365234,-0.03751290962100029,-0.05011353641748428,-0.4773523807525635,0.05118478536822605,-0.4803634459544509,-0.29805461548885076,0.2815194061462731,-0.32745236577327946,0.0,0.0,-0.6,0.0,0.0010609626770019531,0
1.0186107158660889,-0.03776387870311737,-0.0491352342069149,-0.4802800416946411,0.049828249263623246,-0.48247300882071387,-0.33540708814684955,0.2800409800739988,-0.3189234171937946,0.0,0.0,-0.6,0.0,0.004812479019165039,0
1.0285451412200928,-0.03776387870311737,-0.0491352342069149,-0.4802800416946411,0.049828249263623246,-0.48247300882071387,-0.33540708814684955,0.2800409800739988,-0.3189234171937946,0.0,0.0,-0.6,0.0,0.001092672348022461,0
1.0386254787445068,-0.037980806082487106,-0.048122189939022064,-0.4829042851924896,0.048633637844893746,-0.484684897898096,-0.33904040547315606,0.27777782684955743,-0.31130309349571067,0.0,0.0,-0.6,0.0,0.004528522491455078,0
1.0499701499938965,-0.03808189183473587,-0.04759252443909645,-0.48412662744522095,0.04804424528807371,-0.4850213888205456,-0.32606487082390173,0.2835024749396241,-0.3074620640591466,0.0,0.0,-0.6,0.0,0.004642009735107422,0
1.0598015785217285,-0.03808189183473587,-0.04759252443909645,-0.48412662744522095,0.04804424528807371,-0.4850213888205456,-0.32606487082390173,0.2835024749396241,-0.3074620640591466,0.0,0.0,-0.6,0.0,0.0011696815490722656,0
1.0685865879058838,-0.038233838975429535,-0.04635286331176758,-0.48664167523384094,0.04658155189990657,-0.48637569416711435,-0.3813302007733324,0.31506070513975853,-0.2982028988438922,0.0,0.0,-0.6,0.0,0.0054931640625,0
1.0793304443359375,-0.038233838975429535,-0.04635286331176758,-0.48664167523384094,0.04658155189990657,-0.48637569416711435,-0.3813302007733324,0.31506070513975853,-0.2982028988438922,0.0,0.0,-0.6,0.0,0.0011873245239257812,0
1.088667631149292,-0.03828202188014984,-0.04520159959793091,-0.4886281490325928,0.04568040361480125,-0.48685661522150325,-0.3735362737382181,0.31251555570818484,-0.2923989313958662,0.0,0.0,-0.6,0.0,0.0044748783111572266,0
1.1009502410888672,-0.0382680669426918,-0.044624339789152145,-0.489566445350647,0.04523040194837878,-0.48721177448600395,-0.3692783659476857,0.28569913866255786,-0.2895802383334566,0.0,0.0,-0.6,0.0,0.0046234130859375,0
1.1107113361358643,-0.0382680669426918,-0.044624339789152145,-0.489566445350647,0.04523040194837878,-0.48721177448600395,-0.3692783659476857,0.28569913866255786,-0.2895802383334566,0.0,0.0,-0.6,0.0,0.0010628700256347656,0
1.1186339855194092,-0.03818420693278313,-0.04351036250591278,-0.49112507700920105,0.04421821274966204,-0.4875729233926971,-0.3505262724343079,0.26921212263329874,-0.28307598952564206,0.0,0.0,-0.6,0.0,0.004422664642333984,0
1.1301684379577637,-0.038107600063085556,-0.04288214072585106,-0.49197372794151306,0.04369198199083455,-0.48802966275498616,-0.3214030651976874,0.25601219952639465,-0.2796473949100542,0.0,0.0,-0.6,0.0,0.004770994186401367,0
1.1400752067565918,-0.038107600063085556,-0.04288214072585106,-0.49197372794151306,0.04369198199083455,-0.48802966275498616,-0.3214030651976874,0.25601219952639465,-0.2796473949100542,0.0,0.0,-0.6,0.0,0.0010840892791748047,0
1.1488158702850342,-0.0379200242459774,-0.04144132509827614,-0.49378150701522827,0.04236743395489746,-0.489701068532868,-0.26394033483809104,0.20140941530347015,-0.2711374170909979,0.0,0.0,-0.6,0.0,0.004321575164794922,0
1.1596534252166748,-0.037817731499671936,-0.040774255990982056,-0.4945627450942993,0.04177877567334635,-0.489477572043446,-0.24276163385003136,0.186206321825277,-0.2673441874504216,0.0,0.0,-0.6,0.0,0.004370927810668945,0
1.1692633628845215,-0.037817731499671936,-0.040774255990982056,-0.4945627450942993,0.04177877567334635,-0.489477572043446,-0.24276163385003136,0.186206321825277,-0.2673441874504216,0.0,0.0,-0.6,0.0,0.0010700225830078125,0
1.1785988807678223,-0.03760484233498573,-0.03951425105333328,-0.49586591124534607,0.040628485142492635,-0.4890205038966462,-0.23313014960366812,0.11646089066480142,-0.26006417294161077,0.0,0.0,-0.6,0.0,0.004470348358154297,0
1.1900520324707031,-0.037415556609630585,-0.03882177546620369,-0.4966627061367035,0.0400630360756299,-0.4889562893349323,-0.22200692915026526,0.103411777800133,-0.2564305563913794,0.0,0.0,-0.6,0.0,0.004581928253173828,0
1.200286626815796,-0.037415556609630585,-0.03882177546620369,-0.4966627061367035,0.0400630360756299,-0.4889562893349323,-0.22200692915026526,0.103411777800133,-0.2564305563913794,0.0,0.0,-0.6,0.0,0.0010607242584228516,0
1.2087116241455078,-0.03697355091571808,-0.037434130907058716,-0.498244971036911,0.03902148142014609,-0.48761257786963774,-0.1452259947030328,0.10096911109722095,-0.24961198450494768,0.0,0.0,-0.6,0.0,0.004541158676147461,0
1.2205333709716797,-0.03679357096552849,-0.03689316660165787,-0.4988199770450592,0.03842596847168428,-0.4883128817720801,-0.09558811790073546,0.0962422758123154,-0.24572524130679926,0.0,0.0,-0.6,0.0,0.004471778869628906,0
1.2302770614624023,-0.03679357096552849,-0.03689316660165787,-0.4988199770450592,0.03842596847168428,-0.4883128817720801,-0.09558811790073546,0.0962422758123154,-0.24572524130679926,0.0,0.0,-0.6,0.0,0.0010569095611572266,0
1.2387645244598389,-0.03626389801502228,-0.03545495495200157,-0.500338077545166,0.03733102220770083,-0.4879530992736463,-0.09719996506925807,0.05031998218739495,-0.2387525167459186,0.0,0.0,-0.6,0.0,0.004485607147216797,0
1.2496378421783447,-0.03599340841174126,-0.03471069410443306,-0.5010783076286316,0.036879070537124026,-0.48770726104477846,-0.0967090587726258,0.04275881820661045,-0.23585985360774017,0.0,0.0,-0.6,0.0,0.004377603530883789,0
1.2599525451660156,-0.035500071942806244,-0.033347178250551224,-0.5023502111434937,0.03582165036486721,-0.4878299741651575,-0.03310060525285683,0.029209742760620504,-0.2290232575975459,0.0,0.0,-0.6,0.0,0.004431724548339844,0
1.269550085067749,-0.035500071942806244,-0.033347178250551224,-0.5023502111434937,0.03582165036486721,-0.4878299741651575,-0.03310060525285683,0.029209742760620504,-0.2290232575975459,0.0,0.0,-0.6,0.0,0.0010318756103515625,0
1.2787775993347168,-0.03516963869333267,-0.03260382264852524,-0.5031169056892395,0.035239907691170504,-0.48635459818728477,-0.028488242673164212,0.06345433913276485,-0.22530343581072101,0.0,0.0,-0.6,0.0,0.0051212310791015625,0
1.2908401489257812,-0.03516963869333267,-0.03260382264852524,-0.5031169056892395,0.035239907691170504,-0.48635459818728477,-0.028488242673164212,0.06345433913276485,-0.22530343581072101,0.0,0.0,-0.6,0.0,0.0014226436614990234,0
1.3010735511779785,-0.03408338874578476,-0.030553001910448074,-0.505462646484375,0.03370788771728645,-0.48527129580399,0.07396177366569744,0.04994520795581609,-0.21543344745589352,0.0,0.0,-0.6,0.0,0.0056612491607666016,0
1.3129804134368896,-0.03408338874578476,-0.030553001910448074,-0.505462646484375,0.03370788771728645,-0.48527129580399,0.07396177366569744,0.04994520795581609,-0.21543344745589352,0.0,0.0,-0.6,0.0,0.0013461112976074219,0
1.322270393371582,-0.03339960798621178,-0.029186708852648735,-0.5069975256919861,0.03283714046235051,-0.48534738513337106,0.14411351311455284,0.03270275517417311,-0.209822746204392,0.0,0.0,-0.6,0.0,0.005327701568603516,0
1.3341972827911377,-0.03339960798621178,-0.029186708852648735,-0.5069975256919861,0.03283714046235051,-0.48534738513337106,0.14411351311455284,0.03270275517417311,-0.209822746204392,0.0,0.0,-0.6,0.0,0.0011818408966064453,0
1.342698335647583,-0.0330410972237587,-0.028520099818706512,-0.5077667236328125,0.032340082427949765,-0.4850807626656537,0.1934680497561078,0.01491893406708894,-0.2066105643907917,0.0,0.0,-0.6,0.0,0.005270242691040039,0
1.3548107147216797,-0.032341085374355316,-0.02720801718533039,-0.5092359185218811,0.03162547374004017,-0.486384330767043,0.1587965172957861,-0.023402562993843676,-0.20203035872009958,0.0,0.0,-0.6,0.0,0.004544258117675781,0
1.3667500019073486,-0.032341085374355316,-0.02720801718533039,-0.5092359185218811,0.03162547374004017,-0.486384330767043,0.1587965172957861,-0.023402562993843676,-0.20203035872009958,0.0,0.0,-0.6,0.0,0.0017848014831542969,0
1.3762128353118896,-0.031656667590141296,-0.025959474965929985,-0.5106142163276672,0.030879366467563486,-0.48647767483459925,0.14066944262236697,-0.024291313674973756,-0.1972747512761179,0.0,0.0,-0.6,0.0,0.004909038543701172,0
1.3880231380462646,-0.031656667590141296,-0.025959474965929985,-0.5106142163276672,0.030879366467563486,-0.48647767483459925,0.14066944262236697,-0.024291313674973756,-0.1972747512761179,0.0,0.0,-0.6,0.0,0.0013554096221923828,0
1.396580457687378,-0.03106072172522545,-0.02481822855770588,-0.5118884444236755,0.02994929204993826,-0.4862195599350445,0.16809977305905677,-0.025940904189860184,-0.19131156594185397,0.0,0.0,-0.6,0.0,0.004921436309814453,0
1.4093739986419678,-0.03106072172522545,-0.02481822855770588,-0.5118884444236755,0.02994929204993826,-0.4862195599350445,0.16809977305905677,-0.025940904189860184,-0.19131156594185397,0.0,0.0,-0.6,0.0,0.0013327598571777344,0
1.4190170764923096,-0.03029678203165531,-0.023325955495238304,-0.5136229991912842,0.02888468521983351,-0.4867643232849773,0.24757956076494694,-0.0684302214094536,-0.18442420147702038,0.0,0.0,-0.6,0.0,0.004948139190673828,0
1.4314002990722656,-0.03029678203165531,-0.023325955495238304,-0.5136229991912842,0.02888468521983351,-0.4867643232849773,0.24757956076494694,-0.0684302214094536,-0.18442420147702038,0.0,0.0,-0.6,0.0,0.001399993896484375,0
1.4392893314361572,-0.02987024374306202,-0.02244805358350277,-0.5146547555923462,0.028289335474914877,-0.4881724268174521,0.26469749337681214,-0.11284780345884125,-0.18055232379387548,0.0,0.0,-0.6,0.0,0.004693508148193359,0
1.4516029357910156,-0.02987024374306202,-0.02244805358350277,-0.5146547555923462,0.028289335474914877,-0.4881724268174521,0.26469749337681214,-0.11284780345884125,-0.18055232379387548,0.0,0.0,-0.6,0.0,0.0015027523040771484,0
1.46053147315979,-0.029642317444086075,-0.02201331965625286,-0.515245258808136,0.02780710330032666,-0.4883666621529825,0.20741108473429698,-0.08809960160804471,-0.1775384828856245,0.0,0.0,-0.6,0.0,0.005251407623291016,0
1.4727568626403809,-0.02928399294614792,-0.021262574940919876,-0.5161129236221313,0.027438542611563446,-0.4881785421847561,0.24469937046357887,-0.07081153075868937,-0.17519746198343056,0.0,0.0,-0.6,0.0,0.005147218704223633,0
1.4847612380981445,-0.02928399294614792,-0.021262574940919876,-0.5161129236221313,0.027438542611563446,-0.4881785421847561,0.24469937046357887,-0.07081153075868937,-0.17519746198343056,0.0,0.0,-0.6,0.0,0.0011658668518066406,0
1.4939756393432617,-0.029036514461040497,-0.020519182085990906,-0.516857385635376,0.02692633849213386,-0.49054980052073416,0.25195728408876067,-0.14396275875196116,-0.17184307213202668,0.0,0.0,-0.6,0.0,0.0063877105712890625,0
1.5075242519378662,-0.029036514461040497,-0.020519182085990906,-0.516857385635376,0.02692633849213386,-0.49054980052073416,0.25195728408876067,-0.14396275875196116,-0.17184307213202668,0.0,0.0,-0.6,0.0,0.0010976791381835938,0
1.516512393951416,-0.028925810009241104,-0.020207064226269722,-0.5171278715133667,0.02683014736876817,-0.49136675880773406,0.24434707374568293,-0.12624155160678452,-0.17125789202490813,0.0,0.0,-0.6,0.0,0.004914522171020508,0
1.529099941253662,-0.028692470863461494,-0.019564418122172356,-0.5176625847816467,0.02649239492518651,-0.49083712295246684,0.18915539542473972,-0.07743656451598939,-0.16918587572952823,0.0,0.0,-0.6,0.0,0.004803180694580078,0
1.5409841537475586,-0.028692470863461494,-0.019564418122172356,-0.5176625847816467,0.02649239492518651,-0.49083712295246684,0.18915539542473972,-0.07743656451598939,-0.16918587572952823,0.0,0.0,-0.6,0.0,0.0011444091796875,0
1.5497069358825684,-0.028551410883665085,-0.019015658646821976,-0.5180068016052246,0.026448816331771104,-0.49119118450939636,0.18334470138473835,-0.08312129671934586,-0.16891314769518517,0.0,0.0,-0.6,0.0,0.0054416656494140625,0
1.5622053146362305,-0.028551410883665085,-0.019015658646821976,-0.5180068016052246,0.026448816331771104,-0.49119118450939636,0.18334470138473835,-0.08312129671934586,-0.16891314769518517,0.0,0.0,-0.6,0.0,0.001352071762084961,0
1.5706641674041748,-0.02839728258550167,-0.01837281510233879,-0.5182104706764221,0.02633333443767358,-0.49238555413416407,0.1672804376121653,-0.01898745046431225,-0.16820851058244005,0.0,0.0,-0.6,0.0,0.005155324935913086,0
1.5828704833984375,-0.02839728258550167,-0.01837281510233879,-0.5182104706764221,0.02633333443767358,-0.49238555413416407,0.1672804376121653,-0.01898745046431225,-0.16820851058244005,0.0,0.0,-0.6,0.0,0.0011818408966064453,0
1.5914649963378906,-0.02823833003640175,-0.017739849165081978,-0.5183225870132446,0.02633630975541718,-0.49281034194546836,0.15365167033508953,-0.022573599579511973,-0.1682314651318776,0.0,0.0,-0.6,0.0,0.005353212356567383,0
1.6041741371154785,-0.02823833003640175,-0.017739849165081978,-0.5183225870132446,0.02633630975541718,-0.49281034194546836,0.15365167033508953,-0.022573599579511973,-0.1682314651318776,0.0,0.0,-0.6,0.0,0.0016107559204101562,0
1.6129786968231201,-0.02809518203139305,-0.017116568982601166,-0.5183695554733276,0.026472868734181573,-0.49373704336902235,0.031059591319462735,-0.0317166150358711,-0.16922652755383374,0.0,0.0,-0.6,0.0,0.005410671234130859,0
1.6251511573791504,-0.02809518203139305,-0.017116568982601166,-0.5183695554733276,0.026472868734181573,-0.49373704336902235,0.031059591319462735,-0.0317166150358711,-0.16922652755383374,0.0,0.0,-0.6,0.0,0.0013432502746582031,0
1.634751796722412,-0.02789424918591976,-0.016364969313144684,-0.5182344913482666,0.026346895679355407,-0.4950420126788293,0.0426922537226486,0.03184074625353406,-0.16838306516247278,0.0,0.0,-0.6,0.0,0.0060689449310302734,0
1.646592378616333,-0.02789424918591976,-0.016364969313144684,-0.5182344913482666,0.026346895679355407,-0.4950420126788293,0.0426922537226486,0.03184074625353406,-0.16838306516247278,0.0,0.0,-0.6,0.0,0.0018463134765625,0
1.655184268951416,-0.027772709727287292,-0.015896901488304138,-0.5179876685142517,0.026269838048906424,-0.49593028394173166,-0.004741202003697391,0.049820106187845166,-0.16793787332704427,0.0,0.0,-0.6,0.0,0.0049266815185546875,0
1.6670854091644287,-0.027772709727287292,-0.015896901488304138,-0.5179876685142517,0.026269838048906424,-0.49593028394173166,-0.004741202003697391,0.049820106187845166,-0.16793787332704427,0.0,0.0,-0.6,0.0,0.001562356948852539,0
1.6765103340148926,-0.027668513357639313,-0.015473911538720131,-0.5177246928215027,0.02633751760708969,-0.4965341031991384,-0.0697624176032055,0.06100971138484153,-0.16845908797022702,0.0,0.0,-0.6,0.0,0.005915403366088867,0
1.6894488334655762,-0.027577253058552742,-0.015023288317024708,-0.5173068642616272,0.026190606702642984,-0.49807741710085074,-0.14805168593541992,0.07025286715466314,-0.16764519216196713,0.0,0.0,-0.6,0.0,0.005000114440917969,0
1.7020421028137207,-0.027577253058552742,-0.015023288317024708,-0.5173068642616272,0.026190606702642984,-0.49807741710085074,-0.14805168593541992,0.07025286715466314,-0.16764519216196713,0.0,0.0,-0.6,0.0,0.0013353824615478516,0
1.711061716079712,-0.027507441118359566,-0.014554372988641262,-0.5168289542198181,0.02597919366448398,-0.49977608408501517,-0.20856124948633595,0.045249063910889745,-0.16646372191061812,0.0,0.0,-0.6,0.0,0.006669044494628906,0
1.7238879203796387,-0.027507441118359566,-0.014554372988641262,-0.5168289542198181,0.02597919366448398,-0.49977608408501517,-0.20856124948633595,0.045249063910889745,-0.16646372191061812,0.0,0.0,-0.6,0.0,0.0015749931335449219,0
1.7334256172180176,-0.027471616864204407,-0.014041023328900337,-0.51627516746521,0.025921972896931517,-0.4997810297217169,-0.2106792843227451,0.07725985356381074,-0.16605220987719033,0.0,0.0,-0.6,0.0,0.004925727844238281,0
1.7444002628326416,-0.027471616864204407,-0.014041023328900337,-0.51627516746521,0.025921972896931517,-0.4997810297217169,-0.2106792843227451,0.07725985356381074,-0.16605220987719033,0.0,0.0,-0.6,0.0,0.0011661052703857422,0
1.751950979232788,-0.027451403439044952,-0.013451984152197838,-0.515662431716919,0.026003717927977853,-0.4998797692495708,-0.20248035993514837,0.1022183657989007,-0.16651019851923332,0.0,0.0,-0.6,0.0,0.0053272247314453125,0
1.764582872390747,-0.027451403439044952,-0.013451984152197838,-0.515662431716919,0.026003717927977853,-0.4998797692495708,-0.20248035993514837,0.1022183657989007,-0.16651019851923332,0.0,0.0,-0.6,0.0,0.0020437240600585938,0
1.7737162113189697,-0.0274826530367136,-0.012857111170887947,-0.515017569065094,0.02597062213265916,-0.4992095269270346,-0.18327552646292233,0.1212260780549525,-0.16621982979356173,0.0,0.0,-0.6,0.0,0.005151271820068359,0
1.7857329845428467,-0.0274826530367136,-0.012857111170887947,-0.515017569065094,0.02597062213265916,-0.4992095269270346,-0.18327552646292233,0.1212260780549525,-0.16621982979356173,0.0,0.0,-0.6,0.0,0.0013675689697265625,0
1.7944910526275635,-0.027492297813296318,-0.012330387718975544,-0.514400064945221,0.025874827767772866,-0.4994003101129333,-0.20741615224250204,0.11459847827142183,-0.16566327570535688,0.0,0.0,-0.6,0.0,0.0050923824310302734,0
1.8076300621032715,-0.027492297813296318,-0.012330387718975544,-0.514400064945221,0.025874827767772866,-0.4994003101129333,-0.20741615224250204,0.11459847827142183,-0.16566327570535688,0.0,0.0,-0.6,0.0,0.0014493465423583984,0
1.815277338027954,-0.027514399960637093,-0.011712426319718361,-0.5137702822685242,0.025797298441321302,-0.49996052470687125,-0.20725667671900685,0.06616905022874306,-0.16525743800310808,0.0,0.0,-0.6,0.0,0.006425142288208008,0
1.828948974609375,-0.027514399960637093,-0.011712426319718361,-0.5137702822685242,0.025797298441321302,-0.49996052470687125,-0.20725667671900685,0.06616905022874306,-0.16525743800310808,0.0,0.0,-0.6,0.0,0.0013289451599121094,0
1.8389897346496582,-0.02751479297876358,-0.010701864026486874,-0.5129424333572388,0.02560591907479429,-0.49999693092026143,-0.1482777419006714,0.004261894763709614,-0.16400958245269076,0.0,0.0,-0.6,0.0,0.005597591400146484,0
1.8505065441131592,-0.02751479297876358,-0.010701864026486874,-0.5129424333572388,0.02560591907479429,-0.49999693092026143,-0.1482777419006714,0.004261894763709614,-0.16400958245269076,0.0,0.0,-0.6,0.0,0.001119375228881836,0
1.8589715957641602,-0.027557913213968277,-0.010366055183112621,-0.5126351714134216,0.02546149130910825,-0.4992475260510387,-0.18608733989760842,0.027013745738332536,-0.16310079211584427,0.0,0.0,-0.6,0.0,0.005884885787963867,0
1.8724029064178467,-0.02760007232427597,-0.009535793215036392,-0.5121779441833496,0.025308638219433962,-0.498809993530389,-0.14068570255471238,0.039779245630431684,-0.16202077984283997,0.0,0.0,-0.6,0.0,0.0052623748779296875,0
1.8841545581817627,-0.02760007232427597,-0.009535793215036392,-0.5121779441833496,0.025308638219433962,-0.498809993530389,-0.14068570255471238,0.039779245630431684,-0.16202077984283997,0.0,0.0,-0.6,0.0,0.001443624496459961,0
1.8930881023406982,-0.02764318697154522,-0.008606436662375927,-0.5117191672325134,0.025170296299235114,-0.4988941499185403,-0.100347722832749,-0.011721230172823439,-0.16111772245490402,0.0,0.0,-0.6,0.0,0.004980325698852539,0
1.9054245948791504,-0.02764318697154522,-0.008606436662375927,-0.5117191672325134,0.025170296299235114,-0.4988941499185403,-0.100347722832749,-0.011721230172823439,-0.16111772245490402,0.0,0.0,-0.6,0.0,0.0012919902801513672,0
1.9136559963226318,-0.02764318697154522,-0.008606436662375927,-0.5117191672325134,0.025170296299235114,-0.4988941499185403,-0.100347722832749,-0.011721230172823439,-0.16111772245490402,0.0,0.0,-0.6,0.0,0.0014426708221435547,0
1.9219849109649658,-0.02758234180510044,-0.007723227143287659,-0.5114217400550842,0.025019772841991358,-0.49867165278122205,-0.10259494484151258,0.01647891158445409,-0.16012435976268025,0.0,0.0,-0.6,0.0,0.006447792053222656,0
1.9352726936340332,-0.02758234180510044,-0.007723227143287659,-0.5114217400550842,0.025019772841991358,-0.49867165278122205,-0.10259494484151258,0.01647891158445409,-0.16012435976268025,0.0,0.0,-0.6,0.0,0.0015246868133544922,0
1.9440617561340332,-0.027525795623660088,-0.006204473320394754,-0.5110352635383606,0.02480406294716207,-0.4973833784269266,-0.06044921761258783,0.014239419166150423,-0.15868277913295376,0.0,0.0,-0.6,0.0,0.0051381587982177734,0
1.9554927349090576,-0.027525795623660088,-0.006204473320394754,-0.5110352635383606,0.02480406294716207,-0.4973833784269266,-0.06044921761258783,0.014239419166150423,-0.15868277913295376,0.0,0.0,-0.6,0.0,0.0015408992767333984,0
1.9639666080474854,-0.02746221423149109,-0.005214042961597443,-0.5108380913734436,0.024618488090582927,-0.49840668789003173,-0.08223793215899888,0.0004549128154970188,-0.15752692541694052,0.0,0.0,-0.6,0.0,0.00576472282409668,0
1.9764676094055176,-0.02746221423149109,-0.005214042961597443,-0.5108380913734436,0.024618488090582927,-0.49840668789003173,-0.08223793215899888,0.0004549128154970188,-0.15752692541694052,0.0,0.0,-0.6,0.0,0.0012977123260498047,0
1.9858131408691406,-0.027406958863139153,-0.004291204269975424,-0.5106897354125977,0.024558299479631184,-0.49674143631993417,-0.05802686127652782,-0.01252261439424859,-0.15711056898894138,0.0,0.0,-0.6,0.0,0.004895925521850586,0
1.997161626815796,-0.027406958863139153,-0.004291204269975424,-0.5106897354125977,0.024558299479631184,-0.49674143631993417,-0.05802686127652782,-0.01252261439424859,-0.15711056898894138,0.0,0.0,-0.6,0.0,0.001129150390625,0
2.006669044494629,-0.02736509218811989,-0.003397570224478841,-0.5105629563331604,0.024322352351127806,-0.49712903498768324,-0.004110076841990851,0.026142916983027144,-0.15552040878934212,0.0,0.0,-0.6,0.0,0.005221843719482422,0
2.0186800956726074,-0.02735218219459057,-0.0029795856680721045,-0.5104913711547852,0.02425914096946077,-0.4964204866617302,0.03523126078925795,0.02775869028802123,-0.15506373980614735,0.0,0.0,-0.6,0.0,0.004982709884643555,0
2.031515598297119,-0.02733992226421833,-0.0021669366396963596,-0.5103498697280884,0.024124416885651624,-0.49672546794218053,0.0330958642283109,0.027874795396940093,-0.1542052068683373,0.0,0.0,-0.6,0.0,0.005374431610107422,0
2.0438783168792725,-0.02733992226421833,-0.0021669366396963596,-0.5103498697280884,0.024124416885651624,-0.49672546794218053,0.0330958642283109,0.027874795396940093,-0.1542052068683373,0.0,0.0,-0.6,0.0,0.0015308856964111328,0
2.0524840354919434,-0.02732926607131958,-0.001396403182297945,-0.5101937651634216,0.02405935706881199,-0.4979895948129045,0.02837928357022373,-0.01645729856732643,-0.15378942162776635,0.0,0.0,-0.6,0.0,0.006308317184448242,0
2.065436363220215,-0.02732926607131958,-0.001396403182297945,-0.5101937651634216,0.02405935706881199,-0.4979895948129045,0.02837928357022373,-0.01645729856732643,-0.15378942162776635,0.0,0.0,-0.6,0.0,0.001169443130493164,0
2.07422137260437,-0.027345476672053337,-0.0004876981256529689,-0.5097895860671997,0.023992166195173623,-0.49846313521818364,0.09452481323063933,0.014635545078379565,-0.15326948846131205,0.0,0.0,-0.6,0.0,0.005271196365356445,0
2.0862276554107666,-0.027345476672053337,-0.0004876981256529689,-0.5097895860671997,0.023992166195173623,-0.49846313521818364,0.09452481323063933,0.014635545078379565,-0.15326948846131205,0.0,0.0,-0.6,0.0,0.001615762710571289,0
2.0947721004486084,-0.027420105412602425,6.047426722943783e-06,-0.5094255805015564,0.024002627343129364,-0.49959386150688445,0.1272052029836627,-0.026152409360390275,-0.1532756617682032,0.0,0.0,-0.6,0.0,0.005784034729003906,0
2.108466148376465,-0.027420105412602425,6.047426722943783e-06,-0.5094255805015564,0.024002627343129364,-0.49959386150688445,0.1272052029836627,-0.026152409360390275,-0.1532756617682032,0.0,0.0,-0.6,0.0,0.0014388561248779297,0
2.1187639236450195,-0.027562690898776054,0.0004311281372793019,-0.5089936852455139,0.02384697246484999,-0.5005023885630971,0.1708102060737944,-0.06029432951885721,-0.15221581561054048,0.0,0.0,-0.6,0.0,0.006051540374755859,0
2.131303310394287,-0.027562690898776054,0.0004311281372793019,-0.5089936852455139,0.02384697246484999,-0.5005023885630971,0.1708102060737944,-0.06029432951885721,-0.15221581561054048,0.0,0.0,-0.6,0.0,0.0014226436614990234,0
2.1398918628692627,-0.02771681733429432,0.0008039007661864161,-0.5085238218307495,0.023650448654432204,-0.5009438186317893,0.16659667986458934,-0.07331085372804845,-0.15097169145426215,0.0,0.0,-0.6,0.0,0.004980802536010742,0
2.1522815227508545,-0.02771681733429432,0.0008039007661864161,-0.5085238218307495,0.023650448654432204,-0.5009438186317893,0.16659667986458934,-0.07331085372804845,-0.15097169145426215,0.0,0.0,-0.6,0.0,0.0010616779327392578,0
2.1592698097229004,-0.027899369597434998,0.001143731758929789,-0.5080228447914124,0.02353026550357707,-0.5005486313591757,0.1326257421354501,-0.07879698289684173,-0.1502604532360019,0.0,0.0,-0.6,0.0,0.005474090576171875,0
2.1712210178375244,-0.027899369597434998,0.001143731758929789,-0.5080228447914124,0.02353026550357707,-0.5005486313591757,0.1326257421354501,-0.07879698289684173,-0.1502604532360019,0.0,0.0,-0.6,0.0,0.0012273788452148438,0
2.179373264312744,-0.02811494842171669,0.0014225919730961323,-0.5075036883354187,0.023460609354032033,-0.5011114983749997,0.09810842121916313,-0.09766897586912024,-0.1498575670410347,0.0,0.0,-0.6,0.0,0.004548788070678711,0
2.1898741722106934,-0.02811494842171669,0.0014225919730961323,-0.5075036883354187,0.023460609354032033,-0.5011114983749997,0.09810842121916313,-0.09766897586912024,-0.1498575670410347,0.0,0.0,-0.6,0.0,0.001439809799194336,0
2.199786424636841,-0.02832430973649025,0.0017012900207191706,-0.5069963335990906,0.023254173130499697,-0.5008634067515237,0.11978293213598275,-0.11448107205748169,-0.14852771475291027,0.0,0.0,-0.6,0.0,0.006495952606201172,0
2.2124102115631104,-0.02832430973649025,0.0017012900207191706,-0.5069963335990906,0.023254173130499697,-0.5008634067515237,0.11978293213598275,-0.11448107205748169,-0.14852771475291027,0.0,0.0,-0.6,0.0,0.0011587142944335938,0
2.221334457397461,-0.028506727889180183,0.0019581823144108057,-0.5065380930900574,0.023042485737201072,-0.5012556490057416,0.09289592128922808,-0.13173118227231195,-0.14722942023717764,0.0,0.0,-0.6,0.0,0.005028724670410156,0
2.232697010040283,-0.028506727889180183,0.0019581823144108057,-0.5065380930900574,0.023042485737201072,-0.5012556490057416,0.09289592128922808,-0.13173118227231195,-0.14722942023717764,0.0,0.0,-0.6,0.0,0.0012922286987304688,0
2.241942882537842,-0.02872801199555397,0.0021309361327439547,-0.5060745477676392,0.022739116546395995,-0.5008631098231313,0.01164314015368278,-0.0781090341418294,-0.145413564790029,0.0,0.0,-0.6,0.0,0.006338834762573242,0
2.2546162605285645,-0.02872801199555397,0.0021309361327439547,-0.5060745477676392,0.022739116546395995,-0.5008631098231313,0.01164314015368278,-0.0781090341418294,-0.145413564790029,0.0,0.0,-0.6,0.0,0.001119375228881836,0
2.263232469558716,-0.02894909679889679,0.0024349773302674294,-0.5056354999542236,0.022377481566093378,-0.5010905955724412,0.002279474481264309,-0.09372660325482643,-0.1431504838808011,0.0,0.0,-0.6,0.0,0.0060732364654541016,0
2.276578903198242,-0.02894909679889679,0.0024349773302674294,-0.5056354999542236,0.022377481566093378,-0.5010905955724412,0.002279474481264309,-0.09372660325482643,-0.1431504838808011,0.0,0.0,-0.6,0.0,0.0013079643249511719,0
2.2853024005889893,-0.029131369665265083,0.0028888368979096413,-0.505316436290741,0.022049206810885014,-0.5003861642551217,-0.08760122172457595,-0.08035034411175912,-0.1412016139906692,0.0,0.0,-0.6,0.0,0.006153583526611328,0
2.2982118129730225,-0.029131369665265083,0.0028888368979096413,-0.505316436290741,0.022049206810885014,-0.5003861642551217,-0.08760122172457595,-0.08035034411175912,-0.1412016139906692,0.0,0.0,-0.6,0.0,0.0015485286712646484,0
2.307053327560425,-0.029371993616223335,0.0035578012466430664,-0.5049863457679749,0.021536209375606335,-0.4997615271416981,-0.07415688912233588,-0.020086278546299227,-0.1378965503038309,0.0,0.0,-0.6,0.0,0.005815982818603516,0
2.3194968700408936,-0.029371993616223335,0.0035578012466430664,-0.5049863457679749,0.021536209375606335,-0.4997615271416981,-0.07415688912233588,-0.020086278546299227,-0.1378965503038309,0.0,0.0,-0.6,0.0,0.0013740062713623047,0
2.329369306564331,-0.029545847326517105,0.0038312007673084736,-0.5048505067825317,0.021256349587354492,-0.4986622601469455,-0.07344033656966288,0.01120049807703659,-0.13608731129193885,0.0,0.0,-0.6,0.0,0.0049877166748046875,0
2.3412983417510986,-0.029545847326517105,0.0038312007673084736,-0.5048505067825317,0.021256349587354492,-0.4986622601469455,-0.07344033656966288,0.01120049807703659,-0.13608731129193885,0.0,0.0,-0.6,0.0,0.0013697147369384766,0
2.349653720855713,-0.029649969190359116,0.00406962726265192,-0.504800021648407,0.020973593362642734,-0.4980920034580756,-0.07834724846132564,-0.009499424832700554,-0.13431881862753461,0.0,0.0,-0.6,0.0,0.005021095275878906,0
2.36106538772583,-0.029649969190359116,0.00406962726265192,-0.504800021648407,0.020973593362642734,-0.4980920034580756,-0.07834724846132564,-0.009499424832700554,-0.13431881862753461,0.0,0.0,-0.6,0.0,0.0011646747589111328,0
2.3694510459899902,-0.0297960564494133,0.004093421157449484,-0.504846453666687,0.020670793970643423,-0.49714483982266944,-0.05457678306801174,0.0033744396635191657,-0.13233112071263292,0.0,0.0,-0.6,0.0,0.004799604415893555,0
2.3816416263580322,-0.0297960564494133,0.004093421157449484,-0.504846453666687,0.020670793970643423,-0.49714483982266944,-0.05457678306801174,0.0033744396635191657,-0.13233112071263292,0.0,0.0,-0.6,0.0,0.0014965534210205078,0
2.3904776573181152,-0.029908111318945885,0.004156291950494051,-0.5049348473548889,0.02047894245629643,-0.4969552934713739,-0.0485005412032502,0.0038174846171025426,-0.13109347654480183,0.0,0.0,-0.6,0.0,0.0049381256103515625,0
2.4023947715759277,-0.029908111318945885,0.004156291950494051,-0.5049348473548889,0.02047894245629643,-0.4969552934713739,-0.0485005412032502,0.0038174846171025426,-0.13109347654480183,0.0,0.0,-0.6,0.0,0.0011522769927978516,0
2.410162925720215,-0.030034145340323448,0.004069173708558083,-0.505067765712738,0.020293808357570838,-0.4963490183876851,-0.014897044044678202,0.03349838097925026,-0.129818389387542,0.0,0.0,-0.6,0.0,0.005377292633056641,0
2.4225409030914307,-0.030095357447862625,0.004087037872523069,-0.5052458047866821,0.020069675248517906,-0.49570677289468834,0.007345763200689757,0.04697812415940075,-0.1283316619478156,0.0,0.0,-0.6,0.0,0.005392313003540039,0
2.4342799186706543,-0.030095357447862625,0.004087037872523069,-0.5052458047866821,0.020069675248517906,-0.49570677289468834,0.007345763200689757,0.04697812415940075,-0.1283316619478156,0.0,0.0,-0.6,0.0,0.001753091812133789,0
2.4429433345794678,-0.030233625322580338,0.0040389252826571465,-0.5054589509963989,0.019878693651979633,-0.4966652478688961,-0.03191848577533093,0.011915746672933587,-0.12721182815205986,0.0,0.0,-0.6,0.0,0.005563974380493164,0
2.455085039138794,-0.030233625322580338,0.0040389252826571465,-0.5054589509963989,0.019878693651979633,-0.4966652478688961,-0.03191848577533093,0.011915746672933587,-0.12721182815205986,0.0,0.0,-0.6,0.0,0.0016677379608154297,0
2.462876081466675,-0.03033638186752796,0.004027341492474079,-0.505679726600647,0.019582343583993772,-0.49724556770877903,-0.037616828989997686,-0.024340490016991945,-0.12535288487953425,0.0,0.0,-0.6,0.0,0.0056002140045166016,0
2.474472761154175,-0.03033638186752796,0.004027341492474079,-0.505679726600647,0.019582343583993772,-0.49724556770877903,-0.037616828989997686,-0.024340490016991945,-0.12535288487953425,0.0,0.0,-0.6,0.0,0.0016279220581054688,0
2.483624219894409,-0.030474592000246048,0.004035919904708862,-0.5058687925338745,0.01923443693906723,-0.4965858741967234,-0.03572709684928762,-0.01914320361078979,-0.12311735964250362,0.0,0.0,-0.6,0.0,0.00501704216003418,0
2.4950990676879883,-0.030474592000246048,0.004035919904708862,-0.5058687925338745,0.01923443693906723,-0.4965858741967234,-0.03572709684928762,-0.01914320361078979,-0.12311735964250362,0.0,0.0,-0.6,0.0,0.0012612342834472656,0
2.505159378051758,-0.030555738136172295,0.004064176231622696,-0.5060620307922363,0.01907801153325328,-0.496427741238775,-0.04149559285920794,0.03550428962737106,-0.12208754902227556,0.0,0.0,-0.6,0.0,0.005158185958862305,0
2.516939640045166,-0.030555738136172295,0.004064176231622696,-0.5060620307922363,0.01907801153325328,-0.496427741238775,-0.04149559285920794,0.03550428962737106,-0.12208754902227556,0.0,0.0,-0.6,0.0,0.0013704299926757812,0
2.5253090858459473,-0.030639532953500748,0.004113043658435345,-0.506240725517273,0.018773597074783984,-0.4961325562473492,-0.021892515592085788,0.051118165294726785,-0.12009436339664582,0.0,0.0,-0.6,0.0,0.004828691482543945,0
2.5374464988708496,-0.030639532953500748,0.004113043658435345,-0.506240725517273,0.018773597074783984,-0.4961325562473492,-0.021892515592085788,0.051118165294726785,-0.12009436339664582,0.0,0.0,-0.6,0.0,0.0014142990112304688,0
2.546095848083496,-0.03066842444241047,0.004093598108738661,-0.5064754486083984,0.01865474672695066,-0.4952422907366112,0.00865999300066592,0.03164954790066372,-0.11929403030509166,0.0,0.0,-0.6,0.0,0.0046956539154052734,0
2.558042526245117,-0.03066842444241047,0.004093598108738661,-0.5064754486083984,0.01865474672695066,-0.4952422907366112,0.00865999300066592,0.03164954790066372,-0.11929403030509166,0.0,0.0,-0.6,0.0,0.0015790462493896484,0
2.5667285919189453,-0.030612464994192123,0.004089868627488613,-0.5067548751831055,0.018546538157849776,-0.495578648806028,0.02358013609885566,0.025747299734683038,-0.11857814367468399,0.0,0.0,-0.6,0.0,0.005305290222167969,0
2.579106330871582,-0.030612464994192123,0.004089868627488613,-0.5067548751831055,0.018546538157849776,-0.495578648806028,0.02358013609885566,0.025747299734683038,-0.11857814367468399,0.0,0.0,-0.6,0.0,0.00142669677734375,0
2.589168071746826,-0.030494969338178635,0.004062720108777285,-0.5070735216140747,0.018550107127788464,-0.496206499314817,0.0038858705908197053,0.0643961228864394,-0.11860940645904147,0.0,0.0,-0.6,0.0,0.0047228336334228516,0
2.601475954055786,-0.030494969338178635,0.004062720108777285,-0.5070735216140747,0.018550107127788464,-0.496206499314817,0.0038858705908197053,0.0643961228864394,-0.11860940645904147,0.0,0.0,-0.6,0.0,0.001318216323852539,0
2.610006332397461,-0.03037194535136223,0.00394847895950079,-0.5074087977409363,0.01841769797641895,-0.49457666739504347,0.011586853162905857,0.09435184121830378,-0.11772845288972059,0.0,0.0,-0.6,0.0,0.005152463912963867,0
2.622102975845337,-0.03037194535136223,0.00394847895950079,-0.5074087977409363,0.01841769797641895,-0.49457666739504347,0.011586853162905857,0.09435184121830378,-0.11772845288972059,0.0,0.0,-0.6,0.0,0.0013911724090576172,0
2.631204843521118,-0.030222009867429733,0.003849901957437396,-0.5077083706855774,0.01840791463594637,-0.49585886906616783,0.02952533792582117,0.08561758018232131,-0.1176382845763916,0.0,0.0,-0.6,0.0,0.0054836273193359375,0
2.6431448459625244,-0.030222009867429733,0.003849901957437396,-0.5077083706855774,0.01840791463594637,-0.49585886906616783,0.02952533792582117,0.08561758018232131,-0.1176382845763916,0.0,0.0,-0.6,0.0,0.0015926361083984375,0
2.6518120765686035,-0.030041182413697243,0.0038960902020335197,-0.5079227089881897,0.01826306568451943,-0.4968027572586796,-0.008126903675929139,0.07218349733371186,-0.11678853127583609,0.0,0.0,-0.6,0.0,0.005255699157714844,0
2.664137125015259,-0.030041182413697243,0.0038960902020335197,-0.5079227089881897,0.01826306568451943,-0.4968027572586796,-0.008126903675929139,0.07218349733371186,-0.11678853127583609,0.0,0.0,-0.6,0.0,0.0011522769927978516,0
2.6719326972961426,-0.029744381085038185,0.0039392514154314995,-0.508109450340271,0.018032350591577775,-0.4971308437434536,-0.04100919939880616,0.05338124625194858,-0.1153863217008728,0.0,0.0,-0.6,0.0,0.0056264400482177734,0
2.685091495513916,-0.029744381085038185,0.0039392514154314995,-0.508109450340271,0.018032350591577775,-0.4971308437434536,-0.04100919939880616,0.05338124625194858,-0.1153863217008728,0.0,0.0,-0.6,0.0,0.0014367103576660156,0
2.6937217712402344,-0.029622381553053856,0.0038997335359454155,-0.5081424713134766,0.018032289427811914,-0.49747904408213084,-0.05372629033965511,0.06976888247857385,-0.11539487922839263,0.0,0.0,-0.6,0.0,0.005236625671386719,0
2.7069032192230225,-0.029400518164038658,0.0038356201257556677,-0.5081513524055481,0.017808930119179132,-0.4981767399216436,-0.03677349647320348,0.07080684131519618,-0.1139324549901779,0.0,0.0,-0.6,0.0,0.005121469497680664,0
2.7188045978546143,-0.029400518164038658,0.0038356201257556677,-0.5081513524055481,0.017808930119179132,-0.4981767399216436,-0.03677349647320348,0.07080684131519618,-0.1139324549901779,0.0,0.0,-0.6,0.0,0.0014233589172363281,0
2.728753089904785,-0.029169149696826935,0.003645852208137512,-0.5080860257148743,0.01764254031280108,-0.4984654306069288,-0.08087293783631998,0.07684827313007367,-0.1129392828624791,0.0,0.0,-0.6,0.0,0.004870176315307617,0
2.739957809448242,-0.029169149696826935,0.003645852208137512,-0.5080860257148743,0.01764254031280108,-0.4984654306069288,-0.08087293783631998,0.07684827313007367,-0.1129392828624791,0.0,0.0,-0.6,0.0,0.0012135505676269531,0
2.749284505844116,-0.0288943313062191,0.0033140527084469795,-0.5079531073570251,0.01731355102292142,-0.49867003242331,-0.0696894730484431,0.09238518516483397,-0.11079431103694456,0.0,0.0,-0.6,0.0,0.004958391189575195,0
2.760796070098877,-0.0288943313062191,0.0033140527084469795,-0.5079531073570251,0.01731355102292142,-0.49867003242331,-0.0696894730484431,0.09238518516483397,-0.11079431103694456,0.0,0.0,-0.6,0.0,0.0013051033020019531,0
2.7695748805999756,-0.028815511614084244,0.003147442126646638,-0.5078811645507812,0.017125193008932824,-0.49837353886478986,-0.06468541024721139,0.09774568618196933,-0.10957355801727678,0.0,0.0,-0.6,0.0,0.005203962326049805,0
2.7822022438049316,-0.028688635677099228,0.002826295793056488,-0.5077332258224487,0.016786405349996505,-0.49813829183636216,-0.048300323649874854,0.07330526164480972,-0.10739833298391586,0.0,0.0,-0.6,0.0,0.005258083343505859,0
