time,x,y,z,yaw,throttle,roll_rate,pitch_rate,yaw_rate,x_ref,y_ref,z_ref,yaw_ref,mpc_time,metadata
2.6226043701171875e-06,-0.06784292310476303,-0.23053203523159027,-0.23995627462863922,-0.04253101416182374,-0.6352876868338921,0.7999999999997316,-0.37763418313251124,0.301767871622909,0.0,0.0,-0.6,0.0,0.024407625198364258,Hardware
0.029892683029174805,-0.06784292310476303,-0.23053203523159027,-0.23995627462863922,-0.04253101416182374,-0.6352876868338921,0.7999999999997316,-0.37763418313251124,0.301767871622909,0.0,0.0,-0.6,0.0,0.0010721683502197266,Horizon:3.0
0.03857254981994629,-0.06788208335638046,-0.23046347498893738,-0.2398635298013687,-0.04249764420306674,-0.6352876868338927,0.7999999999997394,-0.38126150813575727,0.3017085847548366,0.0,0.0,-0.6,0.0,0.011295795440673828,Num Steps:20
0.05518841743469238,-0.06788208335638046,-0.23046347498893738,-0.2398635298013687,-0.04249764420306674,-0.6352876868338927,0.7999999999997394,-0.38126150813575727,0.3017085847548366,0.0,0.0,-0.6,0.0,0.0011196136474609375,No Pyjoules
0.06275820732116699,-0.06790894269943237,-0.2304396778345108,-0.23981648683547974,-0.04252664316228937,-0.6352876868338923,0.7999999999997317,-0.37858549512562834,0.3018361874235872,0.0,0.0,-0.6,0.0,0.011190176010131836,0
0.07980537414550781,-0.067924365401268,-0.23042306303977966,-0.23979532718658447,-0.042556003423312616,-0.6352876868338926,0.7999999999997361,-0.3800048279080175,0.30211622530842724,0.0,0.0,-0.6,0.0,0.011368989944458008,0
0.09719395637512207,-0.067924365401268,-0.23042306303977966,-0.23979532718658447,-0.042556003423312616,-0.6352876868338926,0.7999999999997361,-0.3800048279080175,0.30211622530842724,0.0,0.0,-0.6,0.0,0.0011098384857177734,0
0.10480499267578125,-0.06795746833086014,-0.23040638864040375,-0.23980574309825897,-0.04262483783801555,-0.63528768683389,0.7999999999997063,-0.37956493937118524,0.3028279766573483,0.0,0.0,-0.6,0.0,0.007839202880859375,0
0.11837124824523926,-0.06795746833086014,-0.23040638864040375,-0.23980574309825897,-0.04262483783801555,-0.63528768683389,0.7999999999997063,-0.37956493937118524,0.3028279766573483,0.0,0.0,-0.6,0.0,0.0011141300201416016,0
0.12835454940795898,-0.06794560700654984,-0.23039868474006653,-0.23987260460853577,-0.04114936207638981,-0.6352876868338915,0.7999999999997321,-0.35845272058986566,0.29202470705024247,0.0,0.0,-0.6,0.0,0.01387333869934082,0
0.14788198471069336,-0.06794560700654984,-0.23039868474006653,-0.23987260460853577,-0.04114936207638981,-0.6352876868338915,0.7999999999997321,-0.35845272058986566,0.29202470705024247,0.0,0.0,-0.6,0.0,0.0011262893676757812,0
0.15533232688903809,-0.06761489063501358,-0.23034019768238068,-0.24005255103111267,-0.040335187744137094,-0.6352876868338988,0.799999999999851,-0.26799775708693846,0.2803131946708456,0.0,0.0,-0.6,0.0,0.012881040573120117,0
0.17333602905273438,-0.06761489063501358,-0.23034019768238068,-0.24005255103111267,-0.040335187744137094,-0.6352876868338988,0.799999999999851,-0.26799775708693846,0.2803131946708456,0.0,0.0,-0.6,0.0,0.0010814666748046875,0
0.18076467514038086,-0.06644028425216675,-0.2298031896352768,-0.24084560573101044,-0.04031328432784899,-0.6352876868338956,0.7999999999998291,-0.061589049748450544,0.2693839304312346,0.0,0.0,-0.6,0.0,0.012981176376342773,0
0.19957733154296875,-0.06644028425216675,-0.2298031896352768,-0.24084560573101044,-0.04031328432784899,-0.6352876868338956,0.7999999999998291,-0.061589049748450544,0.2693839304312346,0.0,0.0,-0.6,0.0,0.0010907649993896484,0
0.20822453498840332,-0.06533191353082657,-0.22901469469070435,-0.2421196848154068,-0.03923906015558575,-0.6352876868338438,0.7999999999994222,0.04847561019323708,0.25802558841948864,0.0,0.0,-0.6,0.0,0.011954545974731445,0
0.22573161125183105,-0.06533191353082657,-0.22901469469070435,-0.2421196848154068,-0.03923906015558575,-0.6352876868338438,0.7999999999994222,0.04847561019323708,0.25802558841948864,0.0,0.0,-0.6,0.0,0.0010833740234375,0
0.23276281356811523,-0.06344328075647354,-0.22730140388011932,-0.24523867666721344,-0.03605117731130477,-0.6333628902736333,0.7999999999882432,0.2018713327917936,0.23440273234797743,0.0,0.0,-0.6,0.0,0.01145315170288086,0
0.249619722366333,-0.06344328075647354,-0.22730140388011932,-0.24523867666721344,-0.03605117731130477,-0.6333628902736333,0.7999999999882432,0.2018713327917936,0.23440273234797743,0.0,0.0,-0.6,0.0,0.0010914802551269531,0
0.25912022590637207,-0.06131085008382797,-0.22473452985286713,-0.24984121322631836,-0.03158082659578544,-0.6237128502082762,0.5482641068066995,0.26924398014587686,0.20548859847961048,0.0,0.0,-0.6,0.0,0.01138162612915039,0
0.2760457992553711,-0.06131085008382797,-0.22473452985286713,-0.24984121322631836,-0.03158082659578544,-0.6237128502082762,0.5482641068066995,0.26924398014587686,0.20548859847961048,0.0,0.0,-0.6,0.0,0.0011296272277832031,0
0.2829158306121826,-0.059627238661050797,-0.22235077619552612,-0.25421106815338135,-0.028406000248700467,-0.6141855677528284,0.3097102036128802,0.4663705604754908,0.1852096532236454,0.0,0.0,-0.6,0.0,0.010391473770141602,0
0.2997162342071533,-0.059627238661050797,-0.22235077619552612,-0.25421106815338135,-0.028406000248700467,-0.6141855677528284,0.3097102036128802,0.4663705604754908,0.1852096532236454,0.0,0.0,-0.6,0.0,0.0012078285217285156,0
0.30867505073547363,-0.057007815688848495,-0.21849201619625092,-0.2616555988788605,-0.02275650795105007,-0.6027412926836223,-0.004407945307594503,0.5720981183772087,0.14953319202437837,0.0,0.0,-0.6,0.0,0.009531974792480469,0
0.3238976001739502,-0.057007815688848495,-0.21849201619625092,-0.2616555988788605,-0.02275650795105007,-0.6027412926836223,-0.004407945307594503,0.5720981183772087,0.14953319202437837,0.0,0.0,-0.6,0.0,0.0011398792266845703,0
0.33153557777404785,-0.05498376116156578,-0.21531645953655243,-0.26819828152656555,-0.018817024172289185,-0.5929006471244993,-0.23361002373663248,0.7490340347486467,0.12487393052983017,0.0,0.0,-0.6,0.0,0.009613513946533203,0
0.3472249507904053,-0.05313703045248985,-0.21217948198318481,-0.27452123165130615,-0.013940585926267334,-0.5860373340974211,-0.4854257053386851,0.7999999995484222,0.0944866061518416,0.0,0.0,-0.6,0.0,0.010838508605957031,0
0.3634669780731201,-0.05313703045248985,-0.21217948198318481,-0.27452123165130615,-0.013940585926267334,-0.5860373340974211,-0.4854257053386851,0.7999999995484222,0.0944866061518416,0.0,0.0,-0.6,0.0,0.0011250972747802734,0
0.37117958068847656,-0.05012990161776543,-0.20654897391796112,-0.2855378985404968,-0.0061238083322784345,-0.574846908619445,-0.7999976542187518,0.7999999988469415,0.04759386385542294,0.0,0.0,-0.6,0.0,0.009752035140991211,0
0.38639211654663086,-0.05012990161776543,-0.20654897391796112,-0.2855378985404968,-0.0061238083322784345,-0.574846908619445,-0.7999976542187518,0.7999999988469415,0.04759386385542294,0.0,0.0,-0.6,0.0,0.0011126995086669922,0
0.393413782119751,-0.04797031730413437,-0.20212195813655853,-0.2943142056465149,-0.00010863989628731322,-0.5645391004018597,-0.7999999999728787,0.7999999998011583,0.015237635992468837,0.0,0.0,-0.6,0.0,0.011159420013427734,0
0.4112420082092285,-0.04797031730413437,-0.20212195813655853,-0.2943142056465149,-0.00010863989628731322,-0.5645391004018597,-0.7999999999728787,0.7999999998011583,0.015237635992468837,0.0,0.0,-0.6,0.0,0.0011334419250488281,0
0.41846418380737305,-0.044787973165512085,-0.19495020806789398,-0.3084616959095001,0.010556754987258327,-0.5507551763506953,-0.8,0.7999999999999996,-0.04574588459348912,0.0,0.0,-0.6,0.0,0.01081395149230957,0
0.43518948554992676,-0.044787973165512085,-0.19495020806789398,-0.3084616959095001,0.010556754987258327,-0.5507551763506953,-0.8,0.7999999999999996,-0.04574588459348912,0.0,0.0,-0.6,0.0,0.0010685920715332031,0
0.4421398639678955,-0.042703963816165924,-0.1898152381181717,-0.31843802332878113,0.018128307804641898,-0.5443215890135934,-0.7999999999814725,0.7999999988598815,-0.0899951871465001,0.0,0.0,-0.6,0.0,0.010077714920043945,0
0.4582095146179199,-0.042703963816165924,-0.1898152381181717,-0.31843802332878113,0.018128307804641898,-0.5443215890135934,-0.7999999999814725,0.7999999988598815,-0.0899951871465001,0.0,0.0,-0.6,0.0,0.0010614395141601562,0
0.46865415573120117,-0.0395972803235054,-0.18174958229064941,-0.33388838171958923,0.030159128012852237,-0.5390635149980317,-0.7999999994957664,0.7580530650456369,-0.1709332777196259,0.0,0.0,-0.6,0.0,0.014918088912963867,0
0.48920249938964844,-0.0395972803235054,-0.18174958229064941,-0.33388838171958923,0.030159128012852237,-0.5390635149980317,-0.7999999994957664,0.7580530650456369,-0.1709332777196259,0.0,0.0,-0.6,0.0,0.0010972023010253906,0
0.49891233444213867,-0.03657906502485275,-0.17328627407550812,-0.34939631819725037,0.041756098553045524,-0.5357646685127424,-0.79999999996026,0.6024097925828126,-0.2499571149450757,0.0,0.0,-0.6,0.0,0.01374363899230957,0
0.5186455249786377,-0.03657906502485275,-0.17328627407550812,-0.34939631819725037,0.041756098553045524,-0.5357646685127424,-0.79999999996026,0.6024097925828126,-0.2499571149450757,0.0,0.0,-0.6,0.0,0.0010900497436523438,0
0.5286550521850586,-0.03370324894785881,-0.16433067619800568,-0.36464911699295044,0.05260376914228368,-0.5328170128070641,-0.7999999999986949,0.43975546423955714,-0.3249767073164977,0.0,0.0,-0.6,0.0,0.011356592178344727,0
0.5454351902008057,-0.03370324894785881,-0.16433067619800568,-0.36464911699295044,0.05260376914228368,-0.5328170128070641,-0.7999999999986949,0.43975546423955714,-0.3249767073164977,0.0,0.0,-0.6,0.0,0.0010914802551269531,0
0.5528042316436768,-0.0319390669465065,-0.1579860895872116,-0.37461403012275696,0.0596545851057774,-0.5325527454102188,-0.7999999979414802,0.26063036188395877,-0.37652393643379656,0.0,0.0,-0.6,0.0,0.009616613388061523,0
0.5679547786712646,-0.0319390669465065,-0.1579860895872116,-0.37461403012275696,0.0596545851057774,-0.5325527454102188,-0.7999999979414802,0.26063036188395877,-0.37652393643379656,0.0,0.0,-0.6,0.0,0.0011105537414550781,0
0.5782608985900879,-0.029429929330945015,-0.14828793704509735,-0.38895416259765625,0.06822856676714853,-0.5336175134793262,-0.7999999999934707,0.05799606556238486,-0.4334001610417363,0.0,0.0,-0.6,0.0,0.009667396545410156,0
0.5933642387390137,-0.029429929330945015,-0.14828793704509735,-0.38895416259765625,0.06822856676714853,-0.5336175134793262,-0.7999999999934707,0.05799606556238486,-0.4334001610417363,0.0,0.0,-0.6,0.0,0.001219034194946289,0
0.6015770435333252,-0.02787954919040203,-0.14173418283462524,-0.39817601442337036,0.07258123031633588,-0.5324658928301597,-0.7999999999980482,-0.050108470245311516,-0.46153210272635264,0.0,0.0,-0.6,0.0,0.009774208068847656,0
0.6168100833892822,-0.02787954919040203,-0.14173418283462524,-0.39817601442337036,0.07258123031633588,-0.5324658928301597,-0.7999999999980482,-0.050108470245311516,-0.46153210272635264,0.0,0.0,-0.6,0.0,0.0010752677917480469,0
0.6243007183074951,-0.026219859719276428,-0.1343466341495514,-0.40825286507606506,0.07645867232012615,-0.5321152732295699,-0.7999979238866799,-0.2051009874182162,-0.48760471302665687,0.0,0.0,-0.6,0.0,0.009678840637207031,0
0.6393332481384277,-0.026219859719276428,-0.1343466341495514,-0.40825286507606506,0.07645867232012615,-0.5321152732295699,-0.7999979238866799,-0.2051009874182162,-0.48760471302665687,0.0,0.0,-0.6,0.0,0.0011010169982910156,0
0.6482870578765869,-0.024616271257400513,-0.12699566781520844,-0.4179336726665497,0.07939274964326114,-0.5328466497095465,-0.6802953217723176,-0.26670538311897446,-0.5061838362207802,0.0,0.0,-0.6,0.0,0.008980035781860352,0
0.6624875068664551,-0.024616271257400513,-0.12699566781520844,-0.4179336726665497,0.07939274964326114,-0.5328466497095465,-0.6802953217723176,-0.26670538311897446,-0.5061838362207802,0.0,0.0,-0.6,0.0,0.0010981559753417969,0
0.6699886322021484,-0.02331128530204296,-0.12071653455495834,-0.42622366547584534,0.08095726155835196,-0.5314008336913504,-0.49806000380797305,-0.334457815761654,-0.5162076163325386,0.0,0.0,-0.6,0.0,0.009091854095458984,0
0.684657096862793,-0.02331128530204296,-0.12071653455495834,-0.42622366547584534,0.08095726155835196,-0.5314008336913504,-0.49806000380797305,-0.334457815761654,-0.5162076163325386,0.0,0.0,-0.6,0.0,0.0010876655578613281,0
0.6919283866882324,-0.02189188450574875,-0.11250650137662888,-0.43719369173049927,0.08244171406636325,-0.5309014208588115,-0.19531240659865423,-0.37782545236626575,-0.525876759280816,0.0,0.0,-0.6,0.0,0.008569955825805664,0
0.7065174579620361,-0.02189188450574875,-0.11250650137662888,-0.43719369173049927,0.08244171406636325,-0.5309014208588115,-0.19531240659865423,-0.37782545236626575,-0.525876759280816,0.0,0.0,-0.6,0.0,0.0010869503021240234,0
0.7140026092529297,-0.0209690872579813,-0.10678832232952118,-0.4449053108692169,0.08301565977336728,-0.5303517542592252,-0.01591688327193953,-0.41490598820405006,-0.5295432243886672,0.0,0.0,-0.6,0.0,0.008802175521850586,0
0.7281606197357178,-0.0209690872579813,-0.10678832232952118,-0.4449053108692169,0.08301565977336728,-0.5303517542592252,-0.01591688327193953,-0.41490598820405006,-0.5295432243886672,0.0,0.0,-0.6,0.0,0.001102447509765625,0
0.73836350440979,-0.01993820071220398,-0.09933219105005264,-0.4552152156829834,0.08364674694102553,-0.5305479944938519,0.19183754268226258,-0.44285274445333916,-0.5333234044874855,0.0,0.0,-0.6,0.0,0.008536100387573242,0
0.7522761821746826,-0.01993820071220398,-0.09933219105005264,-0.4552152156829834,0.08364674694102553,-0.5305479944938519,0.19183754268226258,-0.44285274445333916,-0.5333234044874855,0.0,0.0,-0.6,0.0,0.0010859966278076172,0
0.7598798274993896,-0.019562039524316788,-0.09600060433149338,-0.459787517786026,0.08379497105858819,-0.5301827988330374,0.2879927043913877,-0.4217896080373804,-0.5342798318900234,0.0,0.0,-0.6,0.0,0.007131099700927734,0
0.772169828414917,-0.019562039524316788,-0.09600060433149338,-0.459787517786026,0.08379497105858819,-0.5301827988330374,0.2879927043913877,-0.4217896080373804,-0.5342798318900234,0.0,0.0,-0.6,0.0,0.0010724067687988281,0
0.77923583984375,-0.019106434658169746,-0.09095297008752823,-0.46689486503601074,0.08410207628902698,-0.5292924177296434,0.4229839716038213,-0.38915175968707977,-0.5363566496237514,0.0,0.0,-0.6,0.0,0.007454395294189453,0
0.7925219535827637,-0.019106434658169746,-0.09095297008752823,-0.46689486503601074,0.08410207628902698,-0.5292924177296434,0.4229839716038213,-0.38915175968707977,-0.5363566496237514,0.0,0.0,-0.6,0.0,0.0011289119720458984,0
0.8000979423522949,-0.01876143552362919,-0.08451379835605621,-0.4763137400150299,0.08446571079750036,-0.5294057651992158,0.5920237273342942,-0.33408330600943725,-0.5387511673211959,0.0,0.0,-0.6,0.0,0.008529186248779297,0
0.8146519660949707,-0.01876143552362919,-0.08451379835605621,-0.4763137400150299,0.08446571079750036,-0.5294057651992158,0.5920237273342942,-0.33408330600943725,-0.5387511673211959,0.0,0.0,-0.6,0.0,0.0010733604431152344,0
0.8216934204101562,-0.018627433106303215,-0.08018270134925842,-0.48292407393455505,0.08437951519140684,-0.529273238412972,0.6395546219269322,-0.28556514137357447,-0.5381799119778774,0.0,0.0,-0.6,0.0,0.007208824157714844,0
0.8343417644500732,-0.018627433106303215,-0.08018270134925842,-0.48292407393455505,0.08437951519140684,-0.529273238412972,0.6395546219269322,-0.28556514137357447,-0.5381799119778774,0.0,0.0,-0.6,0.0,0.0010623931884765625,0
0.842043399810791,-0.0186049472540617,-0.07674933224916458,-0.4884859621524811,0.08423075057009037,-0.5283196478730815,0.6889534970359027,-0.22560709236222884,-0.5372701063689422,0.0,0.0,-0.6,0.0,0.007299900054931641,0
0.8547577857971191,-0.0186049472540617,-0.07674933224916458,-0.4884859621524811,0.08423075057009037,-0.5283196478730815,0.6889534970359027,-0.22560709236222884,-0.5372701063689422,0.0,0.0,-0.6,0.0,0.0010557174682617188,0
0.8617000579833984,-0.0186377614736557,-0.0730871930718422,-0.49474456906318665,0.08388097730848104,-0.5285928178856137,0.7518313407986593,-0.1556149276686277,-0.5350745887242543,0.0,0.0,-0.6,0.0,0.009304285049438477,0
0.8770833015441895,-0.0186377614736557,-0.0730871930718422,-0.49474456906318665,0.08388097730848104,-0.5285928178856137,0.7518313407986593,-0.1556149276686277,-0.5350745887242543,0.0,0.0,-0.6,0.0,0.0011036396026611328,0
0.884185791015625,-0.01881260611116886,-0.0697283074259758,-0.5008395314216614,0.08319372722239467,-0.5282367042392595,0.7821046595400402,-0.11702701476825872,-0.5305136542113399,0.0,0.0,-0.6,0.0,0.009559869766235352,0
0.9002828598022461,-0.01881260611116886,-0.0697283074259758,-0.5008395314216614,0.08319372722239467,-0.5282367042392595,0.7821046595400402,-0.11702701476825872,-0.5305136542113399,0.0,0.0,-0.6,0.0,0.0011286735534667969,0
0.9094581604003906,-0.01920459233224392,-0.06533876806497574,-0.5095815658569336,0.08163451224107192,-0.5278462788890216,0.741352344624333,-0.021477529417754184,-0.5206017828622789,0.0,0.0,-0.6,0.0,0.009596109390258789,0
0.9245119094848633,-0.01920459233224392,-0.06533876806497574,-0.5095815658569336,0.08163451224107192,-0.5278462788890216,0.741352344624333,-0.021477529417754184,-0.5206017828622789,0.0,0.0,-0.6,0.0,0.0011212825775146484,0
0.9313759803771973,-0.019556086510419846,-0.06275412440299988,-0.5152486562728882,0.08013754149042583,-0.5279906036327269,0.6664318954549107,0.02887001388695274,-0.5110755378335532,0.0,0.0,-0.6,0.0,0.007405519485473633,0
0.9447827339172363,-0.019556086510419846,-0.06275412440299988,-0.5152486562728882,0.08013754149042583,-0.5279906036327269,0.6664318954549107,0.02887001388695274,-0.5110755378335532,0.0,0.0,-0.6,0.0,0.0010800361633300781,0
0.9517490863800049,-0.01990652270615101,-0.06038111820816994,-0.5207325220108032,0.07843606606367287,-0.5293964607728266,0.5977069395436814,0.06262558397268758,-0.500256564580175,0.0,0.0,-0.6,0.0,0.007177591323852539,0
0.9650802612304688,-0.01990652270615101,-0.06038111820816994,-0.5207325220108032,0.07843606606367287,-0.5293964607728266,0.5977069395436814,0.06262558397268758,-0.500256564580175,0.0,0.0,-0.6,0.0,0.0010693073272705078,0
0.9723870754241943,-0.020300723612308502,-0.058190468698740005,-0.5259965062141418,0.0762837947698379,-0.5291691765920273,0.49443385077799623,0.11424649324331738,-0.48670422562653004,0.0,0.0,-0.6,0.0,0.0073316097259521484,0
0.9850282669067383,-0.020300723612308502,-0.058190468698740005,-0.5259965062141418,0.0762837947698379,-0.5291691765920273,0.49443385077799623,0.11424649324331738,-0.48670422562653004,0.0,0.0,-0.6,0.0,0.0011150836944580078,0
0.9921000003814697,-0.020681947469711304,-0.05623052641749382,-0.5308964848518372,0.0740398204699982,-0.5314667418003209,0.400138489948115,0.12829205455126033,-0.47241468128015096,0.0,0.0,-0.6,0.0,0.007115840911865234,0
1.0056898593902588,-0.020681947469711304,-0.05623052641749382,-0.5308964848518372,0.0740398204699982,-0.5314667418003209,0.400138489948115,0.12829205455126033,-0.47241468128015096,0.0,0.0,-0.6,0.0,0.001102447509765625,0
1.01279616355896,-0.021078232675790787,-0.054449018090963364,-0.5355484485626221,0.07162865088546784,-0.5318805801955353,0.3024818234962933,0.13141068576878123,-0.45713053859850256,0.0,0.0,-0.6,0.0,0.0071909427642822266,0
1.0259885787963867,-0.021078232675790787,-0.054449018090963364,-0.5355484485626221,0.07162865088546784,-0.5318805801955353,0.3024818234962933,0.13141068576878123,-0.45713053859850256,0.0,0.0,-0.6,0.0,0.0010526180267333984,0
1.0334160327911377,-0.02145560458302498,-0.05290655046701431,-0.5399240851402283,0.06908451191110906,-0.5338344042048936,0.1661392708415121,0.12799990133115915,-0.4411009951706488,0.0,0.0,-0.6,0.0,0.007173776626586914,0
1.0464327335357666,-0.02145560458302498,-0.05290655046701431,-0.5399240851402283,0.06908451191110906,-0.5338344042048936,0.1661392708415121,0.12799990133115915,-0.4411009951706488,0.0,0.0,-0.6,0.0,0.0010640621185302734,0
1.0532691478729248,-0.021799756214022636,-0.05145752802491188,-0.5440817475318909,0.06661234979630744,-0.5339427309140319,0.08473691606969241,0.21420828715535273,-0.42546400755973324,0.0,0.0,-0.6,0.0,0.006997585296630859,0
1.065997838973999,-0.021799756214022636,-0.05145752802491188,-0.5440817475318909,0.06661234979630744,-0.5339427309140319,0.08473691606969241,0.21420828715535273,-0.42546400755973324,0.0,0.0,-0.6,0.0,0.00107574462890625,0
1.0733566284179688,-0.022081634029746056,-0.050180114805698395,-0.5480110049247742,0.06399957467270732,-0.53497750782234,-0.005163316957146733,0.18469048455564835,-0.40889890228834214,0.0,0.0,-0.6,0.0,0.0070569515228271484,0
1.0860204696655273,-0.022081634029746056,-0.050180114805698395,-0.5480110049247742,0.06399957467270732,-0.53497750782234,-0.005163316957146733,0.18469048455564835,-0.40889890228834214,0.0,0.0,-0.6,0.0,0.0010793209075927734,0
1.0936253070831299,-0.02239932492375374,-0.0488312803208828,-0.5521841049194336,0.06108864515770174,-0.53702208099,-0.10817422826988567,0.15677393859818486,-0.39050662350315274,0.0,0.0,-0.6,0.0,0.0072863101959228516,0
1.10699462890625,-0.02239932492375374,-0.0488312803208828,-0.5521841049194336,0.06108864515770174,-0.53702208099,-0.10817422826988567,0.15677393859818486,-0.39050662350315274,0.0,0.0,-0.6,0.0,0.0010807514190673828,0
1.1143386363983154,-0.022593475878238678,-0.047691889107227325,-0.5556433200836182,0.059204958935372795,-0.5379843556600158,-0.2208601547304599,0.17127976015996413,-0.3786784484176127,0.0,0.0,-0.6,0.0,0.0073053836822509766,0
1.1272680759429932,-0.022593475878238678,-0.047691889107227325,-0.5556433200836182,0.059204958935372795,-0.5379843556600158,-0.2208601547304599,0.17127976015996413,-0.3786784484176127,0.0,0.0,-0.6,0.0,0.001081705093383789,0
1.1347293853759766,-0.022753121331334114,-0.04650965332984924,-0.559314489364624,0.05682176175427006,-0.537603424623951,-0.24202151642171885,0.1430090347611727,-0.36348239961004974,0.0,0.0,-0.6,0.0,0.007481813430786133,0
1.1473302841186523,-0.022753121331334114,-0.04650965332984924,-0.559314489364624,0.05682176175427006,-0.537603424623951,-0.24202151642171885,0.1430090347611727,-0.36348239961004974,0.0,0.0,-0.6,0.0,0.0010995864868164062,0
1.1547729969024658,-0.022841405123472214,-0.0455281063914299,-0.5624068975448608,0.05508228051522529,-0.5388253371904196,-0.2315397697485827,0.13915730928115536,-0.3523082099245091,0.0,0.0,-0.6,0.0,0.00722503662109375,0
1.167511224746704,-0.022841405123472214,-0.0455281063914299,-0.5624068975448608,0.05508228051522529,-0.5388253371904196,-0.2315397697485827,0.13915730928115536,-0.3523082099245091,0.0,0.0,-0.6,0.0,0.0010464191436767578,0
1.1743934154510498,-0.022877654060721397,-0.04470408707857132,-0.5649760365486145,0.05331561506294073,-0.5390206265070676,-0.25758673831332846,0.14509193169198703,-0.34102469519573536,0.0,0.0,-0.6,0.0,0.007218837738037109,0
1.1873979568481445,-0.022877654060721397,-0.04470408707857132,-0.5649760365486145,0.05331561506294073,-0.5390206265070676,-0.25758673831332846,0.14509193169198703,-0.34102469519573536,0.0,0.0,-0.6,0.0,0.001064300537109375,0
1.1944301128387451,-0.02286740578711033,-0.043658215552568436,-0.568103551864624,0.05128928164563378,-0.5398033617054886,-0.2635272124292178,0.12126848092644245,-0.3281286519642746,0.0,0.0,-0.6,0.0,0.005704402923583984,0
1.20587158203125,-0.02286740578711033,-0.043658215552568436,-0.568103551864624,0.05128928164563378,-0.5398033617054886,-0.2635272124292178,0.12126848092644245,-0.3281286519642746,0.0,0.0,-0.6,0.0,0.0011081695556640625,0
1.213244915008545,-0.022846564650535583,-0.04318544641137123,-0.5694423913955688,0.050560353666269583,-0.5400939523700591,-0.2893588871951202,0.10101574409871472,-0.32356902038158813,0.0,0.0,-0.6,0.0,0.00716710090637207,0
1.2260007858276367,-0.022846564650535583,-0.04318544641137123,-0.5694423913955688,0.050560353666269583,-0.5400939523700591,-0.2893588871951202,0.10101574409871472,-0.32356902038158813,0.0,0.0,-0.6,0.0,0.0010890960693359375,0
1.233130693435669,-0.022776983678340912,-0.04177140071988106,-0.5729186534881592,0.048380873320561686,-0.5404090238484818,-0.23866478333954802,0.11121067851860438,-0.30949206490750303,0.0,0.0,-0.6,0.0,0.007007598876953125,0
1.246048927307129,-0.022776983678340912,-0.04177140071988106,-0.5729186534881592,0.048380873320561686,-0.5404090238484818,-0.23866478333954802,0.11121067851860438,-0.30949206490750303,0.0,0.0,-0.6,0.0,0.0010745525360107422,0
1.2531497478485107,-0.022706175222992897,-0.040659770369529724,-0.5752900838851929,0.04717062364360417,-0.5400647961422577,-0.25087381601971953,0.10297636915065074,-0.30178650991359474,0.0,0.0,-0.6,0.0,0.007279634475708008,0
1.2663891315460205,-0.022706175222992897,-0.040659770369529724,-0.5752900838851929,0.04717062364360417,-0.5400647961422577,-0.25087381601971953,0.10297636915065074,-0.30178650991359474,0.0,0.0,-0.6,0.0,0.0011017322540283203,0
1.273413896560669,-0.02259051240980625,-0.03958834707736969,-0.5773139595985413,0.045871360478176644,-0.540504829585192,-0.23018708291450984,0.09046688373637515,-0.293466084996621,0.0,0.0,-0.6,0.0,0.005617618560791016,0
1.2849376201629639,-0.02259051240980625,-0.03958834707736969,-0.5773139595985413,0.045871360478176644,-0.540504829585192,-0.23018708291450984,0.09046688373637515,-0.293466084996621,0.0,0.0,-0.6,0.0,0.0010576248168945312,0
1.2918970584869385,-0.02247725799679756,-0.03838987648487091,-0.5794521570205688,0.044780114638500096,-0.5412375673942631,-0.1999025304293587,0.08340662222076826,-0.28645104260752113,0.0,0.0,-0.6,0.0,0.005919694900512695,0
1.3036601543426514,-0.02247725799679756,-0.03838987648487091,-0.5794521570205688,0.044780114638500096,-0.5412375673942631,-0.1999025304293587,0.08340662222076826,-0.28645104260752113,0.0,0.0,-0.6,0.0,0.0011112689971923828,0
1.3113129138946533,-0.022363990545272827,-0.03702414035797119,-0.5814002156257629,0.0437923799844046,-0.5429557659024932,-0.18259434720098475,0.04465560352801246,-0.28016436048009136,0.0,0.0,-0.6,0.0,0.005902528762817383,0
1.322495698928833,-0.022363990545272827,-0.03702414035797119,-0.5814002156257629,0.0437923799844046,-0.5429557659024932,-0.18259434720098475,0.04465560352801246,-0.28016436048009136,0.0,0.0,-0.6,0.0,0.0011365413665771484,0
1.3299651145935059,-0.022197261452674866,-0.035608164966106415,-0.5832273960113525,0.043004878599302264,-0.5435457753153816,-0.14990248480051446,0.0038862527652493255,-0.2751244881087664,0.0,0.0,-0.6,0.0,0.005950212478637695,0
1.3411939144134521,-0.022197261452674866,-0.035608164966106415,-0.5832273960113525,0.043004878599302264,-0.5435457753153816,-0.14990248480051446,0.0038862527652493255,-0.2751244881087664,0.0,0.0,-0.6,0.0,0.001104116439819336,0
1.3486518859863281,-0.02211962640285492,-0.03489139303565025,-0.5840786695480347,0.042632673340217524,-0.544464506562843,-0.15342784491210074,0.008145890752777687,-0.2727356334434491,0.0,0.0,-0.6,0.0,0.0057888031005859375,0
1.3606224060058594,-0.02196727879345417,-0.0334625206887722,-0.5856356620788574,0.04185839157732246,-0.5449612541151675,-0.14997160664778952,0.002151915465080926,-0.2677710310839739,0.0,0.0,-0.6,0.0,0.005817890167236328,0
1.372087001800537,-0.02196727879345417,-0.0334625206887722,-0.5856356620788574,0.04185839157732246,-0.5449612541151675,-0.14997160664778952,0.002151915465080926,-0.2677710310839739,0.0,0.0,-0.6,0.0,0.0011501312255859375,0
1.3792216777801514,-0.021891407668590546,-0.03278835490345955,-0.5863919854164124,0.04152241975364281,-0.5443224005653817,-0.13591052054792732,0.014334280623840416,-0.2655946651026063,0.0,0.0,-0.6,0.0,0.005644559860229492,0
1.3906993865966797,-0.021814463660120964,-0.03208603337407112,-0.5871096253395081,0.04122736432855344,-0.544139622004745,-0.12224395231970066,0.0047261817301250475,-0.2636952347477864,0.0,0.0,-0.6,0.0,0.005669116973876953,0
1.4033198356628418,-0.02164451591670513,-0.03066847287118435,-0.5884835720062256,0.04051471386893367,-0.5442982329857838,-0.03848968768340915,0.010713218176132631,-0.2590462839376372,0.0,0.0,-0.6,0.0,0.005940675735473633,0
1.414548397064209,-0.02164451591670513,-0.03066847287118435,-0.5884835720062256,0.04051471386893367,-0.5442982329857838,-0.03848968768340915,0.010713218176132631,-0.2590462839376372,0.0,0.0,-0.6,0.0,0.0010690689086914062,0
1.421985387802124,-0.021462393924593925,-0.0292395930737257,-0.5897645950317383,0.03996657462876704,-0.5450536078322403,0.03299384881564228,-0.006941976768525282,-0.2554680789881759,0.0,0.0,-0.6,0.0,0.005860090255737305,0
1.4332191944122314,-0.021462393924593925,-0.0292395930737257,-0.5897645950317383,0.03996657462876704,-0.5450536078322403,0.03299384881564228,-0.006941976768525282,-0.2554680789881759,0.0,0.0,-0.6,0.0,0.0010592937469482422,0
1.440843105316162,-0.02129216119647026,-0.02774445153772831,-0.5909616947174072,0.03962625055800997,-0.5462718056887483,-0.016537254146748573,-0.01851014296580056,-0.25333374841199835,0.0,0.0,-0.6,0.0,0.006022930145263672,0
1.4522161483764648,-0.02129216119647026,-0.02774445153772831,-0.5909616947174072,0.03962625055800997,-0.5462718056887483,-0.016537254146748573,-0.01851014296580056,-0.25333374841199835,0.0,0.0,-0.6,0.0,0.0011320114135742188,0
1.4598476886749268,-0.021139154210686684,-0.02624700218439102,-0.5920727849006653,0.0393614194619413,-0.5463713188198983,-0.027297370987659053,-0.008276782325501032,-0.25165070704868303,0.0,0.0,-0.6,0.0,0.005975961685180664,0
1.4710259437561035,-0.021139154210686684,-0.02624700218439102,-0.5920727849006653,0.0393614194619413,-0.5463713188198983,-0.027297370987659053,-0.008276782325501032,-0.25165070704868303,0.0,0.0,-0.6,0.0,0.0010290145874023438,0
1.4784750938415527,-0.021091189235448837,-0.025522179901599884,-0.5925883054733276,0.03932308668815511,-0.5464942537956481,-0.02406063454317069,-0.004017160922253306,-0.2514026321038267,0.0,0.0,-0.6,0.0,0.005788564682006836,0
1.489881992340088,-0.021091189235448837,-0.025522179901599884,-0.5925883054733276,0.03932308668815511,-0.5464942537956481,-0.02406063454317069,-0.004017160922253306,-0.2514026321038267,0.0,0.0,-0.6,0.0,0.0010724067687988281,0
1.4995014667510986,-0.020944276824593544,-0.023329906165599823,-0.5940042734146118,0.03908893425774133,-0.5475068480722836,0.009414453707849687,-0.041642862474562066,-0.24985812772613816,0.0,0.0,-0.6,0.0,0.005858421325683594,0
1.510591745376587,-0.020944276824593544,-0.023329906165599823,-0.5940042734146118,0.03908893425774133,-0.5475068480722836,0.009414453707849687,-0.041642862474562066,-0.24985812772613816,0.0,0.0,-0.6,0.0,0.0010747909545898438,0
1.5191261768341064,-0.020909344777464867,-0.022620320320129395,-0.5944320559501648,0.039125901910367133,-0.5475544197466522,0.016208133094777467,-0.07069408029812965,-0.25007560836240195,0.0,0.0,-0.6,0.0,0.005837440490722656,0
1.5304954051971436,-0.020909344777464867,-0.022620320320129395,-0.5944320559501648,0.039125901910367133,-0.5475544197466522,0.016208133094777467,-0.07069408029812965,-0.25007560836240195,0.0,0.0,-0.6,0.0,0.0010952949523925781,0
1.5393643379211426,-0.0208405964076519,-0.021224167197942734,-0.5952344536781311,0.03924756092089084,-0.5479420232447904,0.021800894417850682,-0.05103574765875631,-0.2508559708321335,0.0,0.0,-0.6,0.0,0.005956172943115234,0
1.5510854721069336,-0.02078501135110855,-0.01992909051477909,-0.5959625244140625,0.03921779868505577,-0.5483851599918462,0.03519354303014028,0.0014072191439514603,-0.2506755736980463,0.0,0.0,-0.6,0.0,0.005893230438232422,0
1.5622291564941406,-0.02078501135110855,-0.01992909051477909,-0.5959625244140625,0.03921779868505577,-0.5483851599918462,0.03519354303014028,0.0014072191439514603,-0.2506755736980463,0.0,0.0,-0.6,0.0,0.0010530948638916016,0
1.569918155670166,-0.020789019763469696,-0.019315049052238464,-0.5963017344474792,0.03920325843279362,-0.5481709859060956,0.051682064982224614,0.0009123456148254341,-0.25056261043862404,0.0,0.0,-0.6,0.0,0.0058515071868896484,0
1.5810542106628418,-0.020789019763469696,-0.019315049052238464,-0.5963017344474792,0.03920325843279362,-0.5481709859060956,0.051682064982224614,0.0009123456148254341,-0.25056261043862404,0.0,0.0,-0.6,0.0,0.0010578632354736328,0
1.5885167121887207,-0.020863249897956848,-0.01809454895555973,-0.5970139503479004,0.0393655273101645,-0.5486283838274558,0.09272756954268854,-0.05430477435080992,-0.2515273649224247,0.0,0.0,-0.6,0.0,0.005804538726806641,0
1.6002833843231201,-0.020863249897956848,-0.01809454895555973,-0.5970139503479004,0.0393655273101645,-0.5486283838274558,0.09272756954268854,-0.05430477435080992,-0.2515273649224247,0.0,0.0,-0.6,0.0,0.0010995864868164062,0
1.6084685325622559,-0.020944003015756607,-0.01696915552020073,-0.5976849794387817,0.03939174153258015,-0.5489644241313191,0.04331072423606713,-0.009391729164485873,-0.2517727406052342,0.0,0.0,-0.6,0.0,0.005948066711425781,0
1.6196000576019287,-0.020944003015756607,-0.01696915552020073,-0.5976849794387817,0.03939174153258015,-0.5489644241313191,0.04331072423606713,-0.009391729164485873,-0.2517727406052342,0.0,0.0,-0.6,0.0,0.0010898113250732422,0
1.6282966136932373,-0.021044008433818817,-0.015933366492390633,-0.5982532501220703,0.039531692653749506,-0.5485904705874245,0.06697170451176929,-0.03785666544427507,-0.252634291826257,0.0,0.0,-0.6,0.0,0.00604557991027832,0
1.6398875713348389,-0.021044008433818817,-0.015933366492390633,-0.5982532501220703,0.039531692653749506,-0.5485904705874245,0.06697170451176929,-0.03785666544427507,-0.252634291826257,0.0,0.0,-0.6,0.0,0.0011098384857177734,0
1.648245096206665,-0.02114456705749035,-0.015035359188914299,-0.5986995697021484,0.039708648900362215,-0.5490196754355762,0.042210363685328614,-0.03012074706949349,-0.2538032898506292,0.0,0.0,-0.6,0.0,0.00570225715637207,0
1.6591460704803467,-0.02114456705749035,-0.015035359188914299,-0.5986995697021484,0.039708648900362215,-0.5490196754355762,0.042210363685328614,-0.03012074706949349,-0.2538032898506292,0.0,0.0,-0.6,0.0,0.0010712146759033203,0
1.6682720184326172,-0.02128867246210575,-0.014106584712862968,-0.5991184115409851,0.04008831894476953,-0.5502274670209176,0.027248848026274,-0.08352330106003149,-0.256255369884231,0.0,0.0,-0.6,0.0,0.005949974060058594,0
1.6793479919433594,-0.02128867246210575,-0.014106584712862968,-0.5991184115409851,0.04008831894476953,-0.5502274670209176,0.027248848026274,-0.08352330106003149,-0.256255369884231,0.0,0.0,-0.6,0.0,0.0010781288146972656,0
1.6884827613830566,-0.02162187173962593,-0.01288905180990696,-0.5995508432388306,0.04076177090998055,-0.5514442795871253,0.021251467666118337,-0.06552158775022593,-0.26058624737765934,0.0,0.0,-0.6,0.0,0.005810976028442383,0
1.7006824016571045,-0.02162187173962593,-0.01288905180990696,-0.5995508432388306,0.04076177090998055,-0.5514442795871253,0.021251467666118337,-0.06552158775022593,-0.26058624737765934,0.0,0.0,-0.6,0.0,0.001058816909790039,0
1.7084767818450928,-0.021740246564149857,-0.012509243562817574,-0.5996760725975037,0.04088692285288569,-0.5513771916498242,0.021966317869755867,-0.035973300055855195,-0.261386298168248,0.0,0.0,-0.6,0.0,0.005798816680908203,0
1.7197365760803223,-0.021740246564149857,-0.012509243562817574,-0.5996760725975037,0.04088692285288569,-0.5513771916498242,0.021966317869755867,-0.035973300055855195,-0.261386298168248,0.0,0.0,-0.6,0.0,0.00115203857421875,0
1.7281968593597412,-0.02203727513551712,-0.011518044397234917,-0.5999230742454529,0.04120026633686409,-0.551633639383489,-0.0026324230695732704,-0.020871797708543544,-0.2634278152133978,0.0,0.0,-0.6,0.0,0.005850553512573242,0
1.7393267154693604,-0.02203727513551712,-0.011518044397234917,-0.5999230742454529,0.04120026633686409,-0.551633639383489,-0.0026324230695732704,-0.020871797708543544,-0.2634278152133978,0.0,0.0,-0.6,0.0,0.0011107921600341797,0
1.7484159469604492,-0.02224721945822239,-0.010919354856014252,-0.6000295877456665,0.04138974434094673,-0.5521906552905205,0.014826436459389861,0.032846378557605534,-0.26459838422381965,0.0,0.0,-0.6,0.0,0.006066560745239258,0
1.7596981525421143,-0.02224721945822239,-0.010919354856014252,-0.6000295877456665,0.04138974434094673,-0.5521906552905205,0.014826436459389861,0.032846378557605534,-0.26459838422381965,0.0,0.0,-0.6,0.0,0.0011434555053710938,0
1.768101692199707,-0.022344473749399185,-0.010343573987483978,-0.6001119017601013,0.04147355388019443,-0.5523118505263717,-0.03730769267477074,0.02407462876305528,-0.2652275999440609,0.0,0.0,-0.6,0.0,0.005918741226196289,0
1.7790379524230957,-0.022344473749399185,-0.010343573987483978,-0.6001119017601013,0.04147355388019443,-0.5523118505263717,-0.03730769267477074,0.02407462876305528,-0.2652275999440609,0.0,0.0,-0.6,0.0,0.0010921955108642578,0
1.7889151573181152,-0.0224818903952837,-0.009807746857404709,-0.6002645492553711,0.04152881691390315,-0.5513016674087824,-0.004049659872893886,0.04250565788403356,-0.2655155761114811,0.0,0.0,-0.6,0.0,0.00594019889831543,0
1.8006527423858643,-0.0224818903952837,-0.009807746857404709,-0.6002645492553711,0.04152881691390315,-0.5513016674087824,-0.004049659872893886,0.04250565788403356,-0.2655155761114811,0.0,0.0,-0.6,0.0,0.0011563301086425781,0
1.8090736865997314,-0.022568663582205772,-0.009269758127629757,-0.6004435420036316,0.0416009402597239,-0.5509754362497585,-0.005801919015331425,0.05685980721707404,-0.2659743213550606,0.0,0.0,-0.6,0.0,0.005593061447143555,0
1.8201019763946533,-0.022568663582205772,-0.009269758127629757,-0.6004435420036316,0.0416009402597239,-0.5509754362497585,-0.005801919015331425,0.05685980721707404,-0.2659743213550606,0.0,0.0,-0.6,0.0,0.0011396408081054688,0
1.8285346031188965,-0.022620707750320435,-0.00878218561410904,-0.6007131338119507,0.04160805397512576,-0.5507890193293238,-0.02666274074701326,0.10005054641427376,-0.2660423741992971,0.0,0.0,-0.6,0.0,0.005810976028442383,0
1.839493989944458,-0.022620707750320435,-0.00878218561410904,-0.6007131338119507,0.04160805397512576,-0.5507890193293238,-0.02666274074701326,0.10005054641427376,-0.2660423741992971,0.0,0.0,-0.6,0.0,0.0010666847229003906,0
1.8491783142089844,-0.02268928661942482,-0.00831068679690361,-0.6010221838951111,0.04152687033829179,-0.5495047477818288,-0.007446568312908784,0.10160864284409052,-0.265480876341962,0.0,0.0,-0.6,0.0,0.005918741226196289,0
1.8604328632354736,-0.02268928661942482,-0.00831068679690361,-0.6010221838951111,0.04152687033829179,-0.5495047477818288,-0.007446568312908784,0.10160864284409052,-0.265480876341962,0.0,0.0,-0.6,0.0,0.0010845661163330078,0
1.8682794570922852,-0.022741030901670456,-0.00786503590643406,-0.6013920903205872,0.04159312611206245,-0.5495065062693286,-0.015362289480250443,0.07861792395844101,-0.26593399354967634,0.0,0.0,-0.6,0.0,0.00601506233215332,0
1.87955641746521,-0.022741030901670456,-0.00786503590643406,-0.6013920903205872,0.04159312611206245,-0.5495065062693286,-0.015362289480250443,0.07861792395844101,-0.26593399354967634,0.0,0.0,-0.6,0.0,0.001065969467163086,0
1.8883392810821533,-0.022778227925300598,-0.00742111774161458,-0.601790726184845,0.041815875542376583,-0.5492285203053228,-0.057942720799879464,0.0883533690310798,-0.26744102837536404,0.0,0.0,-0.6,0.0,0.006401538848876953,0
1.9006032943725586,-0.022778227925300598,-0.00742111774161458,-0.601790726184845,0.041815875542376583,-0.5492285203053228,-0.057942720799879464,0.0883533690310798,-0.26744102837536404,0.0,0.0,-0.6,0.0,0.001146078109741211,0
1.9084110260009766,-0.022801214829087257,-0.00722414581105113,-0.6020170450210571,0.04193048623998263,-0.548902251902076,-0.06008511090524413,0.08270437086591231,-0.26818127917602713,0.0,0.0,-0.6,0.0,0.0044384002685546875,0
1.9186623096466064,-0.022862520068883896,-0.006846009753644466,-0.6024443507194519,0.04213881976282309,-0.5489308710723623,-0.041508960752237575,0.08739370610782898,-0.26946961271775094,0.0,0.0,-0.6,0.0,0.005753993988037109,0
1.9300453662872314,-0.022862520068883896,-0.006846009753644466,-0.6024443507194519,0.04213881976282309,-0.5489308710723623,-0.041508960752237575,0.08739370610782898,-0.26946961271775094,0.0,0.0,-0.6,0.0,0.0010707378387451172,0
1.9384517669677734,-0.022914567962288857,-0.006521422415971756,-0.6028665900230408,0.042113326470833275,-0.5489523994486066,0.0018186751668368617,0.05389074107385698,-0.2692439028247671,0.0,0.0,-0.6,0.0,0.00590062141418457,0
1.9501888751983643,-0.022914567962288857,-0.006521422415971756,-0.6028665900230408,0.042113326470833275,-0.5489523994486066,0.0018186751668368617,0.05389074107385698,-0.2692439028247671,0.0,0.0,-0.6,0.0,0.0010755062103271484,0
1.9583654403686523,-0.02295142412185669,-0.006214866414666176,-0.6032155752182007,0.04221823673577819,-0.5495347784122258,-0.025811153039388666,0.04518416766061354,-0.26997249198094664,0.0,0.0,-0.6,0.0,0.005933046340942383,0
1.9695754051208496,-0.02295142412185669,-0.006214866414666176,-0.6032155752182007,0.04221823673577819,-0.5495347784122258,-0.025811153039388666,0.04518416766061354,-0.26997249198094664,0.0,0.0,-0.6,0.0,0.0010466575622558594,0
1.9782545566558838,-0.022948484867811203,-0.005945495795458555,-0.603522002696991,0.04221667087510796,-0.5500555199271006,-0.07130069248185456,0.03332027644592703,-0.2700473005792396,0.0,0.0,-0.6,0.0,0.0061855316162109375,0
1.9896936416625977,-0.022948484867811203,-0.005945495795458555,-0.603522002696991,0.04221667087510796,-0.5500555199271006,-0.07130069248185456,0.03332027644592703,-0.2700473005792396,0.0,0.0,-0.6,0.0,0.001146078109741211,0
1.999509334564209,-0.02292730286717415,-0.005711037199944258,-0.6037907600402832,0.04209312220058691,-0.5489371157321732,-0.004558654942789991,0.032595073225986766,-0.26914502848667526,0.0,0.0,-0.6,0.0,0.0060579776763916016,0
2.010929822921753,-0.02292730286717415,-0.005711037199944258,-0.6037907600402832,0.04209312220058691,-0.5489371157321732,-0.004558654942789991,0.032595073225986766,-0.26914502848667526,0.0,0.0,-0.6,0.0,0.0010540485382080078,0
2.018298625946045,-0.02290928363800049,-0.00546895619481802,-0.604032039642334,0.041983452823588986,-0.5500065429340746,0.015353728414135301,0.008527800338623407,-0.2684301258657467,0.0,0.0,-0.6,0.0,0.005939483642578125,0
2.029574394226074,-0.02290928363800049,-0.00546895619481802,-0.604032039642334,0.041983452823588986,-0.5500065429340746,0.015353728414135301,0.008527800338623407,-0.2684301258657467,0.0,0.0,-0.6,0.0,0.0010654926300048828,0
2.038914918899536,-0.022892463952302933,-0.005331284832209349,-0.604269802570343,0.04168727119580965,-0.5500526551606768,0.0005927729407670932,0.035367870676100296,-0.2665429015973617,0.0,0.0,-0.6,0.0,0.006039619445800781,0
2.0501465797424316,-0.022892463952302933,-0.005331284832209349,-0.604269802570343,0.04168727119580965,-0.5500526551606768,0.0005927729407670932,0.035367870676100296,-0.2665429015973617,0.0,0.0,-0.6,0.0,0.0010519027709960938,0
2.0582942962646484,-0.022853167727589607,-0.005266911815851927,-0.6043899655342102,0.041601425544451606,-0.5493434730773861,0.01281744156356771,0.014768967051859077,-0.26599101097788286,0.0,0.0,-0.6,0.0,0.005843400955200195,0
2.0694196224212646,-0.022853167727589607,-0.005266911815851927,-0.6043899655342102,0.041601425544451606,-0.5493434730773861,0.01281744156356771,0.014768967051859077,-0.26599101097788286,0.0,0.0,-0.6,0.0,0.001058340072631836,0
2.0783491134643555,-0.022764921188354492,-0.005171682219952345,-0.6046294569969177,0.04128441873416316,-0.5502286416266727,-0.0015394914418816951,-0.0214616485397544,-0.2640029118256139,0.0,0.0,-0.6,0.0,0.005800962448120117,0
2.089792490005493,-0.022764921188354492,-0.005171682219952345,-0.6046294569969177,0.04128441873416316,-0.5502286416266727,-0.0015394914418816951,-0.0214616485397544,-0.2640029118256139,0.0,0.0,-0.6,0.0,0.0010783672332763672,0
2.0989999771118164,-0.02267056331038475,-0.005039408802986145,-0.604805588722229,0.04098037489498715,-0.5498331116255614,0.00816165348941469,-0.010486318311740095,-0.2620420542816116,0.0,0.0,-0.6,0.0,0.005905628204345703,0
2.110219717025757,-0.02267056331038475,-0.005039408802986145,-0.604805588722229,0.04098037489498715,-0.5498331116255614,0.00816165348941469,-0.010486318311740095,-0.2620420542816116,0.0,0.0,-0.6,0.0,0.0011146068572998047,0
2.1189897060394287,-0.022526094689965248,-0.004865465685725212,-0.6049500703811646,0.040895091358210844,-0.5499282759950438,-0.014022775115488278,-0.023701865742338166,-0.26153278928371426,0.0,0.0,-0.6,0.0,0.005841732025146484,0
2.1308484077453613,-0.02242610603570938,-0.004789072088897228,-0.6050781011581421,0.040779366891469125,-0.5500040648088732,0.01341199155333531,-0.04893352791989848,-0.2607792104707426,0.0,0.0,-0.6,0.0,0.005814790725708008,0
2.1421406269073486,-0.02242610603570938,-0.004789072088897228,-0.6050781011581421,0.040779366891469125,-0.5500040648088732,0.01341199155333531,-0.04893352791989848,-0.2607792104707426,0.0,0.0,-0.6,0.0,0.001066446304321289,0
2.149585008621216,-0.022319382056593895,-0.004753876943141222,-0.6051971316337585,0.04051435146293303,-0.5503808477376153,0.029626061205215985,-0.044246867611899464,-0.2590636483076137,0.0,0.0,-0.6,0.0,0.0058171749114990234,0
2.1607487201690674,-0.022319382056593895,-0.004753876943141222,-0.6051971316337585,0.04051435146293303,-0.5503808477376153,0.029626061205215985,-0.044246867611899464,-0.2590636483076137,0.0,0.0,-0.6,0.0,0.0010707378387451172,0
2.1686384677886963,-0.022230999544262886,-0.004806636832654476,-0.6053135395050049,0.04029042692090396,-0.5503347330618197,0.02645245467306399,-0.07904644798222613,-0.2576548215690679,0.0,0.0,-0.6,0.0,0.0058934688568115234,0
2.1797707080841064,-0.022230999544262886,-0.004806636832654476,-0.6053135395050049,0.04029042692090396,-0.5503347330618197,0.02645245467306399,-0.07904644798222613,-0.2576548215690679,0.0,0.0,-0.6,0.0,0.0011789798736572266,0
2.1881537437438965,-0.022158635780215263,-0.0048803542740643024,-0.6054337024688721,0.04005522471271627,-0.5504604076439968,0.07563789254038743,-0.026930520271050244,-0.2560643464286809,0.0,0.0,-0.6,0.0,0.005850315093994141,0
2.1995537281036377,-0.022158635780215263,-0.0048803542740643024,-0.6054337024688721,0.04005522471271627,-0.5504604076439968,0.07563789254038743,-0.026930520271050244,-0.2560643464286809,0.0,0.0,-0.6,0.0,0.001115560531616211,0
2.2083969116210938,-0.022130265831947327,-0.005029335618019104,-0.6055354475975037,0.039632948233368534,-0.5509462785847784,0.03558910272739153,-0.038280377085798865,-0.25341317271835107,0.0,0.0,-0.6,0.0,0.0057086944580078125,0
2.2196037769317627,-0.022130265831947327,-0.005029335618019104,-0.6055354475975037,0.039632948233368534,-0.5509462785847784,0.03558910272739153,-0.038280377085798865,-0.25341317271835107,0.0,0.0,-0.6,0.0,0.0010552406311035156,0
2.2281699180603027,-0.022131042554974556,-0.005120655056089163,-0.6056254506111145,0.039225423009088524,-0.5504996303549164,0.03719283987405737,-0.04587540321817957,-0.2508096301309795,0.0,0.0,-0.6,0.0,0.0059661865234375,0
2.239330291748047,-0.022131042554974556,-0.005120655056089163,-0.6056254506111145,0.039225423009088524,-0.5504996303549164,0.03719283987405737,-0.04587540321817957,-0.2508096301309795,0.0,0.0,-0.6,0.0,0.0011157989501953125,0
2.2482759952545166,-0.022178074344992638,-0.00533654447644949,-0.6057621836662292,0.0387994091053948,-0.5501049128807289,0.03772945376964441,-0.06746803229033381,-0.24809934558074198,0.0,0.0,-0.6,0.0,0.005918979644775391,0
2.259246587753296,-0.022178074344992638,-0.00533654447644949,-0.6057621836662292,0.0387994091053948,-0.5501049128807289,0.03772945376964441,-0.06746803229033381,-0.24809934558074198,0.0,0.0,-0.6,0.0,0.0010542869567871094,0
2.2682044506073,-0.02234138920903206,-0.005611921660602093,-0.6059651374816895,0.03788060998335383,-0.5497691444726972,0.05043150310836173,-0.07056771927101975,-0.24221249201960612,0.0,0.0,-0.6,0.0,0.005551815032958984,0
2.278928756713867,-0.02234138920903206,-0.005611921660602093,-0.6059651374816895,0.03788060998335383,-0.5497691444726972,0.05043150310836173,-0.07056771927101975,-0.24221249201960612,0.0,0.0,-0.6,0.0,0.0010743141174316406,0
2.288745641708374,-0.022507453337311745,-0.005865397397428751,-0.6061270236968994,0.03735712299129275,-0.5502288637973839,0.038567457917111816,-0.11430180607571676,-0.23891075620260288,0.0,0.0,-0.6,0.0,0.005952358245849609,0
2.3004209995269775,-0.022507453337311745,-0.005865397397428751,-0.6061270236968994,0.03735712299129275,-0.5502288637973839,0.038567457917111816,-0.11430180607571676,-0.23891075620260288,0.0,0.0,-0.6,0.0,0.0011210441589355469,0
2.3086183071136475,-0.022627662867307663,-0.005987800657749176,-0.606195330619812,0.03711757055105004,-0.55027521942466,0.027845748420710206,-0.12285158158086942,-0.2374006177205466,0.0,0.0,-0.6,0.0,0.005574703216552734,0
2.3196492195129395,-0.022627662867307663,-0.005987800657749176,-0.606195330619812,0.03711757055105004,-0.55027521942466,0.027845748420710206,-0.12285158158086942,-0.2374006177205466,0.0,0.0,-0.6,0.0,0.0011296272277832031,0
2.328279972076416,-0.022902213037014008,-0.006356349214911461,-0.6063855290412903,0.036384941472486616,-0.5500922612052725,0.04719998298102668,-0.0701868262053639,-0.2326703210269731,0.0,0.0,-0.6,0.0,0.006082296371459961,0
2.3399298191070557,-0.022902213037014008,-0.006356349214911461,-0.6063855290412903,0.036384941472486616,-0.5500922612052725,0.04719998298102668,-0.0701868262053639,-0.2326703210269731,0.0,0.0,-0.6,0.0,0.0011131763458251953,0
2.3482255935668945,-0.023000169545412064,-0.006486818194389343,-0.6064254641532898,0.03618844127768816,-0.5500558054360722,0.046315792592533524,-0.0618900634274524,-0.23141004322032346,0.0,0.0,-0.6,0.0,0.005791664123535156,0
2.359989881515503,-0.02313842438161373,-0.006787069607526064,-0.6065158247947693,0.035825027491421434,-0.5503402323698527,0.02777891758020141,-0.06048088334306407,-0.22910965081954085,0.0,0.0,-0.6,0.0,0.005759716033935547,0
2.371633291244507,-0.02313842438161373,-0.006787069607526064,-0.6065158247947693,0.035825027491421434,-0.5503402323698527,0.02777891758020141,-0.06048088334306407,-0.22910965081954085,0.0,0.0,-0.6,0.0,0.0011615753173828125,0
2.378695487976074,-0.023219143971800804,-0.006944642402231693,-0.6065387725830078,0.035644634052674415,-0.5511917367613847,0.03296840072174673,-0.07836672403300715,-0.2279667566964404,0.0,0.0,-0.6,0.0,0.005811214447021484,0
2.3902816772460938,-0.023219143971800804,-0.006944642402231693,-0.6065387725830078,0.035644634052674415,-0.5511917367613847,0.03296840072174673,-0.07836672403300715,-0.2279667566964404,0.0,0.0,-0.6,0.0,0.001054525375366211,0
2.3990659713745117,-0.023303275927901268,-0.007305847480893135,-0.6065724492073059,0.03507710011406659,-0.5509267954602294,0.02687666162752251,-0.05788719224178571,-0.22432656258459355,0.0,0.0,-0.6,0.0,0.005921125411987305,0
2.4101791381835938,-0.023303275927901268,-0.007305847480893135,-0.6065724492073059,0.03507710011406659,-0.5509267954602294,0.02687666162752251,-0.05788719224178571,-0.22432656258459355,0.0,0.0,-0.6,0.0,0.0010666847229003906,0
2.4190826416015625,-0.02337285876274109,-0.007849241606891155,-0.606614351272583,0.03422039077504681,-0.5502656984139133,0.015444628196626191,0.031587252514398645,-0.21877092145764881,0.0,0.0,-0.6,0.0,0.005828380584716797,0
2.4306650161743164,-0.02337285876274109,-0.007849241606891155,-0.606614351272583,0.03422039077504681,-0.5502656984139133,0.015444628196626191,0.031587252514398645,-0.21877092145764881,0.0,0.0,-0.6,0.0,0.0010673999786376953,0
2.4384098052978516,-0.0233936570584774,-0.008017368614673615,-0.6066405177116394,0.03402558523646134,-0.5501069843069292,0.012018631067480707,0.04040932205261869,-0.2175194144876968,0.0,0.0,-0.6,0.0,0.005672454833984375,0
2.4498252868652344,-0.023454051464796066,-0.008348851464688778,-0.6066756844520569,0.03339481349211748,-0.550368349575162,0.027466728035950773,0.031158010515695205,-0.21346328127714653,0.0,0.0,-0.6,0.0,0.005837440490722656,0
2.4616074562072754,-0.023454051464796066,-0.008348851464688778,-0.6066756844520569,0.03339481349211748,-0.550368349575162,0.027466728035950773,0.031158010515695205,-0.21346328127714653,0.0,0.0,-0.6,0.0,0.0010924339294433594,0
2.469025135040283,-0.02347705326974392,-0.008521761745214462,-0.6067160367965698,0.03314818280917555,-0.550638030853159,0.008787059266965916,0.03713171636452509,-0.21191295532036,0.0,0.0,-0.6,0.0,0.005930185317993164,0
2.481218099594116,-0.023523768410086632,-0.008867641910910606,-0.6067988872528076,0.0326030045206546,-0.5507893338444705,-0.044771800276117026,0.04230916162912098,-0.20852580708853674,0.0,0.0,-0.6,0.0,0.005968570709228516,0
2.4928817749023438,-0.023523768410086632,-0.008867641910910606,-0.6067988872528076,0.0326030045206546,-0.5507893338444705,-0.044771800276117026,0.04230916162912098,-0.20852580708853674,0.0,0.0,-0.6,0.0,0.0011057853698730469,0
2.500962972640991,-0.02367779053747654,-0.00915513839572668,-0.6068812012672424,0.0320239533172904,-0.549880202185109,-0.03402763635940598,0.022645727187001283,-0.2048284565008593,0.0,0.0,-0.6,0.0,0.005826473236083984,0
2.512058734893799,-0.02367779053747654,-0.00915513839572668,-0.6068812012672424,0.0320239533172904,-0.549880202185109,-0.03402763635940598,0.022645727187001283,-0.2048284565008593,0.0,0.0,-0.6,0.0,0.0011413097381591797,0
2.5187535285949707,-0.02367779053747654,-0.00915513839572668,-0.6068812012672424,0.0320239533172904,-0.549880202185109,-0.03402763635940598,0.022645727187001283,-0.2048284565008593,0.0,0.0,-0.6,0.0,0.001077890396118164,0
2.528254747390747,-0.023779993876814842,-0.009420746006071568,-0.607066810131073,0.03157267112806297,-0.5493042257405697,-0.09430530397937252,0.053090461469481265,-0.20202295307352314,0.0,0.0,-0.6,0.0,0.006061553955078125,0
2.539471387863159,-0.023779993876814842,-0.009420746006071568,-0.607066810131073,0.03157267112806297,-0.5493042257405697,-0.09430530397937252,0.053090461469481265,-0.20202295307352314,0.0,0.0,-0.6,0.0,0.0011620521545410156,0
2.548522710800171,-0.023866618052124977,-0.009602831676602364,-0.6072424650192261,0.031239665584682257,-0.5496121732992045,-0.08365964231604009,0.034438623651158386,-0.19989626467304963,0.0,0.0,-0.6,0.0,0.005960702896118164,0
2.559781789779663,-0.023866618052124977,-0.009602831676602364,-0.6072424650192261,0.031239665584682257,-0.5496121732992045,-0.08365964231604009,0.034438623651158386,-0.19989626467304963,0.0,0.0,-0.6,0.0,0.0011153221130371094,0
2.5682716369628906,-0.02392188087105751,-0.00977987889200449,-0.6073958873748779,0.030982356061812367,-0.5489920908168462,-0.06497441227690733,0.051103579220712764,-0.19818361001378315,0.0,0.0,-0.6,0.0,0.006108760833740234,0
2.5797040462493896,-0.02392188087105751,-0.00977987889200449,-0.6073958873748779,0.030982356061812367,-0.5489920908168462,-0.06497441227690733,0.051103579220712764,-0.19818361001378315,0.0,0.0,-0.6,0.0,0.0011744499206542969,0
2.588451385498047,-0.02403266914188862,-0.009955932386219501,-0.6075731515884399,0.030836301745687616,-0.549358432904458,-0.08693640223901343,-0.020101787069421433,-0.1974010461507983,0.0,0.0,-0.6,0.0,0.0060384273529052734,0
2.600604295730591,-0.02403266914188862,-0.009955932386219501,-0.6075731515884399,0.030836301745687616,-0.549358432904458,-0.08693640223901343,-0.020101787069421433,-0.1974010461507983,0.0,0.0,-0.6,0.0,0.0011398792266845703,0
2.608198642730713,-0.02417752519249916,-0.01012540515512228,-0.6077108383178711,0.03055042376690662,-0.5492917233196186,-0.0582915607804103,-0.00013812111746995214,-0.19548334901384107,0.0,0.0,-0.6,0.0,0.00590062141418457,0
2.6193222999572754,-0.02417752519249916,-0.01012540515512228,-0.6077108383178711,0.03055042376690662,-0.5492917233196186,-0.0582915607804103,-0.00013812111746995214,-0.19548334901384107,0.0,0.0,-0.6,0.0,0.0011110305786132812,0
2.6282238960266113,-0.024309340864419937,-0.010334382764995098,-0.6078508496284485,0.03020277734921414,-0.5494265653495518,-0.07879313555843316,0.009710787533293633,-0.1932760038723781,0.0,0.0,-0.6,0.0,0.005854129791259766,0
2.6397125720977783,-0.024309340864419937,-0.010334382764995098,-0.6078508496284485,0.03020277734921414,-0.5494265653495518,-0.07879313555843316,0.009710787533293633,-0.1932760038723781,0.0,0.0,-0.6,0.0,0.0013070106506347656,0
2.648205518722534,-0.024395115673542023,-0.010564661584794521,-0.608063817024231,0.029420945842313233,-0.5493383284284374,-0.13657638480609618,0.006532127354033187,-0.18837279792431666,0.0,0.0,-0.6,0.0,0.006076812744140625,0
2.6596057415008545,-0.024395115673542023,-0.010564661584794521,-0.608063817024231,0.029420945842313233,-0.5493383284284374,-0.13657638480609618,0.006532127354033187,-0.18837279792431666,0.0,0.0,-0.6,0.0,0.0010523796081542969,0
2.6682944297790527,-0.024451039731502533,-0.010627033188939095,-0.6081233620643616,0.029124180766079453,-0.549376310224952,-0.12941785917464693,0.01732311468921324,-0.18644384830384447,0.0,0.0,-0.6,0.0,0.005834817886352539,0
2.6797373294830322,-0.024451039731502533,-0.010627033188939095,-0.6081233620643616,0.029124180766079453,-0.549376310224952,-0.12941785917464693,0.01732311468921324,-0.18644384830384447,0.0,0.0,-0.6,0.0,0.001163482666015625,0
2.688708543777466,-0.024536781013011932,-0.010782684199512005,-0.608271062374115,0.028509893446912255,-0.5500633743977089,-0.0931518382683109,-0.03731824198189293,-0.18253572381663538,0.0,0.0,-0.6,0.0,0.005887746810913086,0
2.7002780437469482,-0.024536781013011932,-0.010782684199512005,-0.608271062374115,0.028509893446912255,-0.5500633743977089,-0.0931518382683109,-0.03731824198189293,-0.18253572381663538,0.0,0.0,-0.6,0.0,0.0011124610900878906,0
2.7084832191467285,-0.024578329175710678,-0.010830639861524105,-0.6082984209060669,0.028302888241958528,-0.5501664489383801,-0.08744620885795089,-0.04979628015233615,-0.18121830171943235,0.0,0.0,-0.6,0.0,0.00570368766784668,0
2.7200655937194824,-0.0246073417365551,-0.010969246737658978,-0.6083782911300659,0.02787772921653451,-0.5502422854138526,-0.09267398711471016,-0.02771409560544757,-0.17846383453874332,0.0,0.0,-0.6,0.0,0.00584721565246582,0
2.7311220169067383,-0.0246073417365551,-0.010969246737658978,-0.6083782911300659,0.02787772921653451,-0.5502422854138526,-0.09267398711471016,-0.02771409560544757,-0.17846383453874332,0.0,0.0,-0.6,0.0,0.0010504722595214844,0
2.7382924556732178,-0.024634966626763344,-0.01111388485878706,-0.6084319949150085,0.027547309923626254,-0.5505249184912356,-0.11272664588906814,-0.026282994462871127,-0.1763668316412839,0.0,0.0,-0.6,0.0,0.005995750427246094,0
2.7494728565216064,-0.024634966626763344,-0.01111388485878706,-0.6084319949150085,0.027547309923626254,-0.5505249184912356,-0.11272664588906814,-0.026282994462871127,-0.1763668316412839,0.0,0.0,-0.6,0.0,0.0010845661163330078,0
2.758338212966919,-0.02464250847697258,-0.011206518858671188,-0.6084568500518799,0.027351174835671493,-0.5495632111013026,-0.0686281991822538,-0.03322097457976309,-0.1750568907339102,0.0,0.0,-0.6,0.0,0.005902528762817383,0
2.7692549228668213,-0.02464250847697258,-0.011206518858671188,-0.6084568500518799,0.027351174835671493,-0.5495632111013026,-0.0686281991822538,-0.03322097457976309,-0.1750568907339102,0.0,0.0,-0.6,0.0,0.0010678768157958984,0
2.778873920440674,-0.024575965479016304,-0.011491521261632442,-0.6084655523300171,0.027082184376806234,-0.5505348741223012,-0.0005290330079375236,-0.02402464741645119,-0.17321568303167165,0.0,0.0,-0.6,0.0,0.005885124206542969,0
2.790006399154663,-0.024575965479016304,-0.011491521261632442,-0.6084655523300171,0.027082184376806234,-0.5505348741223012,-0.0005290330079375236,-0.02402464741645119,-0.17321568303167165,0.0,0.0,-0.6,0.0,0.0010528564453125,0
2.7994234561920166,-0.024510599672794342,-0.011701819486916065,-0.6084771752357483,0.026899422822604695,-0.550732321484413,0.024900115983593915,2.2223833831541344e-05,-0.1719769947960799,0.0,0.0,-0.6,0.0,0.005803346633911133,0
2.8103878498077393,-0.024510599672794342,-0.011701819486916065,-0.6084771752357483,0.026899422822604695,-0.550732321484413,0.024900115983593915,2.2223833831541344e-05,-0.1719769947960799,0.0,0.0,-0.6,0.0,0.0011005401611328125,0
2.818288803100586,-0.02445715107023716,-0.01181576307862997,-0.6084813475608826,0.02669271921216847,-0.5508442013568876,0.015727885445980166,0.001819225525128139,-0.17066303628835436,0.0,0.0,-0.6,0.0,0.005789279937744141,0
