time,x,y,z,yaw,throttle,roll_rate,pitch_rate,yaw_rate,x_ref,y_ref,z_ref,yaw_ref,mpc_time,ctrl_callback_time_history,metadata
4.5299530029296875e-06,-0.06565678119659424,-0.08208140730857849,-0.24071383476257324,0.06963798104193715,-0.5896786395100295,0.5647642634494164,-0.4400587548455968,-0.44515746556186775,0.0,0.0,-0.6,0.0,0.018017053604125977,0.022488832473754883,Hardware
0.023685455322265625,-0.06565678119659424,-0.08208140730857849,-0.24071383476257324,0.06963798104193715,-0.5896786395100295,0.5647642634494164,-0.4400587548455968,-0.44515746556186775,0.0,0.0,-0.6,0.0,0.0010790824890136719,0.005178689956665039,1x Speed
0.0317690372467041,-0.06565754115581512,-0.08207044750452042,-0.24070768058300018,0.06958889213037747,-0.5894951277941224,0.5651523316283692,-0.4368007444066542,-0.44484116613094393,0.0,0.0,-0.6,0.0,0.005567073822021484,0.009655475616455078,Horizon:3.0
0.04270458221435547,-0.06565754115581512,-0.08207044750452042,-0.24070768058300018,0.06958889213037747,-0.5894951277941224,0.5651523316283692,-0.4368007444066542,-0.44484116613094393,0.0,0.0,-0.6,0.0,0.0010938644409179688,0.005085945129394531,Num Steps:20
0.05016279220581055,-0.06565095484256744,-0.08206290006637573,-0.24069146811962128,0.06965825587407147,-0.5899938134805843,0.563500256145738,-0.4394177901786449,-0.4452871435613759,0.0,0.0,-0.6,0.0,0.005303382873535156,0.009555816650390625,No Pyjoules
0.06108736991882324,-0.06565095484256744,-0.08206290006637573,-0.24069146811962128,0.06965825587407147,-0.5899938134805843,0.563500256145738,-0.4394177901786449,-0.4452871435613759,0.0,0.0,-0.6,0.0,0.0011131763458251953,0.005093574523925781,0
0.06942582130432129,-0.06564337760210037,-0.0820489153265953,-0.2407187670469284,0.06961891179272016,-0.5900797013903188,0.5653037119242857,-0.43884783727381804,-0.4450276796850207,0.0,0.0,-0.6,0.0,0.005361318588256836,0.009415626525878906,0
0.0801243782043457,-0.06564337760210037,-0.0820489153265953,-0.2407187670469284,0.06961891179272016,-0.5900797013903188,0.5653037119242857,-0.43884783727381804,-0.4450276796850207,0.0,0.0,-0.6,0.0,0.0011382102966308594,0.0053784847259521484,0
0.08932375907897949,-0.06562583893537521,-0.08203061670064926,-0.24076618254184723,0.06915737412933327,-0.5891753695215346,0.5599422371180557,-0.43645199513697946,-0.4420778922071875,0.0,0.0,-0.6,0.0,0.005373239517211914,0.009234189987182617,0
0.10049915313720703,-0.06562583893537521,-0.08203061670064926,-0.24076618254184723,0.06915737412933327,-0.5891753695215346,0.5599422371180557,-0.43645199513697946,-0.4420778922071875,0.0,0.0,-0.6,0.0,0.0011172294616699219,0.0048296451568603516,0
0.10937833786010742,-0.06551254540681839,-0.08198744803667068,-0.24088972806930542,0.06788394455797912,-0.5886086286967137,0.5615115285152319,-0.4169770210962657,-0.43390214072796274,0.0,0.0,-0.6,0.0,0.005270957946777344,0.009530067443847656,0
0.12021374702453613,-0.06551254540681839,-0.08198744803667068,-0.24088972806930542,0.06788394455797912,-0.5886086286967137,0.5615115285152319,-0.4169770210962657,-0.43390214072796274,0.0,0.0,-0.6,0.0,0.0011391639709472656,0.004984378814697266,0
0.12950706481933594,-0.06524579972028732,-0.08191851526498795,-0.24110525846481323,0.06766549493300603,-0.586847919447595,0.5500760339537089,-0.34912710619875664,-0.43244426993911933,0.0,0.0,-0.6,0.0,0.0062863826751708984,0.010426044464111328,0
0.14119768142700195,-0.06524579972028732,-0.08191851526498795,-0.24110525846481323,0.06766549493300603,-0.586847919447595,0.5500760339537089,-0.34912710619875664,-0.43244426993911933,0.0,0.0,-0.6,0.0,0.001096963882446289,0.00487208366394043,0
0.14950919151306152,-0.06483356654644012,-0.08171657472848892,-0.24155420064926147,0.06737798651872341,-0.5824388803264829,0.5237697137615028,-0.24789737184365596,-0.4305079804698341,0.0,0.0,-0.6,0.0,0.006817817687988281,0.010928153991699219,0
0.1617720127105713,-0.06483356654644012,-0.08171657472848892,-0.24155420064926147,0.06737798651872341,-0.5824388803264829,0.5237697137615028,-0.24789737184365596,-0.4305079804698341,0.0,0.0,-0.6,0.0,0.0010631084442138672,0.005007266998291016,0
0.1694166660308838,-0.06413412094116211,-0.08126890659332275,-0.24255403876304626,0.065839913147683,-0.5792834601015568,0.43580678454519717,-0.1488606398741445,-0.420537394856601,0.0,0.0,-0.6,0.0,0.006880760192871094,0.010926961898803711,0
0.18167710304260254,-0.06413412094116211,-0.08126890659332275,-0.24255403876304626,0.065839913147683,-0.5792834601015568,0.43580678454519717,-0.1488606398741445,-0.420537394856601,0.0,0.0,-0.6,0.0,0.0010650157928466797,0.0048961639404296875,0
0.18976283073425293,-0.06318105012178421,-0.0805463120341301,-0.2443889081478119,0.06353507807617303,-0.5700424250582233,0.3148968731100169,-0.023801690835994052,-0.40570953501281165,0.0,0.0,-0.6,0.0,0.006585597991943359,0.010702133178710938,0
0.2024221420288086,-0.06318105012178421,-0.0805463120341301,-0.2443889081478119,0.06353507807617303,-0.5700424250582233,0.3148968731100169,-0.023801690835994052,-0.40570953501281165,0.0,0.0,-0.6,0.0,0.0010595321655273438,0.004798173904418945,0
0.2095942497253418,-0.06210457533597946,-0.07948404550552368,-0.24701689183712006,0.060885350602891145,-0.562069132852794,0.14314285538995783,0.10157922585972448,-0.38879830721736564,0.0,0.0,-0.6,0.0,0.006698131561279297,0.01076960563659668,0
0.22184109687805176,-0.06210457533597946,-0.07948404550552368,-0.24701689183712006,0.060885350602891145,-0.562069132852794,0.14314285538995783,0.10157922585972448,-0.38879830721736564,0.0,0.0,-0.6,0.0,0.0010485649108886719,0.00487208366394043,0
0.2295515537261963,-0.06092284247279167,-0.07815119624137878,-0.2505292594432831,0.05766123422309904,-0.5576879892210829,-0.0625269133559059,0.182689801761639,-0.3683714305571931,0.0,0.0,-0.6,0.0,0.0066127777099609375,0.010643243789672852,0
0.2415778636932373,-0.06092284247279167,-0.07815119624137878,-0.2505292594432831,0.05766123422309904,-0.5576879892210829,-0.0625269133559059,0.182689801761639,-0.3683714305571931,0.0,0.0,-0.6,0.0,0.0010654926300048828,0.0048944950103759766,0
0.24953246116638184,-0.0596059150993824,-0.07671178877353668,-0.2550967037677765,0.054242204709105485,-0.5507238130257297,-0.2675316066542274,0.31459608181274223,-0.34665043363746106,0.0,0.0,-0.6,0.0,0.006592512130737305,0.010712146759033203,0
0.2616307735443115,-0.0596059150993824,-0.07671178877353668,-0.2550967037677765,0.054242204709105485,-0.5507238130257297,-0.2675316066542274,0.31459608181274223,-0.34665043363746106,0.0,0.0,-0.6,0.0,0.001056671142578125,0.004802703857421875,0
0.2694685459136963,-0.05820583924651146,-0.07512836903333664,-0.2604146897792816,0.050544590695655325,-0.5404573880083421,-0.3912530327194837,0.4091116707338877,-0.32301589125285024,0.0,0.0,-0.6,0.0,0.005272388458251953,0.009345293045043945,0
0.28017163276672363,-0.05820583924651146,-0.07512836903333664,-0.2604146897792816,0.050544590695655325,-0.5404573880083421,-0.3912530327194837,0.4091116707338877,-0.32301589125285024,0.0,0.0,-0.6,0.0,0.0011491775512695312,0.004865884780883789,0
0.2892787456512451,-0.05674328655004501,-0.07347648590803146,-0.266583114862442,0.04690999568577899,-0.5319477316682143,-0.4699921470406564,0.44965590201291983,-0.29981862053541397,0.0,0.0,-0.6,0.0,0.005286693572998047,0.009148597717285156,0
0.30040502548217773,-0.05674328655004501,-0.07347648590803146,-0.266583114862442,0.04690999568577899,-0.5319477316682143,-0.4699921470406564,0.44965590201291983,-0.29981862053541397,0.0,0.0,-0.6,0.0,0.0011501312255859375,0.005215167999267578,0
0.30939364433288574,-0.05521732568740845,-0.07170633226633072,-0.2736460268497467,0.04334944028363935,-0.524326718545005,-0.5802557370835474,0.5163230488885542,-0.2770920522974492,0.0,0.0,-0.6,0.0,0.006524801254272461,0.010439634323120117,0
0.32126951217651367,-0.05521732568740845,-0.07170633226633072,-0.2736460268497467,0.04334944028363935,-0.524326718545005,-0.5802557370835474,0.5163230488885542,-0.2770920522974492,0.0,0.0,-0.6,0.0,0.001107931137084961,0.005139589309692383,0
0.3294973373413086,-0.053595323115587234,-0.06982256472110748,-0.28141286969184875,0.03986925135791029,-0.5144786561089876,-0.6120366420402115,0.6068234505317764,-0.25449790098670905,0.0,0.0,-0.6,0.0,0.007103443145751953,0.011272907257080078,0
0.34214282035827637,-0.053595323115587234,-0.06982256472110748,-0.28141286969184875,0.03986925135791029,-0.5144786561089876,-0.6120366420402115,0.6068234505317764,-0.25449790098670905,0.0,0.0,-0.6,0.0,0.0011205673217773438,0.0049495697021484375,0
0.3504295349121094,-0.051962900906801224,-0.06788340955972672,-0.28987210988998413,0.03675814903592857,-0.5078455426268073,-0.6141463696356564,0.6051398054585294,-0.2345681422585105,0.0,0.0,-0.6,0.0,0.006369829177856445,0.0102996826171875,0
0.36275815963745117,-0.05013962462544441,-0.06581515073776245,-0.2988813817501068,0.03356232700474567,-0.5031127163369244,-0.619318445706198,0.5959954377386903,-0.21420629468787486,0.0,0.0,-0.6,0.0,0.006386280059814453,0.01028752326965332,0
0.37447404861450195,-0.05013962462544441,-0.06581515073776245,-0.2988813817501068,0.03356232700474567,-0.5031127163369244,-0.619318445706198,0.5959954377386903,-0.21420629468787486,0.0,0.0,-0.6,0.0,0.0010857582092285156,0.005087137222290039,0
0.3814530372619629,-0.05013962462544441,-0.06581515073776245,-0.2988813817501068,0.03356232700474567,-0.5031127163369244,-0.619318445706198,0.5959954377386903,-0.21420629468787486,0.0,0.0,-0.6,0.0,0.0010979175567626953,0.004843473434448242,0
0.3896522521972656,-0.048203740268945694,-0.06366386264562607,-0.3081238567829132,0.03063439776762563,-0.4966846047559821,-0.5879521588659388,0.5966798253462018,-0.19544045127548465,0.0,0.0,-0.6,0.0,0.006338834762573242,0.010419130325317383,0
0.40195393562316895,-0.048203740268945694,-0.06366386264562607,-0.3081238567829132,0.03063439776762563,-0.4966846047559821,-0.5879521588659388,0.5966798253462018,-0.19544045127548465,0.0,0.0,-0.6,0.0,0.0010921955108642578,0.004982948303222656,0
0.4095890522003174,-0.046259161084890366,-0.061424314975738525,-0.317596971988678,0.027884043053343105,-0.49263642602538515,-0.5819420756038652,0.5655930564134071,-0.17798504636736906,0.0,0.0,-0.6,0.0,0.005330801010131836,0.009407758712768555,0
0.42041778564453125,-0.046259161084890366,-0.061424314975738525,-0.317596971988678,0.027884043053343105,-0.49263642602538515,-0.5819420756038652,0.5655930564134071,-0.17798504636736906,0.0,0.0,-0.6,0.0,0.0011518001556396484,0.004944324493408203,0
0.4293496608734131,-0.04429227486252785,-0.05915624648332596,-0.327382892370224,0.025177769207513245,-0.4870011003860756,-0.5205991308870136,0.4840862217583773,-0.16082533836852933,0.0,0.0,-0.6,0.0,0.005414009094238281,0.009610176086425781,0
0.44035887718200684,-0.04429227486252785,-0.05915624648332596,-0.327382892370224,0.025177769207513245,-0.4870011003860756,-0.5205991308870136,0.4840862217583773,-0.16082533836852933,0.0,0.0,-0.6,0.0,0.0012061595916748047,0.0049169063568115234,0
0.4496445655822754,-0.04235558584332466,-0.056723255664110184,-0.33715084195137024,0.022525186229002795,-0.48372712705532817,-0.4788742256685287,0.4261998217074228,-0.14391342246208763,0.0,0.0,-0.6,0.0,0.00644993782043457,0.011419057846069336,0
0.46297287940979004,-0.04235558584332466,-0.056723255664110184,-0.33715084195137024,0.022525186229002795,-0.48372712705532817,-0.4788742256685287,0.4261998217074228,-0.14391342246208763,0.0,0.0,-0.6,0.0,0.0012383460998535156,0.006517887115478516,0
0.4726276397705078,-0.040266312658786774,-0.05425028130412102,-0.34705156087875366,0.019865289781620877,-0.47880533354704413,-0.3755286845759405,0.34576917988118844,-0.12693839910613874,0.0,0.0,-0.6,0.0,0.006286144256591797,0.011417627334594727,0
0.4868476390838623,-0.038203757256269455,-0.05169267952442169,-0.35699915885925293,0.01719498144183113,-0.47788299241922405,-0.3284068360712677,0.2387588172528904,-0.1099139777445994,0.0,0.0,-0.6,0.0,0.0070264339447021484,0.012418746948242188,0
0.5018861293792725,-0.038203757256269455,-0.05169267952442169,-0.35699915885925293,0.01719498144183113,-0.47788299241922405,-0.3284068360712677,0.2387588172528904,-0.1099139777445994,0.0,0.0,-0.6,0.0,0.0014224052429199219,0.006841182708740234,0
0.5111281871795654,-0.034975118935108185,-0.04770452156662941,-0.3717295229434967,0.013298866725005257,-0.4741191872537692,-0.19223786549480504,0.14691908708548176,-0.08500997420948965,0.0,0.0,-0.6,0.0,0.00652313232421875,0.011109113693237305,0
0.5236272811889648,-0.034975118935108185,-0.04770452156662941,-0.3717295229434967,0.013298866725005257,-0.4741191872537692,-0.19223786549480504,0.14691908708548176,-0.08500997420948965,0.0,0.0,-0.6,0.0,0.0012230873107910156,0.00589752197265625,0
0.5323522090911865,-0.032787736505270004,-0.04510008543729782,-0.38155847787857056,0.010764683393359195,-0.4723253993838672,-0.09979369328766356,0.06427484563762817,-0.06881852880602587,0.0,0.0,-0.6,0.0,0.006219625473022461,0.01060938835144043,0
0.54500412940979,-0.032787736505270004,-0.04510008543729782,-0.38155847787857056,0.010764683393359195,-0.4723253993838672,-0.09979369328766356,0.06427484563762817,-0.06881852880602587,0.0,0.0,-0.6,0.0,0.001165628433227539,0.006323337554931641,0
0.553809642791748,-0.03068435564637184,-0.04250505939126015,-0.3911896049976349,0.008357963856106732,-0.4717619398386459,-0.03713865312815019,0.004088598204244562,-0.0534249345523663,0.0,0.0,-0.6,0.0,0.0065462589263916016,0.011134147644042969,0
0.5671491622924805,-0.03068435564637184,-0.04250505939126015,-0.3911896049976349,0.008357963856106732,-0.4717619398386459,-0.03713865312815019,0.004088598204244562,-0.0534249345523663,0.0,0.0,-0.6,0.0,0.001255035400390625,0.0061800479888916016,0
0.5767300128936768,-0.028618574142456055,-0.03993844985961914,-0.4005993902683258,0.00612021813094752,-0.47095232090635686,0.011240648107419177,-0.024361257479369822,-0.03913748079068128,0.0,0.0,-0.6,0.0,0.005957603454589844,0.011869430541992188,0
0.5900263786315918,-0.028618574142456055,-0.03993844985961914,-0.4005993902683258,0.00612021813094752,-0.47095232090635686,0.011240648107419177,-0.024361257479369822,-0.03913748079068128,0.0,0.0,-0.6,0.0,0.0016291141510009766,0.006009817123413086,0
0.6000826358795166,-0.0266051534563303,-0.03743146359920502,-0.4097348153591156,0.004145255471710108,-0.47053895594190054,0.04298977698749004,-0.040746830223765386,-0.026532026798286777,0.0,0.0,-0.6,0.0,0.006417989730834961,0.011306047439575195,0
0.6130642890930176,-0.0266051534563303,-0.03743146359920502,-0.4097348153591156,0.004145255471710108,-0.47053895594190054,0.04298977698749004,-0.040746830223765386,-0.026532026798286777,0.0,0.0,-0.6,0.0,0.0011625289916992188,0.005456686019897461,0
0.6222820281982422,-0.02469252422451973,-0.03497857600450516,-0.4185533821582794,0.00242912944213532,-0.4706082505131517,0.043721801717056794,-0.06037299722060387,-0.015520854210789144,0.0,0.0,-0.6,0.0,0.006438732147216797,0.01112222671508789,0
0.6355876922607422,-0.02287675440311432,-0.032648954540491104,-0.42702779173851013,0.0007501728240410817,-0.47090691106969595,0.04540058375720127,-0.0673011625719693,-0.0047715962210394995,0.0,0.0,-0.6,0.0,0.006264925003051758,0.010858535766601562,0
0.6493573188781738,-0.02287675440311432,-0.032648954540491104,-0.42702779173851013,0.0007501728240410817,-0.47090691106969595,0.04540058375720127,-0.0673011625719693,-0.0047715962210394995,0.0,0.0,-0.6,0.0,0.0011475086212158203,0.005815029144287109,0
0.6599397659301758,-0.021191969513893127,-0.030481040477752686,-0.4351416826248169,-0.0009248186211180539,-0.4705213984173089,0.049717403293556554,-0.07177259148389742,0.0059434109548029785,0.0,0.0,-0.6,0.0,0.0065631866455078125,0.012125253677368164,0
0.6735925674438477,-0.021191969513893127,-0.030481040477752686,-0.4351416826248169,-0.0009248186211180539,-0.4705213984173089,0.049717403293556554,-0.07177259148389742,0.0059434109548029785,0.0,0.0,-0.6,0.0,0.0016260147094726562,0.006647586822509766,0
0.6831936836242676,-0.018920527771115303,-0.02756146341562271,-0.44673416018486023,-0.0033548698089070454,-0.47130395176389106,0.07054501834781812,-0.05805721890080612,0.021419994861608036,0.0,0.0,-0.6,0.0,0.006510734558105469,0.010819196701049805,0
0.6964740753173828,-0.018920527771115303,-0.02756146341562271,-0.44673416018486023,-0.0033548698089070454,-0.47130395176389106,0.07054501834781812,-0.05805721890080612,0.021419994861608036,0.0,0.0,-0.6,0.0,0.0013735294342041016,0.006709098815917969,0
0.7066712379455566,-0.0175869632512331,-0.02576485462486744,-0.4539984464645386,-0.004941358111607293,-0.47223184012152863,0.08853750005885432,-0.055157161567831826,0.03153271079333968,0.0,0.0,-0.6,0.0,0.004736185073852539,0.010018587112426758,0
0.7179515361785889,-0.0175869632512331,-0.02576485462486744,-0.4539984464645386,-0.004941358111607293,-0.47223184012152863,0.08853750005885432,-0.055157161567831826,0.03153271079333968,0.0,0.0,-0.6,0.0,0.0011854171752929688,0.006276607513427734,0
0.7263922691345215,-0.01640687882900238,-0.02407032810151577,-0.4609241783618927,-0.006511518015978215,-0.4729502665653169,0.11720563429214104,-0.05355715798875551,0.04152481752615748,0.0,0.0,-0.6,0.0,0.005716085433959961,0.010482311248779297,0
0.7391457557678223,-0.01640687882900238,-0.02407032810151577,-0.4609241783618927,-0.006511518015978215,-0.4729502665653169,0.11720563429214104,-0.05355715798875551,0.04152481752615748,0.0,0.0,-0.6,0.0,0.0010957717895507812,0.005519866943359375,0
0.7499444484710693,-0.014862922951579094,-0.021833248436450958,-0.4707375168800354,-0.008815967096036324,-0.4731349020257094,0.20241183297987705,-0.07038800017591938,0.056163915918766814,0.0,0.0,-0.6,0.0,0.0053708553314208984,0.009480476379394531,0
0.7608568668365479,-0.014862922951579094,-0.021833248436450958,-0.4707375168800354,-0.008815967096036324,-0.4731349020257094,0.20241183297987705,-0.07038800017591938,0.056163915918766814,0.0,0.0,-0.6,0.0,0.001180410385131836,0.005013465881347656,0
0.7705016136169434,-0.014000504277646542,-0.020555663853883743,-0.4769729971885681,-0.010378214822628195,-0.47329223796797426,0.259318684678689,-0.09977507035059924,0.06613563224018561,0.0,0.0,-0.6,0.0,0.0054776668548583984,0.009562492370605469,0
0.7814977169036865,-0.014000504277646542,-0.020555663853883743,-0.4769729971885681,-0.010378214822628195,-0.47329223796797426,0.259318684678689,-0.09977507035059924,0.06613563224018561,0.0,0.0,-0.6,0.0,0.0011394023895263672,0.0048618316650390625,0
0.7897272109985352,-0.013613644056022167,-0.019981710240244865,-0.4800037741661072,-0.011151877989740273,-0.4738227227403816,0.2863948147087711,-0.11813499391501107,0.07108546583404209,0.0,0.0,-0.6,0.0,0.005232810974121094,0.009396076202392578,0
0.8028831481933594,-0.01325295865535736,-0.019449327141046524,-0.4829629957675934,-0.01193620340087508,-0.47470000953162095,0.3066648978416981,-0.13943375319681534,0.07612305912490891,0.0,0.0,-0.6,0.0,0.006750822067260742,0.011405706405639648,0
0.8168978691101074,-0.012639631517231464,-0.01848975010216236,-0.4886760115623474,-0.013161536818719274,-0.47607411811459166,0.32908407208153495,-0.20103563893937004,0.08407783745778116,0.0,0.0,-0.6,0.0,0.006174802780151367,0.010937929153442383,0
0.830047607421875,-0.012639631517231464,-0.01848975010216236,-0.4886760115623474,-0.013161536818719274,-0.47607411811459166,0.32908407208153495,-0.20103563893937004,0.08407783745778116,0.0,0.0,-0.6,0.0,0.0015208721160888672,0.006219387054443359,0
0.8404545783996582,-0.01188725233078003,-0.017191896215081215,-0.4967285692691803,-0.013965791815028149,-0.47670304160208465,0.32229776219700107,-0.23886881432786072,0.08930897687750099,0.0,0.0,-0.6,0.0,0.005347013473510742,0.01005411148071289,0
0.8523719310760498,-0.01188725233078003,-0.017191896215081215,-0.4967285692691803,-0.013965791815028149,-0.47670304160208465,0.32229776219700107,-0.23886881432786072,0.08930897687750099,0.0,0.0,-0.6,0.0,0.0012052059173583984,0.005413532257080078,0
0.8605573177337646,-0.011661544442176819,-0.016771327704191208,-0.49923744797706604,-0.01410837046918142,-0.47695544549049174,0.32185456780246957,-0.25174988582982893,0.09024216827707425,0.0,0.0,-0.6,0.0,0.006600856781005859,0.011542797088623047,0
0.8752048015594482,-0.011286798864603043,-0.01597478985786438,-0.5040212273597717,-0.014257477438478517,-0.4777221340966288,0.31176779178446246,-0.25976906220751067,0.09120237872236646,0.0,0.0,-0.6,0.0,0.006080150604248047,0.01096796989440918,0
0.8876857757568359,-0.011286798864603043,-0.01597478985786438,-0.5040212273597717,-0.014257477438478517,-0.4777221340966288,0.31176779178446246,-0.25976906220751067,0.09120237872236646,0.0,0.0,-0.6,0.0,0.001219034194946289,0.005634307861328125,0
0.8952147960662842,-0.01098691113293171,-0.015219924040138721,-0.5085996389389038,-0.014278691410186438,-0.47773960186054987,0.27771313088314903,-0.2548814811538318,0.09133690418781026,0.0,0.0,-0.6,0.0,0.0056209564208984375,0.009479284286499023,0
0.9075536727905273,-0.01098691113293171,-0.015219924040138721,-0.5085996389389038,-0.014278691410186438,-0.47773960186054987,0.27771313088314903,-0.2548814811538318,0.09133690418781026,0.0,0.0,-0.6,0.0,0.0012025833129882812,0.005072593688964844,0
0.9146404266357422,-0.010775234550237656,-0.014502969570457935,-0.5130029320716858,-0.014216088347012395,-0.47795622390310566,0.20777679172721167,-0.2356892149271421,0.09093599878996789,0.0,0.0,-0.6,0.0,0.005591154098510742,0.009258508682250977,0
0.9257411956787109,-0.010775234550237656,-0.014502969570457935,-0.5130029320716858,-0.014216088347012395,-0.47795622390310566,0.20777679172721167,-0.2356892149271421,0.09093599878996789,0.0,0.0,-0.6,0.0,0.0011396408081054688,0.0050313472747802734,0
0.9327759742736816,-0.010618729516863823,-0.013803074136376381,-0.5172180533409119,-0.014102477217491352,-0.4787625142283425,0.11498156610746015,-0.19384968609274422,0.09019559848002967,0.0,0.0,-0.6,0.0,0.005732059478759766,0.010018110275268555,0
0.9443223476409912,-0.010618729516863823,-0.013803074136376381,-0.5172180533409119,-0.014102477217491352,-0.4787625142283425,0.11498156610746015,-0.19384968609274422,0.09019559848002967,0.0,0.0,-0.6,0.0,0.0014567375183105469,0.005641460418701172,0
0.953061580657959,-0.010482204146683216,-0.013169310055673122,-0.5212199687957764,-0.013841934654179091,-0.48003986712129865,0.032388367211584175,-0.13766868025928372,0.08851135520105725,0.0,0.0,-0.6,0.0,0.005106449127197266,0.00960850715637207,0
0.9641075134277344,-0.010482204146683216,-0.013169310055673122,-0.5212199687957764,-0.013841934654179091,-0.48003986712129865,0.032388367211584175,-0.13766868025928372,0.08851135520105725,0.0,0.0,-0.6,0.0,0.0014448165893554688,0.006257772445678711,0
0.9731283187866211,-0.010431318543851376,-0.01288593653589487,-0.5231180191040039,-0.013695893587001122,-0.4811940862059437,-0.007895965012545948,-0.11773567825004806,0.08757002270776353,0.0,0.0,-0.6,0.0,0.005396366119384766,0.010371208190917969,0
0.9863066673278809,-0.010349249467253685,-0.012346317060291767,-0.5266628861427307,-0.013393580753722583,-0.48226861561614975,-0.068028160887912,-0.07209836342778468,0.085608212854339,0.0,0.0,-0.6,0.0,0.0050508975982666016,0.010181188583374023,0
0.9986310005187988,-0.010349249467253685,-0.012346317060291767,-0.5266628861427307,-0.013393580753722583,-0.48226861561614975,-0.068028160887912,-0.07209836342778468,0.085608212854339,0.0,0.0,-0.6,0.0,0.0013375282287597656,0.00570225715637207,0
1.0086417198181152,-0.010263283737003803,-0.011859479360282421,-0.5300112962722778,-0.013154692777230914,-0.48279414608541904,-0.11484195906810844,-0.03164927592464075,0.08404731274101797,0.0,0.0,-0.6,0.0,0.004985332489013672,0.010414600372314453,0
1.020941972732544,-0.010263283737003803,-0.011859479360282421,-0.5300112962722778,-0.013154692777230914,-0.48279414608541904,-0.11484195906810844,-0.03164927592464075,0.08404731274101797,0.0,0.0,-0.6,0.0,0.0011136531829833984,0.005505800247192383,0
1.0303540229797363,-0.010173860006034374,-0.011368649080395699,-0.5331812500953674,-0.012885182062512402,-0.4842274061749269,-0.17574768285515968,-0.003902665626088782,0.08226350355491349,0.0,0.0,-0.6,0.0,0.0053784847259521484,0.01055002212524414,0
1.0432829856872559,-0.010051439516246319,-0.010850946418941021,-0.5361869931221008,-0.012633692897112423,-0.48471164379402865,-0.22570420457092868,0.03500676140193099,0.08060159726881203,0.0,0.0,-0.6,0.0,0.004797935485839844,0.009969949722290039,0
1.0560941696166992,-0.010051439516246319,-0.010850946418941021,-0.5361869931221008,-0.012633692897112423,-0.48471164379402865,-0.22570420457092868,0.03500676140193099,0.08060159726881203,0.0,0.0,-0.6,0.0,0.0012514591217041016,0.006226778030395508,0
1.0645043849945068,-0.009873835369944572,-0.010298961773514748,-0.5390258431434631,-0.012251067521288949,-0.4851761892340698,-0.2745043804537099,0.0738559969267105,0.07809016960874535,0.0,0.0,-0.6,0.0,0.005467414855957031,0.009917020797729492,0
1.0759656429290771,-0.009873835369944572,-0.010298961773514748,-0.5390258431434631,-0.012251067521288949,-0.4851761892340698,-0.2745043804537099,0.0738559969267105,0.07809016960874535,0.0,0.0,-0.6,0.0,0.0014526844024658203,0.006953001022338867,0
1.0863840579986572,-0.009684719145298004,-0.00970500148832798,-0.5416017174720764,-0.011833824801196815,-0.48675254468027007,-0.32587416606343483,0.1050452533969659,0.07532364326026203,0.0,0.0,-0.6,0.0,0.004851341247558594,0.01024484634399414,0
1.0985186100006104,-0.009684719145298004,-0.00970500148832798,-0.5416017174720764,-0.011833824801196815,-0.48675254468027007,-0.32587416606343483,0.1050452533969659,0.07532364326026203,0.0,0.0,-0.6,0.0,0.0013580322265625,0.005975008010864258,0
1.1079607009887695,-0.009546525776386261,-0.00913253054022789,-0.5439751744270325,-0.011351025325046895,-0.48775241965384664,-0.3403286143266793,0.1336480226034698,0.07219623548132453,0.0,0.0,-0.6,0.0,0.00481414794921875,0.01002645492553711,0
1.120743751525879,-0.009546525776386261,-0.00913253054022789,-0.5439751744270325,-0.011351025325046895,-0.48775241965384664,-0.3403286143266793,0.1336480226034698,0.07219623548132453,0.0,0.0,-0.6,0.0,0.0013582706451416016,0.006081581115722656,0
1.1315996646881104,-0.009421690367162228,-0.008358295075595379,-0.5473410487174988,-0.010433040962341373,-0.487807460178702,-0.3296382329677878,0.18131669659573774,0.06637005724398634,0.0,0.0,-0.6,0.0,0.005470752716064453,0.010392427444458008,0
1.1437227725982666,-0.009421690367162228,-0.008358295075595379,-0.5473410487174988,-0.010433040962341373,-0.487807460178702,-0.3296382329677878,0.18131669659573774,0.06637005724398634,0.0,0.0,-0.6,0.0,0.0012099742889404297,0.005731105804443359,0
1.1518044471740723,-0.009317987598478794,-0.007855522446334362,-0.5495503544807434,-0.009768384193405717,-0.4872648972138721,-0.3029958155502252,0.22024499439636666,0.06219102856582284,0.0,0.0,-0.6,0.0,0.005301475524902344,0.01022028923034668,0
1.1637582778930664,-0.009317987598478794,-0.007855522446334362,-0.5495503544807434,-0.009768384193405717,-0.4872648972138721,-0.3029958155502252,0.22024499439636666,0.06219102856582284,0.0,0.0,-0.6,0.0,0.0012302398681640625,0.005898714065551758,0
1.1731202602386475,-0.009167136624455452,-0.0073171393014490604,-0.5516759157180786,-0.009022371341946684,-0.488016977318973,-0.28982499453862676,0.25855925729014495,0.05742958134408769,0.0,0.0,-0.6,0.0,0.005435943603515625,0.009882211685180664,0
1.1851975917816162,-0.009167136624455452,-0.0073171393014490604,-0.5516759157180786,-0.009022371341946684,-0.488016977318973,-0.28982499453862676,0.25855925729014495,0.05742958134408769,0.0,0.0,-0.6,0.0,0.0016450881958007812,0.00697636604309082,0
1.19464111328125,-0.008979875594377518,-0.006726633757352829,-0.5537216067314148,-0.008249685250604346,-0.48832094280970495,-0.2504243016735519,0.2926336057841433,0.05251940462733995,0.0,0.0,-0.6,0.0,0.004943370819091797,0.009791135787963867,0
1.2077007293701172,-0.008979875594377518,-0.006726633757352829,-0.5537216067314148,-0.008249685250604346,-0.48832094280970495,-0.2504243016735519,0.2926336057841433,0.05251940462733995,0.0,0.0,-0.6,0.0,0.0013859272003173828,0.006337881088256836,0
1.2166805267333984,-0.008748228661715984,-0.006090173963457346,-0.5556777119636536,-0.007508486676969295,-0.48912966566622984,-0.22133474389274704,0.3210377958226524,0.04776259788742466,0.0,0.0,-0.6,0.0,0.004637241363525391,0.00962209701538086,0
1.2279243469238281,-0.008748228661715984,-0.006090173963457346,-0.5556777119636536,-0.007508486676969295,-0.48912966566622984,-0.22133474389274704,0.3210377958226524,0.04776259788742466,0.0,0.0,-0.6,0.0,0.0012173652648925781,0.006058454513549805,0
1.236572504043579,-0.008462664671242237,-0.005409066565334797,-0.5575201511383057,-0.006806143266570937,-0.4895163314428763,-0.17185143744616774,0.33096608259749744,0.04327721720958119,0.0,0.0,-0.6,0.0,0.0050506591796875,0.009584426879882812,0
1.248852014541626,-0.008462664671242237,-0.005409066565334797,-0.5575201511383057,-0.006806143266570937,-0.4895163314428763,-0.17185143744616774,0.33096608259749744,0.04327721720958119,0.0,0.0,-0.6,0.0,0.0011799335479736328,0.005664825439453125,0
1.2576260566711426,-0.008122243918478489,-0.004717433825135231,-0.5593392848968506,-0.006165761219904321,-0.48950167393181077,-0.11623530963045962,0.3229469688198903,0.03918769873326319,0.0,0.0,-0.6,0.0,0.004580974578857422,0.009000539779663086,0
1.269456148147583,-0.008122243918478489,-0.004717433825135231,-0.5593392848968506,-0.006165761219904321,-0.48950167393181077,-0.11623530963045962,0.3229469688198903,0.03918769873326319,0.0,0.0,-0.6,0.0,0.0015273094177246094,0.0061130523681640625,0
1.2798423767089844,-0.007731945253908634,-0.004039178602397442,-0.5611125826835632,-0.0056030550289949245,-0.4896715577177885,-0.05841551400740937,0.307210401535989,0.035589046768949355,0.0,0.0,-0.6,0.0,0.004732370376586914,0.009612083435058594,0
1.2921462059020996,-0.007322728168219328,-0.003361162729561329,-0.5628252029418945,-0.005105705539834293,-0.49016973595717905,-0.009893111535167044,0.26475309616852893,0.032417154855779715,0.0,0.0,-0.6,0.0,0.0052471160888671875,0.01006770133972168,0
1.3045356273651123,-0.007322728168219328,-0.003361162729561329,-0.5628252029418945,-0.005105705539834293,-0.49016973595717905,-0.009893111535167044,0.26475309616852893,0.032417154855779715,0.0,0.0,-0.6,0.0,0.0011782646179199219,0.005568504333496094,0
1.3130207061767578,-0.006926146801561117,-0.002687846077606082,-0.5644389390945435,-0.004718712519075921,-0.4904611195409946,0.03427004368025092,0.2050385142781288,0.029975271869718923,0.0,0.0,-0.6,0.0,0.0051996707916259766,0.010617733001708984,0
1.3251001834869385,-0.006926146801561117,-0.002687846077606082,-0.5644389390945435,-0.004718712519075921,-0.4904611195409946,0.03427004368025092,0.2050385142781288,0.029975271869718923,0.0,0.0,-0.6,0.0,0.0014638900756835938,0.006220817565917969,0
1.3337624073028564,-0.00655248761177063,-0.002038836944848299,-0.5659596920013428,-0.004426885965352384,-0.49115174296066166,0.0729136773204488,0.1256177965588582,0.028173222887386874,0.0,0.0,-0.6,0.0,0.005676984786987305,0.010631322860717773,0
1.346506118774414,-0.00655248761177063,-0.002038836944848299,-0.5659596920013428,-0.004426885965352384,-0.49115174296066166,0.0729136773204488,0.1256177965588582,0.028173222887386874,0.0,0.0,-0.6,0.0,0.0013759136199951172,0.006242990493774414,0
1.3548967838287354,-0.006211122963577509,-0.001396326581016183,-0.5673137903213501,-0.004233687697619886,-0.4926149894901727,0.09633189632773485,0.04495272772545212,0.027010610188613723,0.0,0.0,-0.6,0.0,0.00546717643737793,0.009963512420654297,0
1.3665039539337158,-0.006211122963577509,-0.001396326581016183,-0.5673137903213501,-0.004233687697619886,-0.4926149894901727,0.09633189632773485,0.04495272772545212,0.027010610188613723,0.0,0.0,-0.6,0.0,0.001169443130493164,0.006057262420654297,0
1.375410556793213,-0.005842762067914009,-0.0007549983565695584,-0.5684431791305542,-0.004017660864199836,-0.4936291558286856,0.10243356634214934,-0.0073305956625984575,0.02567205746592292,0.0,0.0,-0.6,0.0,0.0050868988037109375,0.010499238967895508,0
1.388096570968628,-0.005842762067914009,-0.0007549983565695584,-0.5684431791305542,-0.004017660864199836,-0.4936291558286856,0.10243356634214934,-0.0073305956625984575,0.02567205746592292,0.0,0.0,-0.6,0.0,0.0015883445739746094,0.006711244583129883,0
1.3981859683990479,-0.005451751872897148,-0.00012398110993672162,-0.5694438815116882,-0.003761786740813707,-0.49415094485681244,0.11476656815263364,-0.060464193491621875,0.024084617077203926,0.0,0.0,-0.6,0.0,0.004560947418212891,0.010166168212890625,0
1.4112529754638672,-0.005263528786599636,0.00017151913198176771,-0.5699163675308228,-0.003603332941574564,-0.4940602931963425,0.12946292650852423,-0.0812523346181024,0.02307726628942018,0.0,0.0,-0.6,0.0,0.005513191223144531,0.010544300079345703,0
1.4245946407318115,-0.004891741555184126,0.0006616833852604032,-0.5708755850791931,-0.0033490610386973326,-0.4934651003803101,0.17624594024899337,-0.11632660658791093,0.021427701448814385,0.0,0.0,-0.6,0.0,0.0051534175872802734,0.009927511215209961,0
1.4362571239471436,-0.004891741555184126,0.0006616833852604032,-0.5708755850791931,-0.0033490610386973326,-0.4934651003803101,0.17624594024899337,-0.11632660658791093,0.021427701448814385,0.0,0.0,-0.6,0.0,0.0017540454864501953,0.006846189498901367,0
1.4450249671936035,-0.004566180054098368,0.001024452387355268,-0.5718772411346436,-0.003108117085831684,-0.4932410420215835,0.21164557245554302,-0.13569360842899178,0.019845704514763664,0.0,0.0,-0.6,0.0,0.0047223567962646484,0.009669780731201172,0
1.4563486576080322,-0.004566180054098368,0.001024452387355268,-0.5718772411346436,-0.003108117085831684,-0.4932410420215835,0.21164557245554302,-0.13569360842899178,0.019845704514763664,0.0,0.0,-0.6,0.0,0.0014591217041015625,0.006367683410644531,0
1.466064691543579,-0.004300048109143972,0.001332047046162188,-0.5727355480194092,-0.0028374112310516086,-0.4941820821244428,0.24066054528169092,-0.1360616498784268,0.018053795040842195,0.0,0.0,-0.6,0.0,0.005011081695556641,0.009602785110473633,0
1.4774808883666992,-0.004300048109143972,0.001332047046162188,-0.5727355480194092,-0.0028374112310516086,-0.4941820821244428,0.24066054528169092,-0.1360616498784268,0.018053795040842195,0.0,0.0,-0.6,0.0,0.0015685558319091797,0.006298542022705078,0
1.4869468212127686,-0.0040764715522527695,0.0015639779157936573,-0.5734466910362244,-0.0024948088669457056,-0.49448348262166675,0.2591531590785307,-0.12471231094292755,0.015813333571136866,0.0,0.0,-0.6,0.0,0.004790782928466797,0.009951591491699219,0
1.4990441799163818,-0.0040764715522527695,0.0015639779157936573,-0.5734466910362244,-0.0024948088669457056,-0.49448348262166675,0.2591531590785307,-0.12471231094292755,0.015813333571136866,0.0,0.0,-0.6,0.0,0.0012879371643066406,0.0063037872314453125,0
1.5094876289367676,-0.003935626242309809,0.0016997985076159239,-0.574116587638855,-0.0020463109424017135,-0.4941832412119317,0.2740543284868137,-0.12766631318466248,0.012929022914582783,0.0,0.0,-0.6,0.0,0.005072593688964844,0.010031461715698242,0
1.5218214988708496,-0.003912622574716806,0.0017233440885320306,-0.5748024582862854,-0.001673677288047792,-0.4937337054153613,0.27293729420866475,-0.14410103318515838,0.010560646854037774,0.0,0.0,-0.6,0.0,0.00543975830078125,0.010384321212768555,0
1.5345776081085205,-0.003912622574716806,0.0017233440885320306,-0.5748024582862854,-0.001673677288047792,-0.4937337054153613,0.27293729420866475,-0.14410103318515838,0.010560646854037774,0.0,0.0,-0.6,0.0,0.0011563301086425781,0.006062746047973633,0
1.5437002182006836,-0.004005336202681065,0.0016508345725014806,-0.5754646062850952,-0.0013927061363322069,-0.4939989401761714,0.2593081638162221,-0.16705728952698612,0.008789914538292512,0.0,0.0,-0.6,0.0,0.005460500717163086,0.010022401809692383,0
1.555361270904541,-0.004005336202681065,0.0016508345725014806,-0.5754646062850952,-0.0013927061363322069,-0.4939989401761714,0.2593081638162221,-0.16705728952698612,0.008789914538292512,0.0,0.0,-0.6,0.0,0.0012655258178710938,0.0055506229400634766,0
1.5637528896331787,-0.00418791314586997,0.0014919546665623784,-0.576082170009613,-0.0010790548648975853,-0.49377942798133756,0.24753938098697673,-0.1931733174587058,0.0068003257169028065,0.0,0.0,-0.6,0.0,0.005086421966552734,0.009679555892944336,0
1.5754482746124268,-0.00418791314586997,0.0014919546665623784,-0.576082170009613,-0.0010790548648975853,-0.49377942798133756,0.24753938098697673,-0.1931733174587058,0.0068003257169028065,0.0,0.0,-0.6,0.0,0.0012116432189941406,0.006430149078369141,0
1.5843408107757568,-0.004468817729502916,0.0012905277544632554,-0.5766050815582275,-0.0008244924779487609,-0.49462748328267736,0.21827003880663112,-0.22127035766986589,0.005196108782896753,0.0,0.0,-0.6,0.0,0.0052983760833740234,0.00973367691040039,0
1.5969676971435547,-0.004468817729502916,0.0012905277544632554,-0.5766050815582275,-0.0008244924779487609,-0.49462748328267736,0.21827003880663112,-0.22127035766986589,0.005196108782896753,0.0,0.0,-0.6,0.0,0.0015027523040771484,0.006619691848754883,0
1.6072142124176025,-0.004805371630936861,0.0010516230249777436,-0.5769954323768616,-0.0004713267123054585,-0.49552944605199944,0.18108680589583317,-0.24008437925160067,0.002943710384717742,0.0,0.0,-0.6,0.0,0.00455021858215332,0.009886503219604492,0
1.619791030883789,-0.004805371630936861,0.0010516230249777436,-0.5769954323768616,-0.0004713267123054585,-0.49552944605199944,0.18108680589583317,-0.24008437925160067,0.002943710384717742,0.0,0.0,-0.6,0.0,0.001605987548828125,0.006182193756103516,0
1.6302416324615479,-0.005342234391719103,0.0006103568011894822,-0.5774509906768799,-2.5961391759174455e-05,-0.4965742756279511,0.09871843526250874,-0.2526106246328522,8.042626867971364e-05,0.0,0.0,-0.6,0.0,0.004918575286865234,0.009698152542114258,0
1.6413440704345703,-0.005342234391719103,0.0006103568011894822,-0.5774509906768799,-2.5961391759174455e-05,-0.4965742756279511,0.09871843526250874,-0.2526106246328522,8.042626867971364e-05,0.0,0.0,-0.6,0.0,0.0014057159423828125,0.006648063659667969,0
1.650515079498291,-0.00576048856601119,0.00025693420320749283,-0.5777662396430969,0.0001319885938906407,-0.4967379503808723,0.04405050496563356,-0.2651159703269034,-0.0009683967147298967,0.0,0.0,-0.6,0.0,0.005194187164306641,0.00971364974975586,0
1.6617400646209717,-0.00576048856601119,0.00025693420320749283,-0.5777662396430969,0.0001319885938906407,-0.4967379503808723,0.04405050496563356,-0.2651159703269034,-0.0009683967147298967,0.0,0.0,-0.6,0.0,0.0016472339630126953,0.00710749626159668,0
1.671334981918335,-0.0059915753081440926,7.101934897946194e-05,-0.5779297351837158,0.00017303337606548283,-0.49700738444998527,0.018335674718915736,-0.2625712193548875,-0.0012562390544848872,0.0,0.0,-0.6,0.0,0.0053632259368896484,0.01007080078125,0
1.684239149093628,-0.006490249652415514,-0.00028446828946471214,-0.5781698822975159,0.0001997437606458977,-0.4982018876735341,-0.032368568993526914,-0.24014824819124178,-0.001479705494171908,0.0,0.0,-0.6,0.0,0.005515336990356445,0.010035037994384766,0
1.6961257457733154,-0.006490249652415514,-0.00028446828946471214,-0.5781698822975159,0.0001997437606458977,-0.4982018876735341,-0.032368568993526914,-0.24014824819124178,-0.001479705494171908,0.0,0.0,-0.6,0.0,0.0012400150299072266,0.006541252136230469,0
1.706920862197876,-0.006997527554631233,-0.0006370291230268776,-0.5783094763755798,0.0002639274591708204,-0.4983678033644987,-0.05994671653614936,-0.1877611385271942,-0.001911501307782124,0.0,0.0,-0.6,0.0,0.00479578971862793,0.009708881378173828,0
1.7187001705169678,-0.006997527554631233,-0.0006370291230268776,-0.5783094763755798,0.0002639274591708204,-0.4983678033644987,-0.05994671653614936,-0.1877611385271942,-0.001911501307782124,0.0,0.0,-0.6,0.0,0.0015032291412353516,0.006806135177612305,0
1.7285404205322266,-0.007490292191505432,-0.000994609552435577,-0.5784591436386108,0.0004015767063494574,-0.4981352764953425,-0.05635860690172165,-0.14040442076000328,-0.0027811475832702193,0.0,0.0,-0.6,0.0,0.004754781723022461,0.009979009628295898,0
1.7406244277954102,-0.008003137074410915,-0.0013808663934469223,-0.5786682367324829,0.00032135792592180205,-0.49780683459312436,-0.04479263322934434,-0.09072372342873333,-0.002221413986312057,0.0,0.0,-0.6,0.0,0.005445241928100586,0.009894609451293945,0
1.753117561340332,-0.008003137074410915,-0.0013808663934469223,-0.5786682367324829,0.00032135792592180205,-0.49780683459312436,-0.04479263322934434,-0.09072372342873333,-0.002221413986312057,0.0,0.0,-0.6,0.0,0.0012240409851074219,0.006981611251831055,0
1.7615196704864502,-0.008532869629561901,-0.0017386985709890723,-0.5789445638656616,0.0002845109874612973,-0.4971107878914405,-0.04913769379940715,-0.040457630626453425,-0.0019415187251327392,0.0,0.0,-0.6,0.0,0.0051729679107666016,0.009577751159667969,0
1.772982120513916,-0.008532869629561901,-0.0017386985709890723,-0.5789445638656616,0.0002845109874612973,-0.4971107878914405,-0.04913769379940715,-0.040457630626453425,-0.0019415187251327392,0.0,0.0,-0.6,0.0,0.001337289810180664,0.006306886672973633,0
1.7814648151397705,-0.008795308880507946,-0.0018953941762447357,-0.5790830254554749,0.00029429266228928465,-0.4971188873921877,-0.047043864385684704,-0.00988260450596332,-0.0019704698583243754,0.0,0.0,-0.6,0.0,0.005615711212158203,0.010278463363647461,0
1.795069932937622,-0.009304499253630638,-0.0021861144341528416,-0.5793646574020386,0.0003626471600924507,-0.496697503682907,-0.02804561039985294,0.050525100088905095,-0.0023151723727770457,0.0,0.0,-0.6,0.0,0.004911661148071289,0.010222911834716797,0
1.8079876899719238,-0.009304499253630638,-0.0021861144341528416,-0.5793646574020386,0.0003626471600924507,-0.496697503682907,-0.02804561039985294,0.050525100088905095,-0.0023151723727770457,0.0,0.0,-0.6,0.0,0.0013475418090820312,0.0061109066009521484,0
1.8179423809051514,-0.009810671210289001,-0.002456628018990159,-0.5797016620635986,0.00043124077249163045,-0.49618565745250864,-0.013373758147844306,0.08591009081748348,-0.0026914674972737386,0.0,0.0,-0.6,0.0,0.004959821701049805,0.009482860565185547,0
1.8295807838439941,-0.010324663482606411,-0.002703988691791892,-0.5800631642341614,0.00048542052201759,-0.49553751192632145,-0.0015655255013971327,0.11517839563020103,-0.0029854815357880475,0.0,0.0,-0.6,0.0,0.004765510559082031,0.009395360946655273,0
1.8406774997711182,-0.010324663482606411,-0.002703988691791892,-0.5800631642341614,0.00048542052201759,-0.49553751192632145,-0.0015655255013971327,0.11517839563020103,-0.0029854815357880475,0.0,0.0,-0.6,0.0,0.0011432170867919922,0.00496363639831543,0
1.8496627807617188,-0.010801631957292557,-0.0029253209941089153,-0.5804846286773682,0.0003961445349688451,-0.49540333818294624,0.007789411980332267,0.15005342027168708,-0.002364684385721173,0.0,0.0,-0.6,0.0,0.005438327789306641,0.010469436645507812,0
1.8618428707122803,-0.010801631957292557,-0.0029253209941089153,-0.5804846286773682,0.0003961445349688451,-0.49540333818294624,0.007789411980332267,0.15005342027168708,-0.002364684385721173,0.0,0.0,-0.6,0.0,0.0011630058288574219,0.005545377731323242,0
1.8704791069030762,-0.011256149969995022,-0.003104428993538022,-0.5808951258659363,0.00046220914809531297,-0.49532294059256143,0.003748180281650243,0.1750767255922676,-0.002780727917109619,0.0,0.0,-0.6,0.0,0.005434274673461914,0.010288476943969727,0
1.8823037147521973,-0.011256149969995022,-0.003104428993538022,-0.5808951258659363,0.00046220914809531297,-0.49532294059256143,0.003748180281650243,0.1750767255922676,-0.002780727917109619,0.0,0.0,-0.6,0.0,0.001169443130493164,0.005934476852416992,0
1.8911759853363037,-0.011709384620189667,-0.003235792275518179,-0.5812459588050842,0.0005985582537942685,-0.4956663917773483,-0.005659828322271689,0.18792196760050098,-0.0036673622504811722,0.0,0.0,-0.6,0.0,0.005516529083251953,0.010369539260864258,0
1.9045183658599854,-0.011709384620189667,-0.003235792275518179,-0.5812459588050842,0.0005985582537942685,-0.4956663917773483,-0.005659828322271689,0.18792196760050098,-0.0036673622504811722,0.0,0.0,-0.6,0.0,0.001897573471069336,0.00668787956237793,0
1.9136967658996582,-0.012148055247962475,-0.003298608586192131,-0.5815166234970093,0.0007319258011916843,-0.4961413090170622,-0.031840386195957554,0.20031533083990574,-0.004565937343550195,0.0,0.0,-0.6,0.0,0.00482630729675293,0.009737491607666016,0
1.925954818725586,-0.012148055247962475,-0.003298608586192131,-0.5815166234970093,0.0007319258011916843,-0.4961413090170622,-0.031840386195957554,0.20031533083990574,-0.004565937343550195,0.0,0.0,-0.6,0.0,0.0015952587127685547,0.006968021392822266,0
1.9352693557739258,-0.012568400241434574,-0.0033062833826988935,-0.5816784501075745,0.0009379794845309494,-0.4967223073542749,-0.05266352092902517,0.1989409300913972,-0.005921413271838126,0.0,0.0,-0.6,0.0,0.004831790924072266,0.009650707244873047,0
1.9470434188842773,-0.012568400241434574,-0.0033062833826988935,-0.5816784501075745,0.0009379794845309494,-0.4967223073542749,-0.05266352092902517,0.1989409300913972,-0.005921413271838126,0.0,0.0,-0.6,0.0,0.0013685226440429688,0.0061228275299072266,0
1.955550193786621,-0.012929481454193592,-0.0032681215088814497,-0.5816752314567566,0.0010477285897243964,-0.4977427989085853,-0.07324846613562244,0.2041986634852003,-0.006646793882570198,0.0,0.0,-0.6,0.0,0.004899024963378906,0.009674310684204102,0
1.9672422409057617,-0.012929481454193592,-0.0032681215088814497,-0.5816752314567566,0.0010477285897243964,-0.4977427989085853,-0.07324846613562244,0.2041986634852003,-0.006646793882570198,0.0,0.0,-0.6,0.0,0.0012011528015136719,0.005720376968383789,0
1.9756450653076172,-0.013183890841901302,-0.0032188312616199255,-0.5815491676330566,0.0011814519986506954,-0.4985958595768457,-0.08253280377719703,0.21317724707794888,-0.00749441357861831,0.0,0.0,-0.6,0.0,0.005276203155517578,0.009812593460083008,0
1.9867947101593018,-0.013183890841901302,-0.0032188312616199255,-0.5815491676330566,0.0011814519986506954,-0.4985958595768457,-0.08253280377719703,0.21317724707794888,-0.00749441357861831,0.0,0.0,-0.6,0.0,0.0016160011291503906,0.006348133087158203,0
1.9961705207824707,-0.013354484923183918,-0.003183953696861863,-0.5813395977020264,0.0014202152414919337,-0.49945979155910813,-0.08546638062681255,0.20720610802682746,-0.009017547129918972,0.0,0.0,-0.6,0.0,0.004833698272705078,0.010435342788696289,0
2.0089104175567627,-0.013354484923183918,-0.003183953696861863,-0.5813395977020264,0.0014202152414919337,-0.49945979155910813,-0.08546638062681255,0.20720610802682746,-0.009017547129918972,0.0,0.0,-0.6,0.0,0.001478433609008789,0.005926847457885742,0
2.0184013843536377,-0.01348838396370411,-0.003164368448778987,-0.5810900330543518,0.001652439657385815,-0.49966979546411205,-0.08309928978597485,0.18884469305401808,-0.010509338158024807,0.0,0.0,-0.6,0.0,0.004914999008178711,0.010279417037963867,0
2.0312554836273193,-0.013550018891692162,-0.003150510834529996,-0.58095782995224,0.0017521063540329694,-0.49994385317235857,-0.08464183993558418,0.17238110773508314,-0.011162702819744663,0.0,0.0,-0.6,0.0,0.005544900894165039,0.010411739349365234,0
2.044950246810913,-0.013678488321602345,-0.0030608398374170065,-0.5806258320808411,0.0019498062202661028,-0.5008889102361219,-0.08645467605483023,0.1378189274164126,-0.012453679436076129,0.0,0.0,-0.6,0.0,0.004809379577636719,0.010274171829223633,0
2.0571515560150146,-0.013678488321602345,-0.0030608398374170065,-0.5806258320808411,0.0019498062202661028,-0.5008889102361219,-0.08645467605483023,0.1378189274164126,-0.012453679436076129,0.0,0.0,-0.6,0.0,0.0014643669128417969,0.006246328353881836,0
2.0670478343963623,-0.013758528046309948,-0.0028938697651028633,-0.5801522731781006,0.002010460886297097,-0.502216266855054,-0.08483502409185047,0.10330223901819675,-0.012858993633194848,0.0,0.0,-0.6,0.0,0.004545450210571289,0.009588479995727539,0
2.0786325931549072,-0.013758528046309948,-0.0028938697651028633,-0.5801522731781006,0.002010460886297097,-0.502216266855054,-0.08483502409185047,0.10330223901819675,-0.012858993633194848,0.0,0.0,-0.6,0.0,0.0015149116516113281,0.00606536865234375,0
2.0882935523986816,-0.013753036968410015,-0.002667447552084923,-0.5795555710792542,0.0021476079966690695,-0.5028572917787089,-0.07317147708266938,0.07901496455242991,-0.013734428125215453,0.0,0.0,-0.6,0.0,0.0050640106201171875,0.009565114974975586,0
2.10117506980896,-0.013682233169674873,-0.0024400418624281883,-0.5788776278495789,0.002320820266724993,-0.5035130755908045,-0.05680811766035171,0.038980766243105425,-0.014850816168023036,0.0,0.0,-0.6,0.0,0.005259990692138672,0.010303258895874023,0
2.1137657165527344,-0.013682233169674873,-0.0024400418624281883,-0.5788776278495789,0.002320820266724993,-0.5035130755908045,-0.05680811766035171,0.038980766243105425,-0.014850816168023036,0.0,0.0,-0.6,0.0,0.0016293525695800781,0.006669282913208008,0
2.122765064239502,-0.013629669323563576,-0.0022435488644987345,-0.5781883001327515,0.0023389947287826966,-0.5036407673224919,-0.03623586316944863,-0.016957264945438394,-0.014983844039814844,0.0,0.0,-0.6,0.0,0.005596160888671875,0.010504722595214844,0
2.135146141052246,-0.013629669323563576,-0.0022435488644987345,-0.5781883001327515,0.0023389947287826966,-0.5036407673224919,-0.03623586316944863,-0.016957264945438394,-0.014983844039814844,0.0,0.0,-0.6,0.0,0.001585245132446289,0.006513357162475586,0
2.1446619033813477,-0.013634128496050835,-0.002023957436904311,-0.5774462819099426,0.0023117304359829,-0.5044832369463212,-0.039692641216607885,-0.06515510554072142,-0.01481721262023267,0.0,0.0,-0.6,0.0,0.005072116851806641,0.009570837020874023,0
2.1562891006469727,-0.013634128496050835,-0.002023957436904311,-0.5774462819099426,0.0023117304359829,-0.5044832369463212,-0.039692641216607885,-0.06515510554072142,-0.01481721262023267,0.0,0.0,-0.6,0.0,0.00113677978515625,0.006363868713378906,0
2.1651535034179688,-0.013658196665346622,-0.001744400360621512,-0.576571524143219,0.0022574512379555634,-0.5055699995052414,-0.03222071725506208,-0.10722341763287391,-0.014469223432465738,0.0,0.0,-0.6,0.0,0.004669666290283203,0.009928703308105469,0
2.1772866249084473,-0.013658196665346622,-0.001744400360621512,-0.576571524143219,0.0022574512379555634,-0.5055699995052414,-0.03222071725506208,-0.10722341763287391,-0.014469223432465738,0.0,0.0,-0.6,0.0,0.0011599063873291016,0.006411314010620117,0
2.1860411167144775,-0.013667305931448936,-0.0014957910170778632,-0.575654149055481,0.002260432010114957,-0.5055419300073063,-0.003595052187697057,-0.1410413323209348,-0.014490425422167797,0.0,0.0,-0.6,0.0,0.0043947696685791016,0.008699655532836914,0
2.1978678703308105,-0.013667305931448936,-0.0014957910170778632,-0.575654149055481,0.002260432010114957,-0.5055419300073063,-0.003595052187697057,-0.1410413323209348,-0.014490425422167797,0.0,0.0,-0.6,0.0,0.0011985301971435547,0.006516933441162109,0
2.2076022624969482,-0.013698054477572441,-0.0012622624635696411,-0.574830174446106,0.002369602489927607,-0.505142777802195,0.004948326579809765,-0.17417299430213312,-0.015178939528757217,0.0,0.0,-0.6,0.0,0.004903078079223633,0.009884357452392578,0
2.2200264930725098,-0.013698054477572441,-0.0012622624635696411,-0.574830174446106,0.002369602489927607,-0.505142777802195,0.004948326579809765,-0.17417299430213312,-0.015178939528757217,0.0,0.0,-0.6,0.0,0.001234292984008789,0.006283283233642578,0
2.2293758392333984,-0.013756553642451763,-0.0008829215075820684,-0.5736596584320068,0.00211729550082648,-0.5054962861206025,0.004926562961626128,-0.19583566648223397,-0.013539615270481116,0.0,0.0,-0.6,0.0,0.005182981491088867,0.009949207305908203,0
2.2412023544311523,-0.013756553642451763,-0.0008829215075820684,-0.5736596584320068,0.00211729550082648,-0.5054962861206025,0.004926562961626128,-0.19583566648223397,-0.013539615270481116,0.0,0.0,-0.6,0.0,0.0016181468963623047,0.006700754165649414,0
2.250304698944092,-0.013716472312808037,-0.0005862712278030813,-0.5728908181190491,0.0020564839696898297,-0.5053867080030434,0.010087527501454802,-0.17735189961328746,-0.013149515518190135,0.0,0.0,-0.6,0.0,0.005129098892211914,0.010032176971435547,0
2.2624595165252686,-0.013716472312808037,-0.0005862712278030813,-0.5728908181190491,0.0020564839696898297,-0.5053867080030434,0.010087527501454802,-0.17735189961328746,-0.013149515518190135,0.0,0.0,-0.6,0.0,0.0015723705291748047,0.0071566104888916016,0
2.2720115184783936,-0.013652285560965538,-0.00032627323525957763,-0.572222113609314,0.002053754122789417,-0.5045448629393647,0.023650579602973634,-0.17615742473371257,-0.013133330792255371,0.0,0.0,-0.6,0.0,0.004506111145019531,0.009451866149902344,0
2.284130096435547,-0.013652285560965538,-0.00032627323525957763,-0.572222113609314,0.002053754122789417,-0.5045448629393647,0.023650579602973634,-0.17615742473371257,-0.013133330792255371,0.0,0.0,-0.6,0.0,0.0014660358428955078,0.0062062740325927734,0
2.2928273677825928,-0.01365412026643753,-0.00011257053847657517,-0.5716555118560791,0.001992387339619765,-0.5040195276950077,0.02650051421253323,-0.17536390376032213,-0.0127299087424165,0.0,0.0,-0.6,0.0,0.0051195621490478516,0.009878873825073242,0
2.306253671646118,-0.01365412026643753,-0.00011257053847657517,-0.5716555118560791,0.001992387339619765,-0.5040195276950077,0.02650051421253323,-0.17536390376032213,-0.0127299087424165,0.0,0.0,-0.6,0.0,0.0014033317565917969,0.006923675537109375,0
2.3153626918792725,-0.013764663599431515,0.00012403186701703817,-0.5710864663124084,0.0019253615781952482,-0.5042363493784197,0.01807597787237202,-0.1637304388800096,-0.012293221545060835,0.0,0.0,-0.6,0.0,0.005121946334838867,0.009710550308227539,0
2.328589916229248,-0.013853834010660648,0.00025994653697125614,-0.5708057880401611,0.0018039659322222244,-0.5042313529877241,0.018112957358905276,-0.14505886918542454,-0.011517246357831992,0.0,0.0,-0.6,0.0,0.0056073665618896484,0.010489225387573242,0
2.342212438583374,-0.014051777310669422,0.0005272518610581756,-0.5702341794967651,0.0016613742031552526,-0.5045482470595402,0.011275359014760379,-0.09613572493292545,-0.01061234303467589,0.0,0.0,-0.6,0.0,0.00516963005065918,0.010013103485107422,0
2.3539743423461914,-0.014051777310669422,0.0005272518610581756,-0.5702341794967651,0.0016613742031552526,-0.5045482470595402,0.011275359014760379,-0.09613572493292545,-0.01061234303467589,0.0,0.0,-0.6,0.0,0.0011737346649169922,0.005597114562988281,0
2.362706422805786,-0.014277328737080097,0.0007922930526547134,-0.569674015045166,0.0016841448891623159,-0.5045677710649736,0.004887239613463036,-0.05353445589128579,-0.010766658610639433,0.0,0.0,-0.6,0.0,0.0050258636474609375,0.009777545928955078,0
2.374300003051758,-0.014277328737080097,0.0007922930526547134,-0.569674015045166,0.0016841448891623159,-0.5045677710649736,0.004887239613463036,-0.05353445589128579,-0.010766658610639433,0.0,0.0,-0.6,0.0,0.0011973381042480469,0.0056116580963134766,0
2.383354663848877,-0.0145883709192276,0.0010033167200163007,-0.5691403150558472,0.0016154414606256338,-0.504287855905407,0.001862218246241081,-0.03171883279975086,-0.010330481747124773,0.0,0.0,-0.6,0.0,0.004806041717529297,0.00982666015625,0
2.394961357116699,-0.0145883709192276,0.0010033167200163007,-0.5691403150558472,0.0016154414606256338,-0.504287855905407,0.001862218246241081,-0.03171883279975086,-0.010330481747124773,0.0,0.0,-0.6,0.0,0.0011756420135498047,0.0065250396728515625,0
2.404188871383667,-0.014975456520915031,0.0012345934519544244,-0.5686166286468506,0.0014600082778217945,-0.5043004975024531,-0.006979984947069409,-0.004632886401658745,-0.009343564145896233,0.0,0.0,-0.6,0.0,0.005254507064819336,0.010017871856689453,0
2.417149066925049,-0.014975456520915031,0.0012345934519544244,-0.5686166286468506,0.0014600082778217945,-0.5043004975024531,-0.006979984947069409,-0.004632886401658745,-0.009343564145896233,0.0,0.0,-0.6,0.0,0.0016112327575683594,0.006498813629150391,0
2.4259979724884033,-0.015333075076341629,0.0014937780797481537,-0.5680628418922424,0.0012965638019959108,-0.5046598061762021,-0.01578313816154894,0.01955588579270413,-0.008307562892586965,0.0,0.0,-0.6,0.0,0.004768848419189453,0.010162830352783203,0
2.4397289752960205,-0.015669986605644226,0.0017310507828369737,-0.5675683617591858,0.001156815636394361,-0.5034255469470044,-0.016084494578322995,0.025208012454982213,-0.007416036620584678,0.0,0.0,-0.6,0.0,0.005089759826660156,0.009838104248046875,0
2.451927423477173,-0.015669986605644226,0.0017310507828369737,-0.5675683617591858,0.001156815636394361,-0.5034255469470044,-0.016084494578322995,0.025208012454982213,-0.007416036620584678,0.0,0.0,-0.6,0.0,0.0015716552734375,0.006173610687255859,0
2.4602856636047363,-0.016002202406525612,0.001968237804248929,-0.5672160387039185,0.0011091232343132936,-0.5023092196187426,-0.030545904556682053,0.02136760678930077,-0.007129001754998998,0.0,0.0,-0.6,0.0,0.005604267120361328,0.010255813598632812,0
2.4720818996429443,-0.016002202406525612,0.001968237804248929,-0.5672160387039185,0.0011091232343132936,-0.5023092196187426,-0.030545904556682053,0.02136760678930077,-0.007129001754998998,0.0,0.0,-0.6,0.0,0.0015959739685058594,0.00610041618347168,0
2.480807065963745,-0.016371188685297966,0.002193903084844351,-0.5669045448303223,0.0009672852999386915,-0.5023984847009652,-0.03770740261151887,-0.0033726047856633707,-0.006235239867105335,0.0,0.0,-0.6,0.0,0.005708456039428711,0.010210990905761719,0
2.4929237365722656,-0.016371188685297966,0.002193903084844351,-0.5669045448303223,0.0009672852999386915,-0.5023984847009652,-0.03770740261151887,-0.0033726047856633707,-0.006235239867105335,0.0,0.0,-0.6,0.0,0.0012149810791015625,0.005511045455932617,0
2.5022170543670654,-0.016729895025491714,0.0024327237624675035,-0.5666313767433167,0.0006612973282535042,-0.5019838853316504,-0.04381935058345404,-0.005418532449911376,-0.004285232705911995,0.0,0.0,-0.6,0.0,0.005288600921630859,0.010355949401855469,0
2.51387619972229,-0.016729895025491714,0.0024327237624675035,-0.5666313767433167,0.0006612973282535042,-0.5019838853316504,-0.04381935058345404,-0.005418532449911376,-0.004285232705911995,0.0,0.0,-0.6,0.0,0.0015273094177246094,0.006624698638916016,0
2.5239219665527344,-0.017043953761458397,0.002694488735869527,-0.5663929581642151,0.0005105898104018542,-0.5014310623519546,-0.06347652906479732,-0.0041258339776782445,-0.0033421954938627043,0.0,0.0,-0.6,0.0,0.005187273025512695,0.010045289993286133,0
2.5355064868927,-0.017043953761458397,0.002694488735869527,-0.5663929581642151,0.0005105898104018542,-0.5014310623519546,-0.06347652906479732,-0.0041258339776782445,-0.0033421954938627043,0.0,0.0,-0.6,0.0,0.0011720657348632812,0.0063364505767822266,0
2.5453009605407715,-0.01729421690106392,0.0028986746910959482,-0.5662629008293152,0.0003947706382138905,-0.5005520047346171,-0.05767272058600039,-0.008180348630952704,-0.002592287686875884,0.0,0.0,-0.6,0.0,0.004549503326416016,0.009620428085327148,0
2.5578067302703857,-0.017401061952114105,0.002979304175823927,-0.5662384033203125,0.00029007042130067086,-0.5002935270847602,-0.053919295796869444,-0.008616941795264019,-0.0019164445868126,0.0,0.0,-0.6,0.0,0.0043451786041259766,0.00943613052368164,0
2.5707743167877197,-0.017598439007997513,0.0031344976741820574,-0.5662638545036316,6.091925522217624e-05,-0.49949243947158617,-0.05569268495545019,-0.021577124207814435,-0.00044631450919809245,0.0,0.0,-0.6,0.0,0.005345821380615234,0.010248422622680664,0
2.5823044776916504,-0.017598439007997513,0.0031344976741820574,-0.5662638545036316,6.091925522217624e-05,-0.49949243947158617,-0.05569268495545019,-0.021577124207814435,-0.00044631450919809245,0.0,0.0,-0.6,0.0,0.0013861656188964844,0.006460428237915039,0
2.5917654037475586,-0.017776232212781906,0.003311426844447851,-0.5663057565689087,-0.0002447001443426714,-0.5000071532152177,-0.059847079240440235,-0.034834466176216994,0.001511823435490409,0.0,0.0,-0.6,0.0,0.005609035491943359,0.010550498962402344,0
