time,x,y,z,yaw,throttle,roll_rate,pitch_rate,yaw_rate,x_ref,y_ref,z_ref,yaw_ref,mpc_time,metadata
3.814697265625e-06,-0.13886776566505432,-0.08868386596441269,-0.2408926635980606,-0.05423752077457737,-0.5716647182148334,0.6422704679671181,-0.7884667085365851,0.3457130942490864,0.0,0.0,-0.6,0.0,0.02354598045349121,Hardware
0.03095245361328125,-0.13886776566505432,-0.08868386596441269,-0.2408926635980606,-0.05423752077457737,-0.5716647182148334,0.6422704679671181,-0.7884667085365851,0.3457130942490864,0.0,0.0,-0.6,0.0,0.0014460086822509766,Horizon:3.0
0.040978193283081055,-0.1388404220342636,-0.08858895301818848,-0.2408379316329956,-0.05423386319756463,-0.5716951916301457,0.6388636218726392,-0.78999071094385,0.3456858748169145,0.0,0.0,-0.6,0.0,0.010014772415161133,Num Steps:20
0.057718515396118164,-0.1388404220342636,-0.08858895301818848,-0.2408379316329956,-0.05423386319756463,-0.5716951916301457,0.6388636218726392,-0.78999071094385,0.3456858748169145,0.0,0.0,-0.6,0.0,0.0015108585357666016,No Pyjoules
0.06621980667114258,-0.1388349086046219,-0.08853374421596527,-0.24080339074134827,-0.05425916964499985,-0.5717783934304929,0.6365184444599326,-0.790375911920825,0.34584429256602106,0.0,0.0,-0.6,0.0,0.010286569595336914,0
0.08386635780334473,-0.1388349086046219,-0.08853374421596527,-0.24080339074134827,-0.05425916964499985,-0.5717783934304929,0.6365184444599326,-0.790375911920825,0.34584429256602106,0.0,0.0,-0.6,0.0,0.0016160011291503906,0
0.09247064590454102,-0.13884170353412628,-0.08843225240707397,-0.24077628552913666,-0.05433241346455506,-0.5712640459934034,0.6361492738382223,-0.7889645542724653,0.34632803705899967,0.0,0.0,-0.6,0.0,0.010132551193237305,0
0.10872697830200195,-0.13884170353412628,-0.08843225240707397,-0.24077628552913666,-0.05433241346455506,-0.5712640459934034,0.6361492738382223,-0.7889645542724653,0.34632803705899967,0.0,0.0,-0.6,0.0,0.0010890960693359375,0
0.11679768562316895,-0.13885733485221863,-0.08838227391242981,-0.24078801274299622,-0.05418466711769369,-0.5710971615542267,0.6475952536664019,-0.788164920305049,0.3453815917564797,0.0,0.0,-0.6,0.0,0.009548425674438477,0
0.13314175605773926,-0.13885733485221863,-0.08838227391242981,-0.24078801274299622,-0.05418466711769369,-0.5710971615542267,0.6475952536664019,-0.788164920305049,0.3453815917564797,0.0,0.0,-0.6,0.0,0.001332998275756836,0
0.14218974113464355,-0.13871560990810394,-0.08833067864179611,-0.24085576832294464,-0.052912629722134064,-0.5709527782947391,0.6426804218572059,-0.7356908565132799,0.33754974489264533,0.0,0.0,-0.6,0.0,0.00985097885131836,0
0.15897393226623535,-0.13871560990810394,-0.08833067864179611,-0.24085576832294464,-0.052912629722134064,-0.5709527782947391,0.6426804218572059,-0.7356908565132799,0.33754974489264533,0.0,0.0,-0.6,0.0,0.0013186931610107422,0
0.16788959503173828,-0.13795186579227448,-0.08832968026399612,-0.2410263568162918,-0.05262934615067322,-0.5695146181017628,0.6359630968167697,-0.6282665641808667,0.33641946279270823,0.0,0.0,-0.6,0.0,0.00958108901977539,0
0.18469619750976562,-0.13795186579227448,-0.08832968026399612,-0.2410263568162918,-0.05262934615067322,-0.5695146181017628,0.6359630968167697,-0.6282665641808667,0.33641946279270823,0.0,0.0,-0.6,0.0,0.001661539077758789,0
0.19318938255310059,-0.1363183856010437,-0.0880109965801239,-0.24179987609386444,-0.05099014265704104,-0.5640654606988623,0.5334522486081279,-0.44007155830226896,0.3268164998729777,0.0,0.0,-0.6,0.0,0.011156558990478516,0
0.21112442016601562,-0.1363183856010437,-0.0880109965801239,-0.24179987609386444,-0.05099014265704104,-0.5640654606988623,0.5334522486081279,-0.44007155830226896,0.3268164998729777,0.0,0.0,-0.6,0.0,0.0010497570037841797,0
0.2198472023010254,-0.13488250970840454,-0.08767234534025192,-0.24271713197231293,-0.04888008416861708,-0.5606783594908092,0.4782628786429441,-0.31159418241921744,0.3134299300406048,0.0,0.0,-0.6,0.0,0.00970005989074707,0
0.23564577102661133,-0.13488250970840454,-0.08767234534025192,-0.24271713197231293,-0.04888008416861708,-0.5606783594908092,0.4782628786429441,-0.31159418241921744,0.3134299300406048,0.0,0.0,-0.6,0.0,0.0014996528625488281,0
0.24501276016235352,-0.13194094598293304,-0.08687226474285126,-0.2449924647808075,-0.04562163977008708,-0.5545825327515811,0.34222831426956357,-0.033291490885718124,0.2927471881310058,0.0,0.0,-0.6,0.0,0.007786273956298828,0
0.2601315975189209,-0.12934564054012299,-0.08597350865602493,-0.24722230434417725,-0.04318022992112844,-0.5506885776000182,0.21504506493186534,0.17300507004410307,0.27717895030986656,0.0,0.0,-0.6,0.0,0.008070230484008789,0
0.2762174606323242,-0.12934564054012299,-0.08597350865602493,-0.24722230434417725,-0.04318022992112844,-0.5506885776000182,0.21504506493186534,0.17300507004410307,0.27717895030986656,0.0,0.0,-0.6,0.0,0.0015010833740234375,0
0.2851698398590088,-0.12603755295276642,-0.08464024215936661,-0.25023049116134644,-0.03897352785799435,-0.5464141690442371,0.04789063938588676,0.4455309756792627,0.2504119101128559,0.0,0.0,-0.6,0.0,0.00799250602722168,0
0.30031728744506836,-0.12603755295276642,-0.08464024215936661,-0.25023049116134644,-0.03897352785799435,-0.5464141690442371,0.04789063938588676,0.4455309756792627,0.2504119101128559,0.0,0.0,-0.6,0.0,0.0017001628875732422,0
0.31025266647338867,-0.12146266549825668,-0.0825701579451561,-0.25446948409080505,-0.03348525731561581,-0.542711913620271,-0.20732362232695423,0.7083500546730812,0.21518450834875888,0.0,0.0,-0.6,0.0,0.008332252502441406,0
0.32567739486694336,-0.12146266549825668,-0.0825701579451561,-0.25446948409080505,-0.03348525731561581,-0.542711913620271,-0.20732362232695423,0.7083500546730812,0.21518450834875888,0.0,0.0,-0.6,0.0,0.0014963150024414062,0
0.334716796875,-0.1179446130990982,-0.08083931356668472,-0.2578442692756653,-0.02936301897736902,-0.5407074211667798,-0.3604154200875556,0.7999999989343223,0.18913321595022797,0.0,0.0,-0.6,0.0,0.011271476745605469,0
0.3536252975463867,-0.1143324002623558,-0.07903198897838593,-0.2613958716392517,-0.02428473332520083,-0.5377047062466772,-0.4882210852789794,0.7999999951411364,0.15742870756211066,0.0,0.0,-0.6,0.0,0.009549856185913086,0
0.37068653106689453,-0.1143324002623558,-0.07903198897838593,-0.2613958716392517,-0.02428473332520083,-0.5377047062466772,-0.4882210852789794,0.7999999951411364,0.15742870756211066,0.0,0.0,-0.6,0.0,0.0015587806701660156,0
0.379976749420166,-0.10885736346244812,-0.07626727223396301,-0.2670651972293854,-0.01578214383323981,-0.5340046277167031,-0.6120065906544987,0.7999999999999807,0.10284011453795999,0.0,0.0,-0.6,0.0,0.012447118759155273,0
0.3983609676361084,-0.10885736346244812,-0.07626727223396301,-0.2670651972293854,-0.01578214383323981,-0.5340046277167031,-0.6120065906544987,0.7999999999999807,0.10284011453795999,0.0,0.0,-0.6,0.0,0.0014781951904296875,0
0.4078648090362549,-0.10331550240516663,-0.07342944294214249,-0.2730073630809784,-0.006293539767537311,-0.5313191098064476,-0.6924096646638841,0.7999999997665097,0.04042459088261626,0.0,0.0,-0.6,0.0,0.010745525360107422,0
0.4250948429107666,-0.10331550240516663,-0.07342944294214249,-0.2730073630809784,-0.006293539767537311,-0.5313191098064476,-0.6924096646638841,0.7999999997665097,0.04042459088261626,0.0,0.0,-0.6,0.0,0.0016827583312988281,0
0.43383216857910156,-0.0974516049027443,-0.0706639289855957,-0.27918514609336853,0.0038194617465563113,-0.529514698544039,-0.6700758700995045,0.7999999999999646,-0.02466515544126618,0.0,0.0,-0.6,0.0,0.012814521789550781,0
0.45336246490478516,-0.0974516049027443,-0.0706639289855957,-0.27918514609336853,0.0038194617465563113,-0.529514698544039,-0.6700758700995045,0.7999999999999646,-0.02466515544126618,0.0,0.0,-0.6,0.0,0.0013356208801269531,0
0.46231627464294434,-0.09333699196577072,-0.06887678802013397,-0.28337362408638,0.010334690278043178,-0.5282528815467434,-0.604523064027668,0.7999999982248073,-0.06612408938065588,0.0,0.0,-0.6,0.0,0.008006095886230469,0
0.47757935523986816,-0.09333699196577072,-0.06887678802013397,-0.28337362408638,0.010334690278043178,-0.5282528815467434,-0.604523064027668,0.7999999982248073,-0.06612408938065588,0.0,0.0,-0.6,0.0,0.0015327930450439453,0
0.48700499534606934,-0.08914820104837418,-0.06716416776180267,-0.28751856088638306,0.017123779682676067,-0.527075096330291,-0.48839861103517124,0.7999999999207883,-0.10887273081716131,0.0,0.0,-0.6,0.0,0.007501363754272461,0
0.5020256042480469,-0.0848555862903595,-0.06555981934070587,-0.2915869355201721,0.02313619379899555,-0.5264143079032125,-0.3448725761671512,0.7999999999114612,-0.14652403860690286,0.0,0.0,-0.6,0.0,0.007944583892822266,0
0.5170137882232666,-0.0848555862903595,-0.06555981934070587,-0.2915869355201721,0.02313619379899555,-0.5264143079032125,-0.3448725761671512,0.7999999999114612,-0.14652403860690286,0.0,0.0,-0.6,0.0,0.0011708736419677734,0
0.5254065990447998,-0.08046508580446243,-0.0640244409441948,-0.29555544257164,0.02887299246173313,-0.5259553912222112,-0.20615974530400105,0.7999999997556669,-0.1830805265290638,0.0,0.0,-0.6,0.0,0.007503032684326172,0
0.5411694049835205,-0.07544979453086853,-0.06224483624100685,-0.2998989522457123,0.035272422232853526,-0.5267291055961003,-0.011596053417705136,0.7999999482162393,-0.22407239007687443,0.0,0.0,-0.6,0.0,0.007960796356201172,0
0.5558412075042725,-0.07544979453086853,-0.06224483624100685,-0.2998989522457123,0.035272422232853526,-0.5267291055961003,-0.011596053417705136,0.7999999482162393,-0.22407239007687443,0.0,0.0,-0.6,0.0,0.0014503002166748047,0
0.5643613338470459,-0.07104717940092087,-0.06071633845567703,-0.3035743534564972,0.03968843565088566,-0.5274461193765249,0.0845015457658076,0.7999999980687066,-0.25326963479646003,0.0,0.0,-0.6,0.0,0.009185314178466797,0
0.5811522006988525,-0.07104717940092087,-0.06071633845567703,-0.3035743534564972,0.03968843565088566,-0.5274461193765249,0.0845015457658076,0.7999999980687066,-0.25326963479646003,0.0,0.0,-0.6,0.0,0.0015106201171875,0
0.589914083480835,-0.06610923260450363,-0.05896567180752754,-0.3075573444366455,0.04473077052594881,-0.5269623209514577,0.1838496615914576,0.6901708536817606,-0.28622743779551246,0.0,0.0,-0.6,0.0,0.006409645080566406,0
0.6024003028869629,-0.06610923260450363,-0.05896567180752754,-0.3075573444366455,0.04473077052594881,-0.5269623209514577,0.1838496615914576,0.6901708536817606,-0.28622743779551246,0.0,0.0,-0.6,0.0,0.0016040802001953125,0
0.6117243766784668,-0.060267239809036255,-0.05705713480710983,-0.3121955990791321,0.04977526670366761,-0.5269828461280553,0.3643894782344169,0.5198290786677223,-0.31904718319141023,0.0,0.0,-0.6,0.0,0.006582498550415039,0
0.623999834060669,-0.060267239809036255,-0.05705713480710983,-0.3121955990791321,0.04977526670366761,-0.5269828461280553,0.3643894782344169,0.5198290786677223,-0.31904718319141023,0.0,0.0,-0.6,0.0,0.001374959945678711,0
0.6330471038818359,-0.056150712072849274,-0.055650513619184494,-0.3154102563858032,0.05244532806084174,-0.526788508674994,0.40665488601659544,0.3292515366203325,-0.33633474019668247,0.0,0.0,-0.6,0.0,0.006250858306884766,0
0.6462440490722656,-0.056150712072849274,-0.055650513619184494,-0.3154102563858032,0.05244532806084174,-0.526788508674994,0.40665488601659544,0.3292515366203325,-0.33633474019668247,0.0,0.0,-0.6,0.0,0.0014519691467285156,0
0.6549742221832275,-0.05273173004388809,-0.05448397248983383,-0.3180899918079376,0.05507778061502056,-0.5269574344857555,0.38167238250962593,0.16229194958251036,-0.35329446252690394,0.0,0.0,-0.6,0.0,0.005908012390136719,0
0.6689894199371338,-0.048900775611400604,-0.05312721058726311,-0.3210794925689697,0.05729678408548814,-0.5265639709958276,0.3558389084335522,-0.014092655025035612,-0.3674616073913925,0.0,0.0,-0.6,0.0,0.005868434906005859,0
0.6816976070404053,-0.048900775611400604,-0.05312721058726311,-0.3210794925689697,0.05729678408548814,-0.5265639709958276,0.3558389084335522,-0.014092655025035612,-0.3674616073913925,0.0,0.0,-0.6,0.0,0.0014061927795410156,0
0.6904103755950928,-0.04488835483789444,-0.05164509639143944,-0.3243514597415924,0.059958498239752245,-0.5264628617767879,0.33613744746584023,-0.1985127129080196,-0.3845703349094214,0.0,0.0,-0.6,0.0,0.006362438201904297,0
0.7034912109375,-0.04488835483789444,-0.05164509639143944,-0.3243514597415924,0.059958498239752245,-0.5264628617767879,0.33613744746584023,-0.1985127129080196,-0.3845703349094214,0.0,0.0,-0.6,0.0,0.0011668205261230469,0
0.7123715877532959,-0.04151241481304169,-0.05045390501618385,-0.3271585702896118,0.061982012387086734,-0.5269612999732952,0.31738198271933366,-0.3113393961752678,-0.397604639008185,0.0,0.0,-0.6,0.0,0.006503582000732422,0
0.7252726554870605,-0.04151241481304169,-0.05045390501618385,-0.3271585702896118,0.061982012387086734,-0.5269612999732952,0.31738198271933366,-0.3113393961752678,-0.397604639008185,0.0,0.0,-0.6,0.0,0.0011196136474609375,0
0.7336385250091553,-0.03867490589618683,-0.04954942688345909,-0.3295232057571411,0.06404397905271057,-0.5262899220543814,0.297212241387979,-0.38793759985552406,-0.41094518842464367,0.0,0.0,-0.6,0.0,0.007532596588134766,0
0.748633623123169,-0.03867490589618683,-0.04954942688345909,-0.3295232057571411,0.06404397905271057,-0.5262899220543814,0.297212241387979,-0.38793759985552406,-0.41094518842464367,0.0,0.0,-0.6,0.0,0.0014109611511230469,0
0.7575829029083252,-0.03444809094071388,-0.04840490221977234,-0.33320069313049316,0.06680519145123497,-0.5249728258449496,0.2809167096847557,-0.45913900328026613,-0.4288517993952444,0.0,0.0,-0.6,0.0,0.006191730499267578,0
0.7714948654174805,-0.03444809094071388,-0.04840490221977234,-0.33320069313049316,0.06680519145123497,-0.5249728258449496,0.2809167096847557,-0.45913900328026613,-0.4288517993952444,0.0,0.0,-0.6,0.0,0.0013666152954101562,0
0.779937744140625,-0.031559739261865616,-0.04761366918683052,-0.33581840991973877,0.06846107000908226,-0.5248583960021395,0.19909726357908178,-0.4855415609548894,-0.43920930062970925,0.0,0.0,-0.6,0.0,0.006507396697998047,0
0.7934308052062988,-0.031559739261865616,-0.04761366918683052,-0.33581840991973877,0.06846107000908226,-0.5248583960021395,0.19909726357908178,-0.4855415609548894,-0.43920930062970925,0.0,0.0,-0.6,0.0,0.0016949176788330078,0
0.8031229972839355,-0.02888391725718975,-0.04696773737668991,-0.33842790126800537,0.07015090979312293,-0.5245438337209515,0.0785102001153129,-0.4994406404960246,-0.44958718142002096,0.0,0.0,-0.6,0.0,0.0066013336181640625,0
0.8168125152587891,-0.02888391725718975,-0.04696773737668991,-0.33842790126800537,0.07015090979312293,-0.5245438337209515,0.0785102001153129,-0.4994406404960246,-0.44958718142002096,0.0,0.0,-0.6,0.0,0.0014526844024658203,0
0.824810266494751,-0.025304580107331276,-0.04610229656100273,-0.34222397208213806,0.07193086031673525,-0.5233674119343859,-0.020477411364873774,-0.45152245605355784,-0.46071957017689763,0.0,0.0,-0.6,0.0,0.00641322135925293,0
0.8383114337921143,-0.025304580107331276,-0.04610229656100273,-0.34222397208213806,0.07193086031673525,-0.5233674119343859,-0.020477411364873774,-0.45152245605355784,-0.46071957017689763,0.0,0.0,-0.6,0.0,0.0014162063598632812,0
0.8468828201293945,-0.023189358413219452,-0.04557056725025177,-0.34466978907585144,0.07283348323100679,-0.5218204634965008,-0.05577985592263573,-0.4019644277437776,-0.4664417436300965,0.0,0.0,-0.6,0.0,0.005594730377197266,0
0.8599073886871338,-0.023189358413219452,-0.04557056725025177,-0.34466978907585144,0.07283348323100679,-0.5218204634965008,-0.05577985592263573,-0.4019644277437776,-0.4664417436300965,0.0,0.0,-0.6,0.0,0.0015120506286621094,0
0.8704214096069336,-0.021190620958805084,-0.045028768479824066,-0.34720277786254883,0.0734676056992189,-0.5220753427154232,-0.07620381715946228,-0.31120000997536784,-0.4703994307452935,0.0,0.0,-0.6,0.0,0.006383657455444336,0
0.8831014633178711,-0.021190620958805084,-0.045028768479824066,-0.34720277786254883,0.0734676056992189,-0.5220753427154232,-0.07620381715946228,-0.31120000997536784,-0.4703994307452935,0.0,0.0,-0.6,0.0,0.0013148784637451172,0
0.8918752670288086,-0.019474074244499207,-0.04452301934361458,-0.3496308922767639,0.07373104355183636,-0.5219227830408424,-0.1366498741092822,-0.28250995328095935,-0.4719514347698226,0.0,0.0,-0.6,0.0,0.00590062141418457,0
0.9054968357086182,-0.018689556047320366,-0.04429116100072861,-0.35082924365997314,0.07367762758375156,-0.5215876170951661,-0.16493084977942307,-0.23727148473175674,-0.47150243468312053,0.0,0.0,-0.6,0.0,0.006518840789794922,0
0.9193229675292969,-0.01726800575852394,-0.043855324387550354,-0.35315263271331787,0.07330319146550539,-0.5218230707796112,-0.2192269189574134,-0.14670383118879646,-0.468900638919021,0.0,0.0,-0.6,0.0,0.006258726119995117,0
0.9322795867919922,-0.01726800575852394,-0.043855324387550354,-0.35315263271331787,0.07330319146550539,-0.5218230707796112,-0.2192269189574134,-0.14670383118879646,-0.468900638919021,0.0,0.0,-0.6,0.0,0.0016489028930664062,0
0.9414191246032715,-0.0160305667668581,-0.043469157069921494,-0.3553571105003357,0.07285031929021077,-0.5209358427373423,-0.21278026704233444,-0.08621077120324253,-0.46596752723926005,0.0,0.0,-0.6,0.0,0.0063629150390625,0
0.9544153213500977,-0.0160305667668581,-0.043469157069921494,-0.3553571105003357,0.07285031929021077,-0.5209358427373423,-0.21278026704233444,-0.08621077120324253,-0.46596752723926005,0.0,0.0,-0.6,0.0,0.0015268325805664062,0
0.9634809494018555,-0.014965415932238102,-0.04310112074017525,-0.357479453086853,0.07229623502175649,-0.5211752075264002,-0.1886076224573102,-0.00915780763327845,-0.4623262181583122,0.0,0.0,-0.6,0.0,0.006460428237915039,0
0.9774737358093262,-0.014965415932238102,-0.04310112074017525,-0.357479453086853,0.07229623502175649,-0.5211752075264002,-0.1886076224573102,-0.00915780763327845,-0.4623262181583122,0.0,0.0,-0.6,0.0,0.0014324188232421875,0
0.9856717586517334,-0.013672543689608574,-0.04255152866244316,-0.360612154006958,0.07135919518318833,-0.5215474076275458,-0.22551954624561588,0.045693919545541514,-0.4562929104888788,0.0,0.0,-0.6,0.0,0.006227016448974609,0
0.9983959197998047,-0.013672543689608574,-0.04255152866244316,-0.360612154006958,0.07135919518318833,-0.5215474076275458,-0.22551954624561588,0.045693919545541514,-0.4562929104888788,0.0,0.0,-0.6,0.0,0.0013887882232666016,0
1.0077648162841797,-0.01293449942022562,-0.0421142578125,-0.3629203140735626,0.07029611895366626,-0.5210249694409358,-0.20221467130207485,0.09552690045615507,-0.4494309736709573,0.0,0.0,-0.6,0.0,0.005927562713623047,0
1.0201025009155273,-0.01293449942022562,-0.0421142578125,-0.3629203140735626,0.07029611895366626,-0.5210249694409358,-0.20221467130207485,0.09552690045615507,-0.4494309736709573,0.0,0.0,-0.6,0.0,0.0019450187683105469,0
1.030264139175415,-0.012645574286580086,-0.04195019602775574,-0.3638942837715149,0.06979999163993687,-0.5213379663354897,-0.16326421436334795,0.1128836607458439,-0.4462058322637159,0.0,0.0,-0.6,0.0,0.0075664520263671875,0
1.0453391075134277,-0.012148888781666756,-0.04171205312013626,-0.3655010759830475,0.06876173661047547,-0.5220990590440354,-0.13911066320364465,0.1703496425279163,-0.4394609205241419,0.0,0.0,-0.6,0.0,0.006090879440307617,0
1.0590548515319824,-0.011709607206285,-0.04138170927762985,-0.367209255695343,0.06779286535871029,-0.5233500502280685,-0.1262931363414357,0.16793595999326819,-0.43329806716948804,0.0,0.0,-0.6,0.0,0.006267070770263672,0
1.0730578899383545,-0.011709607206285,-0.04138170927762985,-0.367209255695343,0.06779286535871029,-0.5233500502280685,-0.1262931363414357,0.16793595999326819,-0.43329806716948804,0.0,0.0,-0.6,0.0,0.0013740062713623047,0
1.0816466808319092,-0.01136806607246399,-0.040912363678216934,-0.36897337436676025,0.06647963968974509,-0.5234818111599947,-0.07806111589674758,0.2089468325829827,-0.4248030620419585,0.0,0.0,-0.6,0.0,0.006317615509033203,0
1.093461036682129,-0.01136806607246399,-0.040912363678216934,-0.36897337436676025,0.06647963968974509,-0.5234818111599947,-0.07806111589674758,0.2089468325829827,-0.4248030620419585,0.0,0.0,-0.6,0.0,0.0011897087097167969,0
1.1022405624389648,-0.011128826066851616,-0.040493566542863846,-0.37040239572525024,0.0654593149569263,-0.524319463507393,-0.0349393643667203,0.21500008651176122,-0.4182231337759994,0.0,0.0,-0.6,0.0,0.00627446174621582,0
1.114922046661377,-0.011128826066851616,-0.040493566542863846,-0.37040239572525024,0.0654593149569263,-0.524319463507393,-0.0349393643667203,0.21500008651176122,-0.4182231337759994,0.0,0.0,-0.6,0.0,0.0013015270233154297,0
1.1241114139556885,-0.010898180305957794,-0.04013810306787491,-0.3715384006500244,0.06431070737024198,-0.5250017661294905,-0.04455782426876924,0.1923023778029548,-0.41095705913811803,0.0,0.0,-0.6,0.0,0.00642085075378418,0
1.1364352703094482,-0.010898180305957794,-0.04013810306787491,-0.3715384006500244,0.06431070737024198,-0.5250017661294905,-0.04455782426876924,0.1923023778029548,-0.41095705913811803,0.0,0.0,-0.6,0.0,0.0017464160919189453,0
1.1449954509735107,-0.010651404969394207,-0.039442360401153564,-0.3731761574745178,0.06261236942368957,-0.5258371726646518,-0.006734322571092357,0.19700666806018793,-0.40005786227447776,0.0,0.0,-0.6,0.0,0.006204843521118164,0
1.1583833694458008,-0.010651404969394207,-0.039442360401153564,-0.3731761574745178,0.06261236942368957,-0.5258371726646518,-0.006734322571092357,0.19700666806018793,-0.40005786227447776,0.0,0.0,-0.6,0.0,0.0015366077423095703,0
1.1668083667755127,-0.01061177533119917,-0.03890863060951233,-0.3742654025554657,0.06154918905455985,-0.5262452562784825,-0.021858824258263587,0.16292042234083226,-0.39334216572234454,0.0,0.0,-0.6,0.0,0.006039619445800781,0
1.180553674697876,-0.01061177533119917,-0.03890863060951233,-0.3742654025554657,0.06154918905455985,-0.5262452562784825,-0.021858824258263587,0.16292042234083226,-0.39334216572234454,0.0,0.0,-0.6,0.0,0.001321554183959961,0
1.1903865337371826,-0.010504243895411491,-0.038427550345659256,-0.3751908540725708,0.0605581251439686,-0.5265000681466159,-0.014824172063133965,0.13713849480630472,-0.3870281154956606,0.0,0.0,-0.6,0.0,0.0051119327545166016,0
1.20279860496521,-0.010474082082509995,-0.03791242837905884,-0.37615492939949036,0.0597915702225897,-0.5263244385424128,0.03630420755583476,0.09420192359118128,-0.38210096899957013,0.0,0.0,-0.6,0.0,0.00652003288269043,0
1.2153751850128174,-0.010474082082509995,-0.03791242837905884,-0.37615492939949036,0.0597915702225897,-0.5263244385424128,0.03630420755583476,0.09420192359118128,-0.38210096899957013,0.0,0.0,-0.6,0.0,0.0012464523315429688,0
1.2244927883148193,-0.01048167236149311,-0.03740387782454491,-0.3770156502723694,0.058850298628251384,-0.5274289260843139,0.05510779058837495,0.01995040937486964,-0.37614296229119537,0.0,0.0,-0.6,0.0,0.006489992141723633,0
1.2362022399902344,-0.01048167236149311,-0.03740387782454491,-0.3770156502723694,0.058850298628251384,-0.5274289260843139,0.05510779058837495,0.01995040937486964,-0.37614296229119537,0.0,0.0,-0.6,0.0,0.0011208057403564453,0
1.2449593544006348,-0.010472097434103489,-0.03714888170361519,-0.3774229884147644,0.058492228055754714,-0.5275260569666719,0.06905182989353965,0.017553852605625718,-0.3738541020825068,0.0,0.0,-0.6,0.0,0.0064084529876708984,0
1.2581357955932617,-0.010496175847947598,-0.03671454265713692,-0.3781740069389343,0.05751541869175901,-0.5287217332380133,0.007425539783013973,-0.04505441717727829,-0.3677395665143554,0.0,0.0,-0.6,0.0,0.00598454475402832,0
1.2719218730926514,-0.010496175847947598,-0.03671454265713692,-0.3781740069389343,0.05751541869175901,-0.5287217332380133,0.007425539783013973,-0.04505441717727829,-0.3677395665143554,0.0,0.0,-0.6,0.0,0.0013785362243652344,0
1.2800195217132568,-0.010512181557714939,-0.03607511520385742,-0.37919914722442627,0.056169292931503766,-0.5282191362078946,0.0625430890324291,-0.060028739298063974,-0.35913148101576353,0.0,0.0,-0.6,0.0,0.0056569576263427734,0
1.290715217590332,-0.010512181557714939,-0.03607511520385742,-0.37919914722442627,0.056169292931503766,-0.5282191362078946,0.0625430890324291,-0.060028739298063974,-0.35913148101576353,0.0,0.0,-0.6,0.0,0.0010578632354736328,0
1.2995426654815674,-0.010535728186368942,-0.03587975353002548,-0.3794776499271393,0.05570836574146017,-0.5287381223116391,0.07737362991113163,-0.08178550174256613,-0.3561973808819108,0.0,0.0,-0.6,0.0,0.005806446075439453,0
1.310929536819458,-0.010535728186368942,-0.03587975353002548,-0.3794776499271393,0.05570836574146017,-0.5287381223116391,0.07737362991113163,-0.08178550174256613,-0.3561973808819108,0.0,0.0,-0.6,0.0,0.0011773109436035156,0
1.3201029300689697,-0.010526441037654877,-0.03536267206072807,-0.38022446632385254,0.0541089119777683,-0.5300266527519747,0.09906322998711393,-0.11825718862299371,-0.3460062766605727,0.0,0.0,-0.6,0.0,0.006066560745239258,0
1.3322982788085938,-0.010526441037654877,-0.03536267206072807,-0.38022446632385254,0.0541089119777683,-0.5300266527519747,0.09906322998711393,-0.11825718862299371,-0.3460062766605727,0.0,0.0,-0.6,0.0,0.0011608600616455078,0
1.3410282135009766,-0.010535962879657745,-0.03523276373744011,-0.3804316818714142,0.05359051848892687,-0.5309674795543139,0.07914305879225178,-0.10742941411551714,-0.3426914800793555,0.0,0.0,-0.6,0.0,0.006583213806152344,0
1.3543870449066162,-0.010545150376856327,-0.03497270122170448,-0.38081857562065125,0.052402660096614116,-0.5305739288964064,0.04538626775785991,-0.10036229944122783,-0.33510933664925807,0.0,0.0,-0.6,0.0,0.006359100341796875,0
1.3680775165557861,-0.010545150376856327,-0.03497270122170448,-0.38081857562065125,0.052402660096614116,-0.5305739288964064,0.04538626775785991,-0.10036229944122783,-0.33510933664925807,0.0,0.0,-0.6,0.0,0.0012407302856445312,0
1.377342700958252,-0.010595678351819515,-0.03472181782126427,-0.381188303232193,0.05114648120616084,-0.5303843962938927,0.02828503057732969,-0.10216245575267574,-0.32708259510643817,0.0,0.0,-0.6,0.0,0.005475044250488281,0
1.3892765045166016,-0.010595678351819515,-0.03472181782126427,-0.381188303232193,0.05114648120616084,-0.5303843962938927,0.02828503057732969,-0.10216245575267574,-0.32708259510643817,0.0,0.0,-0.6,0.0,0.0013065338134765625,0
1.3997893333435059,-0.010706814005970955,-0.03445396199822426,-0.3815573751926422,0.049960089574655545,-0.5297464665896562,0.044193187659608696,-0.07851832889613497,-0.3194698128102607,0.0,0.0,-0.6,0.0,0.0057659149169921875,0
1.4123220443725586,-0.010706814005970955,-0.03445396199822426,-0.3815573751926422,0.049960089574655545,-0.5297464665896562,0.044193187659608696,-0.07851832889613497,-0.3194698128102607,0.0,0.0,-0.6,0.0,0.0014967918395996094,0
1.4208958148956299,-0.010964165441691875,-0.03415505960583687,-0.381967693567276,0.04857899830105317,-0.5301409618081611,0.021724591982637417,-0.07909311345705355,-0.3106628157836844,0.0,0.0,-0.6,0.0,0.006664276123046875,0
1.4340322017669678,-0.010964165441691875,-0.03415505960583687,-0.381967693567276,0.04857899830105317,-0.5301409618081611,0.021724591982637417,-0.07909311345705355,-0.3106628157836844,0.0,0.0,-0.6,0.0,0.0011742115020751953,0
1.4412932395935059,-0.011112664826214314,-0.033930495381355286,-0.38235822319984436,0.047610123661093434,-0.5295875247770442,0.014146895429131067,-0.04678300219093399,-0.304434728188329,0.0,0.0,-0.6,0.0,0.006549835205078125,0
1.4538040161132812,-0.011126864701509476,-0.0337543860077858,-0.38273802399635315,0.04658006611936467,-0.529096213530899,0.03015946572076531,-0.01928423059493251,-0.29778939141805333,0.0,0.0,-0.6,0.0,0.006055355072021484,0
1.465437412261963,-0.011126864701509476,-0.0337543860077858,-0.38273802399635315,0.04658006611936467,-0.529096213530899,0.03015946572076531,-0.01928423059493251,-0.29778939141805333,0.0,0.0,-0.6,0.0,0.00115966796875,0
1.474430799484253,-0.011193513870239258,-0.0336807444691658,-0.3829471170902252,0.04610808389089337,-0.5288967785681107,0.0089059417411163,-0.017117499980297306,-0.29478912138529506,0.0,0.0,-0.6,0.0,0.006357669830322266,0
1.4872801303863525,-0.011265043169260025,-0.03349157050251961,-0.3833402395248413,0.045229648169706156,-0.5295194520248444,-0.010443371566759375,0.0002474190238315246,-0.28916605067015977,0.0,0.0,-0.6,0.0,0.0055370330810546875,0
1.4989736080169678,-0.011362862773239613,-0.03339916467666626,-0.38355714082717896,0.044818835727961366,-0.5286391738986034,-0.0027711330739101448,0.012010297672401487,-0.2865090759642388,0.0,0.0,-0.6,0.0,0.005652189254760742,0
1.5104725360870361,-0.011362862773239613,-0.03339916467666626,-0.38355714082717896,0.044818835727961366,-0.5286391738986034,-0.0027711330739101448,0.012010297672401487,-0.2865090759642388,0.0,0.0,-0.6,0.0,0.0011069774627685547,0
1.5205492973327637,-0.011596431955695152,-0.03302035480737686,-0.38418006896972656,0.04362548285920214,-0.529027324612413,-0.04334725694817411,0.019177316157282912,-0.2789271663262786,0.0,0.0,-0.6,0.0,0.006026506423950195,0
1.5328714847564697,-0.011596431955695152,-0.03302035480737686,-0.38418006896972656,0.04362548285920214,-0.529027324612413,-0.04334725694817411,0.019177316157282912,-0.2789271663262786,0.0,0.0,-0.6,0.0,0.001245260238647461,0
1.541172742843628,-0.01181088387966156,-0.03273836150765419,-0.3846031725406647,0.042932682185998376,-0.5292465860150884,-0.025061906849135493,0.025122290042129722,-0.2744561292225488,0.0,0.0,-0.6,0.0,0.00593256950378418,0
1.553968906402588,-0.01181088387966156,-0.03273836150765419,-0.3846031725406647,0.042932682185998376,-0.5292465860150884,-0.025061906849135493,0.025122290042129722,-0.2744561292225488,0.0,0.0,-0.6,0.0,0.0014789104461669922,0
1.5630037784576416,-0.011950784362852573,-0.03255290538072586,-0.3849661648273468,0.042317133411717466,-0.5292667263308398,-0.008573652990861876,0.05736221983207913,-0.27043545232219035,0.0,0.0,-0.6,0.0,0.006061077117919922,0
1.5762290954589844,-0.011950784362852573,-0.03255290538072586,-0.3849661648273468,0.042317133411717466,-0.5292667263308398,-0.008573652990861876,0.05736221983207913,-0.27043545232219035,0.0,0.0,-0.6,0.0,0.0014677047729492188,0
1.5853548049926758,-0.012197726406157017,-0.032329145818948746,-0.38533568382263184,0.04167998197455768,-0.5299928380387023,-0.02527112884900641,0.01672005761192588,-0.26645770237190725,0.0,0.0,-0.6,0.0,0.0063610076904296875,0
1.598747730255127,-0.012419227510690689,-0.03209066763520241,-0.3856123387813568,0.04103676821072321,-0.529846245137441,-0.01976757040284978,0.04335129261263289,-0.2622913545258355,0.0,0.0,-0.6,0.0,0.0059435367584228516,0
1.6121182441711426,-0.012419227510690689,-0.03209066763520241,-0.3856123387813568,0.04103676821072321,-0.529846245137441,-0.01976757040284978,0.04335129261263289,-0.2622913545258355,0.0,0.0,-0.6,0.0,0.0013766288757324219,0
1.621020793914795,-0.012669184245169163,-0.03182075172662735,-0.3858587443828583,0.04039616323358503,-0.530437912605337,-0.047282811270405636,0.047834891348366236,-0.25824363430353153,0.0,0.0,-0.6,0.0,0.0062215328216552734,0
1.6341438293457031,-0.012669184245169163,-0.03182075172662735,-0.3858587443828583,0.04039616323358503,-0.530437912605337,-0.047282811270405636,0.047834891348366236,-0.25824363430353153,0.0,0.0,-0.6,0.0,0.0015120506286621094,0
1.6426255702972412,-0.013033529743552208,-0.0314660519361496,-0.3861229121685028,0.03933562853911049,-0.530548298766317,-0.020716892273037774,0.10512907567412316,-0.2513260172491324,0.0,0.0,-0.6,0.0,0.005652904510498047,0
1.6556131839752197,-0.013033529743552208,-0.0314660519361496,-0.3861229121685028,0.03933562853911049,-0.530548298766317,-0.020716892273037774,0.10512907567412316,-0.2513260172491324,0.0,0.0,-0.6,0.0,0.0019147396087646484,0
1.664060354232788,-0.013294650241732597,-0.031199930235743523,-0.3862343430519104,0.03867714009938765,-0.5306160684022223,0.0033464735853564677,0.08853475718895405,-0.24709855663029437,0.0,0.0,-0.6,0.0,0.006623268127441406,0
1.678126335144043,-0.013294650241732597,-0.031199930235743523,-0.3862343430519104,0.03867714009938765,-0.5306160684022223,0.0033464735853564677,0.08853475718895405,-0.24709855663029437,0.0,0.0,-0.6,0.0,0.0013623237609863281,0
1.6870551109313965,-0.013496628031134605,-0.03095535933971405,-0.38631153106689453,0.03773521183175466,-0.5314560852235719,-0.005765703696139081,0.04924889350886101,-0.2411533994152983,0.0,0.0,-0.6,0.0,0.0059986114501953125,0
1.7004125118255615,-0.013496628031134605,-0.03095535933971405,-0.38631153106689453,0.03773521183175466,-0.5314560852235719,-0.005765703696139081,0.04924889350886101,-0.2411533994152983,0.0,0.0,-0.6,0.0,0.0015425682067871094,0
1.7099769115447998,-0.013661830686032772,-0.03071368671953678,-0.3863348364830017,0.0366845222723691,-0.5316829908822573,-0.01241970780525995,0.09278402191517306,-0.2343916597333196,0.0,0.0,-0.6,0.0,0.00623631477355957,0
1.7231884002685547,-0.013661830686032772,-0.03071368671953678,-0.3863348364830017,0.0366845222723691,-0.5316829908822573,-0.01241970780525995,0.09278402191517306,-0.2343916597333196,0.0,0.0,-0.6,0.0,0.0013892650604248047,0
1.732144832611084,-0.013762861490249634,-0.030491210520267487,-0.386331170797348,0.03555020797337694,-0.5317061758844612,-0.0030231237828936292,0.16488241970994527,-0.22702832065838133,0.0,0.0,-0.6,0.0,0.007244110107421875,0
1.7464418411254883,-0.013830245472490788,-0.03031463362276554,-0.3863069713115692,0.03439571050907671,-0.5312514240913743,0.01686336512887257,0.20122570286895447,-0.21956404074301833,0.0,0.0,-0.6,0.0,0.006277322769165039,0
1.7597613334655762,-0.013830245472490788,-0.03031463362276554,-0.3863069713115692,0.03439571050907671,-0.5312514240913743,0.01686336512887257,0.20122570286895447,-0.21956404074301833,0.0,0.0,-0.6,0.0,0.001310586929321289,0
1.7707092761993408,-0.0139731764793396,-0.030100630596280098,-0.3862382769584656,0.03292483836673071,-0.5321240341168753,0.02550725399600706,0.17788309057300436,-0.2101770325241611,0.0,0.0,-0.6,0.0,0.006262779235839844,0
1.7831993103027344,-0.0139731764793396,-0.030100630596280098,-0.3862382769584656,0.03292483836673071,-0.5321240341168753,0.02550725399600706,0.17788309057300436,-0.2101770325241611,0.0,0.0,-0.6,0.0,0.0012388229370117188,0
1.7921879291534424,-0.014045671559870243,-0.029828915372490883,-0.3861813545227051,0.03175620897325508,-0.531702289028016,0.034532140694891814,0.20438511721099753,-0.20265905969442047,0.0,0.0,-0.6,0.0,0.006284952163696289,0
1.805629014968872,-0.014045671559870243,-0.029828915372490883,-0.3861813545227051,0.03175620897325508,-0.531702289028016,0.034532140694891814,0.20438511721099753,-0.20265905969442047,0.0,0.0,-0.6,0.0,0.0017039775848388672,0
1.814483642578125,-0.014042677357792854,-0.02951178513467312,-0.3861473500728607,0.03071041802682011,-0.5324164522675996,0.0011046739268190087,0.17995230340797416,-0.19608031386741376,0.0,0.0,-0.6,0.0,0.006109952926635742,0
1.8279435634613037,-0.014042677357792854,-0.02951178513467312,-0.3861473500728607,0.03071041802682011,-0.5324164522675996,0.0011046739268190087,0.17995230340797416,-0.19608031386741376,0.0,0.0,-0.6,0.0,0.0011594295501708984,0
1.8366293907165527,-0.014084812253713608,-0.02891768142580986,-0.3860422968864441,0.02945624678379586,-0.5324726570017408,0.014157932616162518,0.15344352314308965,-0.18806448651114516,0.0,0.0,-0.6,0.0,0.005589485168457031,0
1.8489444255828857,-0.014084812253713608,-0.02891768142580986,-0.3860422968864441,0.02945624678379586,-0.5324726570017408,0.014157932616162518,0.15344352314308965,-0.18806448651114516,0.0,0.0,-0.6,0.0,0.0012218952178955078,0
1.8566410541534424,-0.014199525117874146,-0.02847091667354107,-0.3859054744243622,0.02876562948349352,-0.5324745086578687,0.019614137151756732,0.11061010810305442,-0.18369485947079492,0.0,0.0,-0.6,0.0,0.005826473236083984,0
1.870898723602295,-0.014199525117874146,-0.02847091667354107,-0.3859054744243622,0.02876562948349352,-0.5324745086578687,0.019614137151756732,0.11061010810305442,-0.18369485947079492,0.0,0.0,-0.6,0.0,0.0013954639434814453,0
1.879819393157959,-0.01431474182754755,-0.027708379551768303,-0.38572514057159424,0.027966340304573994,-0.5322864472698683,-0.02380586949250867,0.03507894588403744,-0.1787690247852583,0.0,0.0,-0.6,0.0,0.006475687026977539,0
1.8931970596313477,-0.01431474182754755,-0.027708379551768303,-0.38572514057159424,0.027966340304573994,-0.5322864472698683,-0.02380586949250867,0.03507894588403744,-0.1787690247852583,0.0,0.0,-0.6,0.0,0.0015614032745361328,0
1.9021952152252197,-0.014422706328332424,-0.02715924382209778,-0.3855818212032318,0.027540195531133356,-0.5329974590494914,-0.017473490770041327,0.013852448312915567,-0.17607044606424002,0.0,0.0,-0.6,0.0,0.006224155426025391,0
1.9148898124694824,-0.014422706328332424,-0.02715924382209778,-0.3855818212032318,0.027540195531133356,-0.5329974590494914,-0.017473490770041327,0.013852448312915567,-0.17607044606424002,0.0,0.0,-0.6,0.0,0.0011873245239257812,0
1.9231023788452148,-0.01439633872359991,-0.0266246497631073,-0.38546183705329895,0.027127966859470325,-0.5329723355332803,-0.05574477402636832,-0.05545025842421099,-0.17358177894601462,0.0,0.0,-0.6,0.0,0.00670170783996582,0
1.9365875720977783,-0.01439633872359991,-0.0266246497631073,-0.38546183705329895,0.027127966859470325,-0.5329723355332803,-0.05574477402636832,-0.05545025842421099,-0.17358177894601462,0.0,0.0,-0.6,0.0,0.0012209415435791016,0
1.9453837871551514,-0.014423930086195469,-0.025772836059331894,-0.38535112142562866,0.02663350489872944,-0.5324172358257453,-0.0845247999487347,-0.09384789466523877,-0.17050620364657848,0.0,0.0,-0.6,0.0,0.006235837936401367,0
1.9576945304870605,-0.014423930086195469,-0.025772836059331894,-0.38535112142562866,0.02663350489872944,-0.5324172358257453,-0.0845247999487347,-0.09384789466523877,-0.17050620364657848,0.0,0.0,-0.6,0.0,0.0015826225280761719,0
1.966101884841919,-0.014514084905385971,-0.025167997926473618,-0.3852899372577667,0.026376766173145005,-0.5327489476316486,-0.11045043692756874,-0.15936257038334636,-0.16897895695443876,0.0,0.0,-0.6,0.0,0.005828380584716797,0
1.9804332256317139,-0.014514084905385971,-0.025167997926473618,-0.3852899372577667,0.026376766173145005,-0.5327489476316486,-0.11045043692756874,-0.15936257038334636,-0.16897895695443876,0.0,0.0,-0.6,0.0,0.0013937950134277344,0
1.9905545711517334,-0.014663845300674438,-0.024554453790187836,-0.3852159082889557,0.026095640308127638,-0.5318430412438213,-0.11867208326865288,-0.16110767741888918,-0.16718147436007694,0.0,0.0,-0.6,0.0,0.0056650638580322266,0
2.00272536277771,-0.014663845300674438,-0.024554453790187836,-0.3852159082889557,0.026095640308127638,-0.5318430412438213,-0.11867208326865288,-0.16110767741888918,-0.16718147436007694,0.0,0.0,-0.6,0.0,0.0012001991271972656,0
2.0113558769226074,-0.014846963807940483,-0.023958895355463028,-0.3851797580718994,0.025574814226130754,-0.5315522009280433,-0.13795959388151338,-0.1592276988837636,-0.16385653240639966,0.0,0.0,-0.6,0.0,0.006401538848876953,0
2.0258235931396484,-0.014846963807940483,-0.023958895355463028,-0.3851797580718994,0.025574814226130754,-0.5315522009280433,-0.13795959388151338,-0.1592276988837636,-0.16385653240639966,0.0,0.0,-0.6,0.0,0.001543283462524414,0
2.0353658199310303,-0.015145407989621162,-0.02330917678773403,-0.38510340452194214,0.025055199320388268,-0.5324728822739314,-0.1770790066016845,-0.21647325129824851,-0.160631418712247,0.0,0.0,-0.6,0.0,0.00654292106628418,0
2.049203634262085,-0.015508493408560753,-0.02264999970793724,-0.3850196599960327,0.02469722936295093,-0.5325214393738745,-0.18410186296801326,-0.31276912256537687,-0.15850883905664323,0.0,0.0,-0.6,0.0,0.006159782409667969,0
2.0619115829467773,-0.015508493408560753,-0.02264999970793724,-0.3850196599960327,0.02469722936295093,-0.5325214393738745,-0.18410186296801326,-0.31276912256537687,-0.15850883905664323,0.0,0.0,-0.6,0.0,0.0015459060668945312,0
2.0713953971862793,-0.015993112698197365,-0.022037697955965996,-0.3849259316921234,0.024418882353586465,-0.5326908635891813,-0.19014551695338822,-0.3538896419146779,-0.15678845153240073,0.0,0.0,-0.6,0.0,0.0065615177154541016,0
2.084108829498291,-0.015993112698197365,-0.022037697955965996,-0.3849259316921234,0.024418882353586465,-0.5326908635891813,-0.19014551695338822,-0.3538896419146779,-0.15678845153240073,0.0,0.0,-0.6,0.0,0.0014767646789550781,0
2.093100070953369,-0.016489531844854355,-0.02147923968732357,-0.3848717510700226,0.024364144716220146,-0.5321914922769152,-0.188106908233779,-0.3214982998806934,-0.15636255348524922,0.0,0.0,-0.6,0.0,0.006495475769042969,0
2.1060984134674072,-0.016489531844854355,-0.02147923968732357,-0.3848717510700226,0.024364144716220146,-0.5321914922769152,-0.188106908233779,-0.3214982998806934,-0.15636255348524922,0.0,0.0,-0.6,0.0,0.0019295215606689453,0
2.1149404048919678,-0.01711547188460827,-0.020632945001125336,-0.38480767607688904,0.02420227881481902,-0.5309532765167396,-0.1435124747052286,-0.26622653599703927,-0.1552058412864041,0.0,0.0,-0.6,0.0,0.006193399429321289,0
2.12809419631958,-0.01711547188460827,-0.020632945001125336,-0.38480767607688904,0.02420227881481902,-0.5309532765167396,-0.1435124747052286,-0.26622653599703927,-0.1552058412864041,0.0,0.0,-0.6,0.0,0.0013973712921142578,0
2.13677716255188,-0.017277108505368233,-0.020369218662381172,-0.3847840130329132,0.0240614828776334,-0.5309344178091301,-0.10519725125416339,-0.2547527479041462,-0.1542714561031054,0.0,0.0,-0.6,0.0,0.006701469421386719,0
2.1502296924591064,-0.017664199694991112,-0.019784163683652878,-0.3846474587917328,0.02410576074209873,-0.5321526339445087,-0.03680149274254455,-0.21186706206579783,-0.1544200259570838,0.0,0.0,-0.6,0.0,0.006305217742919922,0
2.1626713275909424,-0.017664199694991112,-0.019784163683652878,-0.3846474587917328,0.02410576074209873,-0.5321526339445087,-0.03680149274254455,-0.21186706206579783,-0.1544200259570838,0.0,0.0,-0.6,0.0,0.0016548633575439453,0
2.172452449798584,-0.017852850258350372,-0.019215302541851997,-0.38455042243003845,0.024245047947151068,-0.5324665664621089,-0.01563086140313717,-0.13025701267154344,-0.15516581875554544,0.0,0.0,-0.6,0.0,0.00626683235168457,0
2.1862621307373047,-0.017852850258350372,-0.019215302541851997,-0.38455042243003845,0.024245047947151068,-0.5324665664621089,-0.01563086140313717,-0.13025701267154344,-0.15516581875554544,0.0,0.0,-0.6,0.0,0.0012712478637695312,0
2.194981098175049,-0.017928777262568474,-0.018604671582579613,-0.38436800241470337,0.024385098347196585,-0.5330213204661318,-0.003070440169243104,-0.10163043909607646,-0.1559810625469655,0.0,0.0,-0.6,0.0,0.005959033966064453,0
2.208585500717163,-0.017928777262568474,-0.018604671582579613,-0.38436800241470337,0.024385098347196585,-0.5330213204661318,-0.003070440169243104,-0.10163043909607646,-0.1559810625469655,0.0,0.0,-0.6,0.0,0.0015072822570800781,0
2.216989517211914,-0.01825602352619171,-0.01770179346203804,-0.3840189576148987,0.024478189680728943,-0.5336193842982341,0.03349246053959157,-0.0070509444435816115,-0.156417189430973,0.0,0.0,-0.6,0.0,0.00645136833190918,0
2.2305188179016113,-0.01825602352619171,-0.01770179346203804,-0.3840189576148987,0.024478189680728943,-0.5336193842982341,0.03349246053959157,-0.0070509444435816115,-0.156417189430973,0.0,0.0,-0.6,0.0,0.0013790130615234375,0
2.240253448486328,-0.0185923483222723,-0.017052672803401947,-0.3836784362792969,0.02445526898656216,-0.5340330663745626,0.030285006631839334,0.02936321760886139,-0.15624567926318764,0.0,0.0,-0.6,0.0,0.006652355194091797,0
2.253279209136963,-0.0185923483222723,-0.017052672803401947,-0.3836784362792969,0.02445526898656216,-0.5340330663745626,0.030285006631839334,0.02936321760886139,-0.15624567926318764,0.0,0.0,-0.6,0.0,0.0012729167938232422,0
2.2614309787750244,-0.019055647775530815,-0.016061512753367424,-0.38311806321144104,0.02443635816624583,-0.5344110040830471,0.021267037393124386,0.08135274923642483,-0.15611558047350016,0.0,0.0,-0.6,0.0,0.006734609603881836,0
2.275298833847046,-0.019055647775530815,-0.016061512753367424,-0.38311806321144104,0.02443635816624583,-0.5344110040830471,0.021267037393124386,0.08135274923642483,-0.15611558047350016,0.0,0.0,-0.6,0.0,0.0011649131774902344,0
2.2838525772094727,-0.01944686472415924,-0.015399069525301456,-0.3826994299888611,0.024536680715191876,-0.5341184302194971,0.0103723260653391,0.09308181151520177,-0.15677737432965735,0.0,0.0,-0.6,0.0,0.006237030029296875,0
2.297403573989868,-0.01944686472415924,-0.015399069525301456,-0.3826994299888611,0.024536680715191876,-0.5341184302194971,0.0103723260653391,0.09308181151520177,-0.15677737432965735,0.0,0.0,-0.6,0.0,0.0010943412780761719,0
2.3062331676483154,-0.019749337807297707,-0.01479538343846798,-0.3823448717594147,0.02456750007972075,-0.5344868972879765,0.051477300330061655,0.14402543399177636,-0.15684431148197772,0.0,0.0,-0.6,0.0,0.006009817123413086,0
2.319222927093506,-0.019749337807297707,-0.01479538343846798,-0.3823448717594147,0.02456750007972075,-0.5344868972879765,0.051477300330061655,0.14402543399177636,-0.15684431148197772,0.0,0.0,-0.6,0.0,0.0011806488037109375,0
2.328458309173584,-0.020252898335456848,-0.014000155963003635,-0.38172173500061035,0.024543679621960322,-0.5350233212267491,0.02180353962464698,0.1132113463039878,-0.156783771382882,0.0,0.0,-0.6,0.0,0.0062558650970458984,0
2.3412458896636963,-0.020252898335456848,-0.014000155963003635,-0.38172173500061035,0.024543679621960322,-0.5350233212267491,0.02180353962464698,0.1132113463039878,-0.156783771382882,0.0,0.0,-0.6,0.0,0.001262664794921875,0
2.349893808364868,-0.020601794123649597,-0.013534561730921268,-0.3811948597431183,0.024489747576909394,-0.536010582422182,0.05245918379258023,0.12968778145494222,-0.15635224933548958,0.0,0.0,-0.6,0.0,0.005945682525634766,0
2.363032102584839,-0.020601794123649597,-0.013534561730921268,-0.3811948597431183,0.024489747576909394,-0.536010582422182,0.05245918379258023,0.12968778145494222,-0.15635224933548958,0.0,0.0,-0.6,0.0,0.0010976791381835938,0
2.371549367904663,-0.020977424457669258,-0.013102367520332336,-0.3805583119392395,0.024598718540748393,-0.5363627180036443,0.03431830631962061,0.1265865440391947,-0.15710486643802826,0.0,0.0,-0.6,0.0,0.006255626678466797,0
2.3843557834625244,-0.020977424457669258,-0.013102367520332336,-0.3805583119392395,0.024598718540748393,-0.5363627180036443,0.03431830631962061,0.1265865440391947,-0.15710486643802826,0.0,0.0,-0.6,0.0,0.0014581680297851562,0
2.3937878608703613,-0.021279482170939445,-0.012744458392262459,-0.3799774944782257,0.024542829881340242,-0.5365668421926589,0.0549713471311527,0.1091587212006731,-0.15670777693233612,0.0,0.0,-0.6,0.0,0.005686044692993164,0
2.4070804119110107,-0.021279482170939445,-0.012744458392262459,-0.3799774944782257,0.024542829881340242,-0.5365668421926589,0.0549713471311527,0.1091587212006731,-0.15670777693233612,0.0,0.0,-0.6,0.0,0.001310110092163086,0
2.4158108234405518,-0.021516768261790276,-0.012406793422996998,-0.37937214970588684,0.02432634894005438,-0.5365355215444846,0.07380336354158748,0.10059667320799354,-0.1552954330589039,0.0,0.0,-0.6,0.0,0.0064504146575927734,0
2.4291770458221436,-0.021516768261790276,-0.012406793422996998,-0.37937214970588684,0.02432634894005438,-0.5365355215444846,0.07380336354158748,0.10059667320799354,-0.1552954330589039,0.0,0.0,-0.6,0.0,0.0012845993041992188,0
2.438286066055298,-0.021735304966568947,-0.012192592024803162,-0.3787788450717926,0.024036589444137405,-0.5374588716427291,0.11152062660832121,0.08075283874336626,-0.1533813411429628,0.0,0.0,-0.6,0.0,0.006195545196533203,0
2.451183795928955,-0.021735304966568947,-0.012192592024803162,-0.3787788450717926,0.024036589444137405,-0.5374588716427291,0.11152062660832121,0.08075283874336626,-0.1533813411429628,0.0,0.0,-0.6,0.0,0.0013959407806396484,0
2.4595041275024414,-0.02204829640686512,-0.011916253715753555,-0.37786293029785156,0.02342697637747667,-0.5371896473649915,0.09227639320065674,0.0695464731508724,-0.14955642414047787,0.0,0.0,-0.6,0.0,0.0059947967529296875,0
2.4730112552642822,-0.02204829640686512,-0.011916253715753555,-0.37786293029785156,0.02342697637747667,-0.5371896473649915,0.09227639320065674,0.0695464731508724,-0.14955642414047787,0.0,0.0,-0.6,0.0,0.001268625259399414,0
2.481884241104126,-0.02224527858197689,-0.011785062029957771,-0.37731602787971497,0.023019683086865198,-0.53671258500717,0.05691312256838683,0.017422787886400854,-0.14705431873980807,0.0,0.0,-0.6,0.0,0.0056035518646240234,0
2.4951014518737793,-0.02224527858197689,-0.011785062029957771,-0.37731602787971497,0.023019683086865198,-0.53671258500717,0.05691312256838683,0.017422787886400854,-0.14705431873980807,0.0,0.0,-0.6,0.0,0.0016276836395263672,0
2.5048024654388428,-0.022423231974244118,-0.011699710041284561,-0.3767980635166168,0.022708963914421666,-0.5370326604055575,0.06180812086521936,-0.002837236373423709,-0.14508167667436975,0.0,0.0,-0.6,0.0,0.006127357482910156,0
2.5174500942230225,-0.022423231974244118,-0.011699710041284561,-0.3767980635166168,0.022708963914421666,-0.5370326604055575,0.06180812086521936,-0.002837236373423709,-0.14508167667436975,0.0,0.0,-0.6,0.0,0.0011730194091796875,0
2.526259660720825,-0.022629963234066963,-0.01168510876595974,-0.37631770968437195,0.02239026067437896,-0.5373151005614103,0.0757188891507634,-0.01930847979628646,-0.14304483759107528,0.0,0.0,-0.6,0.0,0.006357669830322266,0
2.5392115116119385,-0.022629963234066963,-0.01168510876595974,-0.37631770968437195,0.02239026067437896,-0.5373151005614103,0.0757188891507634,-0.01930847979628646,-0.14304483759107528,0.0,0.0,-0.6,0.0,0.0013730525970458984,0
2.547915458679199,-0.02294672280550003,-0.011783246882259846,-0.37585967779159546,0.022051579651820738,-0.5360202499013399,0.07551107637201865,-0.053506968422082,-0.14092454714641986,0.0,0.0,-0.6,0.0,0.005656719207763672,0
2.561901330947876,-0.02308749221265316,-0.011812662705779076,-0.37566307187080383,0.022069884145487658,-0.5360457813965013,0.08680379888844018,-0.07388935309388717,-0.14104769347624263,0.0,0.0,-0.6,0.0,0.006033420562744141,0
2.575288772583008,-0.02308749221265316,-0.011812662705779076,-0.37566307187080383,0.022069884145487658,-0.5360457813965013,0.08680379888844018,-0.07388935309388717,-0.14104769347624263,0.0,0.0,-0.6,0.0,0.001538991928100586,0
2.584486722946167,-0.023418501019477844,-0.011896117590367794,-0.3752535879611969,0.022049462033200344,-0.5352284799813287,0.11037042633589562,-0.10739230962857202,-0.1409420457552863,0.0,0.0,-0.6,0.0,0.00587773323059082,0
2.596259832382202,-0.023418501019477844,-0.011896117590367794,-0.3752535879611969,0.022049462033200344,-0.5352284799813287,0.11037042633589562,-0.10739230962857202,-0.1409420457552863,0.0,0.0,-0.6,0.0,0.001444101333618164,0
2.6052825450897217,-0.023677198216319084,-0.011942004784941673,-0.3749850392341614,0.022091642268576427,-0.5359156349794448,0.09569855607264434,-0.1352160530029471,-0.14126558663968877,0.0,0.0,-0.6,0.0,0.006138801574707031,0
2.6188600063323975,-0.023677198216319084,-0.011942004784941673,-0.3749850392341614,0.022091642268576427,-0.5359156349794448,0.09569855607264434,-0.1352160530029471,-0.14126558663968877,0.0,0.0,-0.6,0.0,0.0015888214111328125,0
2.627462863922119,-0.024086041375994682,-0.011870917864143848,-0.37453943490982056,0.02196217359924435,-0.5355907665585218,0.046939466832322134,-0.17662576535417412,-0.14053517975350385,0.0,0.0,-0.6,0.0,0.005947589874267578,0
2.639625310897827,-0.024086041375994682,-0.011870917864143848,-0.37453943490982056,0.02196217359924435,-0.5355907665585218,0.046939466832322134,-0.17662576535417412,-0.14053517975350385,0.0,0.0,-0.6,0.0,0.0011699199676513672,0
2.6496999263763428,-0.02441127598285675,-0.011891570873558521,-0.37431707978248596,0.021778464318435335,-0.5350128229124235,0.027661095913472288,-0.16774433587239057,-0.13938993562452848,0.0,0.0,-0.6,0.0,0.007886886596679688,0
2.66396164894104,-0.02441127598285675,-0.011891570873558521,-0.37431707978248596,0.021778464318435335,-0.5350128229124235,0.027661095913472288,-0.16774433587239057,-0.13938993562452848,0.0,0.0,-0.6,0.0,0.0011646747589111328,0
2.671476364135742,-0.024686239659786224,-0.011837086640298367,-0.3741260766983032,0.021536406511437543,-0.5349492366326476,0.024520992881867276,-0.16342738684923472,-0.13787196787103967,0.0,0.0,-0.6,0.0,0.006773710250854492,0
2.6851096153259277,-0.024686239659786224,-0.011837086640298367,-0.3741260766983032,0.021536406511437543,-0.5349492366326476,0.024520992881867276,-0.16342738684923472,-0.13787196787103967,0.0,0.0,-0.6,0.0,0.0012066364288330078,0
2.693793296813965,-0.025093698874115944,-0.011715416796505451,-0.3739509582519531,0.02120973100961426,-0.5344740210854592,-0.06289047046308673,-0.17068042451895005,-0.13592176359089128,0.0,0.0,-0.6,0.0,0.006124973297119141,0
2.7076609134674072,-0.025093698874115944,-0.011715416796505451,-0.3739509582519531,0.02120973100961426,-0.5344740210854592,-0.06289047046308673,-0.17068042451895005,-0.13592176359089128,0.0,0.0,-0.6,0.0,0.0011773109436035156,0
2.7159602642059326,-0.025364195927977562,-0.011713038198649883,-0.3739180862903595,0.021004715805930958,-0.5334217090927084,-0.09113897993462537,-0.10992502335589446,-0.1345890224498604,0.0,0.0,-0.6,0.0,0.0060269832611083984,0
2.729255199432373,-0.025364195927977562,-0.011713038198649883,-0.3739180862903595,0.021004715805930958,-0.5334217090927084,-0.09113897993462537,-0.10992502335589446,-0.1345890224498604,0.0,0.0,-0.6,0.0,0.001313924789428711,0
2.7380287647247314,-0.02572372369468212,-0.011786043643951416,-0.37397027015686035,0.020790468122954597,-0.5329461908483163,-0.06512414370681134,-0.10574598161782661,-0.13320756308233786,0.0,0.0,-0.6,0.0,0.007359027862548828,0
2.752739906311035,-0.02572372369468212,-0.011786043643951416,-0.37397027015686035,0.020790468122954597,-0.5329461908483163,-0.06512414370681134,-0.10574598161782661,-0.13320756308233786,0.0,0.0,-0.6,0.0,0.001621246337890625,0
2.76169490814209,-0.02604825049638748,-0.011765947565436363,-0.37404096126556396,0.020417987405995312,-0.5329662455934328,-0.07289801480918409,-0.06160990082328405,-0.13079027310027416,0.0,0.0,-0.6,0.0,0.005596160888671875,0
2.7753701210021973,-0.026179583743214607,-0.011719158850610256,-0.37408602237701416,0.020252406550962977,-0.5329192698820941,-0.08830457945005066,-0.024258642188295567,-0.12971344430715032,0.0,0.0,-0.6,0.0,0.006140947341918945,0
2.7880101203918457,-0.026179583743214607,-0.011719158850610256,-0.37408602237701416,0.020252406550962977,-0.5329192698820941,-0.08830457945005066,-0.024258642188295567,-0.12971344430715032,0.0,0.0,-0.6,0.0,0.0011415481567382812,0
2.7967543601989746,-0.02654779516160488,-0.011562783271074295,-0.37420782446861267,0.019698087220762696,-0.5327216468256446,-0.12588551661252997,0.08623916886169772,-0.1261147097666167,0.0,0.0,-0.6,0.0,0.0071752071380615234,0
2.8107283115386963,-0.02654779516160488,-0.011562783271074295,-0.37420782446861267,0.019698087220762696,-0.5327216468256446,-0.12588551661252997,0.08623916886169772,-0.1261147097666167,0.0,0.0,-0.6,0.0,0.001306295394897461,0
2.8201379776000977,-0.026796111837029457,-0.011481057852506638,-0.3742488920688629,0.0193118126384342,-0.5324158136715639,-0.09339558381486736,0.1241462446878494,-0.12353814558052979,0.0,0.0,-0.6,0.0,0.005746364593505859,0
2.8319497108459473,-0.026796111837029457,-0.011481057852506638,-0.3742488920688629,0.0193118126384342,-0.5324158136715639,-0.09339558381486736,0.1241462446878494,-0.12353814558052979,0.0,0.0,-0.6,0.0,0.0011546611785888672,0
2.84093976020813,-0.027015145868062973,-0.011427301913499832,-0.3742830753326416,0.01908606895932057,-0.5325108301360031,-0.03551910101309365,0.1263625977214694,-0.12196668023239332,0.0,0.0,-0.6,0.0,0.0063304901123046875,0
2.853440046310425,-0.027015145868062973,-0.011427301913499832,-0.3742830753326416,0.01908606895932057,-0.5325108301360031,-0.03551910101309365,0.1263625977214694,-0.12196668023239332,0.0,0.0,-0.6,0.0,0.0011875629425048828,0
2.8624765872955322,-0.027229052037000656,-0.011457734741270542,-0.3742579221725464,0.01875580171528842,-0.5335399341130248,-0.0402361559040936,0.13004867265319897,-0.11987915733153222,0.0,0.0,-0.6,0.0,0.006380796432495117,0
2.8756966590881348,-0.027229052037000656,-0.011457734741270542,-0.3742579221725464,0.01875580171528842,-0.5335399341130248,-0.0402361559040936,0.13004867265319897,-0.11987915733153222,0.0,0.0,-0.6,0.0,0.0014071464538574219,0
2.8850414752960205,-0.027485720813274384,-0.011520689353346825,-0.37413638830184937,0.018166658068438642,-0.5338061038031359,-0.018884184053946852,0.19624460721480477,-0.11601014838265061,0.0,0.0,-0.6,0.0,0.00601959228515625,0
2.8978168964385986,-0.027485720813274384,-0.011520689353346825,-0.37413638830184937,0.018166658068438642,-0.5338061038031359,-0.018884184053946852,0.19624460721480477,-0.11601014838265061,0.0,0.0,-0.6,0.0,0.0014081001281738281,0
2.90682053565979,-0.02771482802927494,-0.011496856808662415,-0.3739950954914093,0.01773299194955667,-0.5339252149959363,0.017234925539942693,0.2218017346651362,-0.11313017873545826,0.0,0.0,-0.6,0.0,0.0059299468994140625,0
2.9199206829071045,-0.02771482802927494,-0.011496856808662415,-0.3739950954914093,0.01773299194955667,-0.5339252149959363,0.017234925539942693,0.2218017346651362,-0.11313017873545826,0.0,0.0,-0.6,0.0,0.0014638900756835938,0
2.930346965789795,-0.027886446565389633,-0.011474072001874447,-0.373823344707489,0.01732538144183004,-0.5347481039484939,0.06093930939434881,0.17524436244998273,-0.11045801407033888,0.0,0.0,-0.6,0.0,0.006624937057495117,0
2.9441940784454346,-0.027886446565389633,-0.011474072001874447,-0.373823344707489,0.01732538144183004,-0.5347481039484939,0.06093930939434881,0.17524436244998273,-0.11045801407033888,0.0,0.0,-0.6,0.0,0.0015969276428222656,0
2.95259952545166,-0.028056388720870018,-0.01151383575052023,-0.37356603145599365,0.016818587600195677,-0.5353423994059925,0.03731751572501005,0.20197981835185652,-0.10728234599513614,0.0,0.0,-0.6,0.0,0.006201505661010742,0
2.9661872386932373,-0.028056388720870018,-0.01151383575052023,-0.37356603145599365,0.016818587600195677,-0.5353423994059925,0.03731751572501005,0.20197981835185652,-0.10728234599513614,0.0,0.0,-0.6,0.0,0.0014657974243164062,0
2.9753780364990234,-0.028219813480973244,-0.011529821902513504,-0.3732829988002777,0.016495647226039137,-0.5353498066631156,0.038293952868884124,0.167202252491519,-0.10525265747559856,0.0,0.0,-0.6,0.0,0.0066547393798828125,0
2.9882588386535645,-0.028327498584985733,-0.011461729183793068,-0.3730093240737915,0.016122978400891438,-0.5357038054747935,0.03260913789987756,0.13603850787073068,-0.10291827510919235,0.0,0.0,-0.6,0.0,0.0068759918212890625,0
3.0020408630371094,-0.028327498584985733,-0.011461729183793068,-0.3730093240737915,0.016122978400891438,-0.5357038054747935,0.03260913789987756,0.13603850787073068,-0.10291827510919235,0.0,0.0,-0.6,0.0,0.0013287067413330078,0
3.010838747024536,-0.02848821133375168,-0.011468878015875816,-0.3726966083049774,0.015857705996501784,-0.5356787407207945,0.06810210531558095,0.0714829530290039,-0.10119952950157995,0.0,0.0,-0.6,0.0,0.006268739700317383,0
3.0247621536254883,-0.028598228469491005,-0.011490524746477604,-0.3724348843097687,0.0155676606644865,-0.5350123800878326,0.061817396766580816,0.045731004165083744,-0.09939620422466253,0.0,0.0,-0.6,0.0,0.00764918327331543,0
3.039052963256836,-0.028598228469491005,-0.011490524746477604,-0.3724348843097687,0.0155676606644865,-0.5350123800878326,0.061817396766580816,0.045731004165083744,-0.09939620422466253,0.0,0.0,-0.6,0.0,0.0014290809631347656,0
3.0483553409576416,-0.02873225510120392,-0.011491074226796627,-0.3721783459186554,0.015287351814024868,-0.5361138759410845,0.032903691872712776,-0.0217053404569384,-0.09771508542820295,0.0,0.0,-0.6,0.0,0.005926847457885742,0
3.060659646987915,-0.02873225510120392,-0.011491074226796627,-0.3721783459186554,0.015287351814024868,-0.5361138759410845,0.032903691872712776,-0.0217053404569384,-0.09771508542820295,0.0,0.0,-0.6,0.0,0.0016262531280517578,0
3.070523262023926,-0.028878340497612953,-0.011481082998216152,-0.37194564938545227,0.015029240716927265,-0.5360314743404004,0.013826796095587547,-0.08014027950977809,-0.09614599253302776,0.0,0.0,-0.6,0.0,0.006365060806274414,0
